     2.10           OBSERVATION DATA    G                   RINEX VERSION / TYPE
teqc  2015Nov6                          20160524 15:03:13UTCPGM / RUN BY / DATE 
gfzrnx-2.1.12       FILE PROCESSING     20250424 030027 UTC COMMENT             
INITIAL_RINEX_VERSION: 2.11                                 COMMENT             
HKKS                                                        MARKER NAME         
23005M001                                                   MARKER NUMBER       
SMO                 Lands Department HKSAR                  OBSERVER / AGENCY   
5338K45583          TRIMBLE NETR9       5.10                REC # / TYPE / VERS 
5343354868          TRM59800.00     SCIS                    ANT # / TYPE        
        0.0080        0.0000        0.0000                  ANTENNA: DELTA H/E/N
 -2429525.8966  5377816.6360  2412152.7354                  APPROX POSITION XYZ 
     7    C1    C2    C5    L1    L2    L5    P2            # / TYPES OF OBSERV 
Linux2.6.32-279.el6.x86_64|x86_64|gcc|Win64-MinGW64|=       COMMENT             
R3Converter 1.23    SMO                 20160524 143621 UTC COMMENT             
----------------------------------------------------------- COMMENT             
     1     1                                                WAVELENGTH FACT L1/2
     0                                                      RCV CLOCK OFFS APPL 
    17                                                      LEAP SECONDS        
CARRIER PHASE MEASUREMENTS: PHASE SHIFTS REMOVED            COMMENT             
----------------------------------------------------------- COMMENT             
cnvtToRINEX 2.30.0  SMO                 24-May-16 13:17 UTC COMMENT             
Forced Modulo Decimation to 5 seconds                       COMMENT             
----------------------------------------------------------- COMMENT             
GFZRNX.NUM_EPOCHS: 720                                      COMMENT
    11                                                      # OF SATELLITES     
   G10   720   720   720   720   720   720   720            PRN / # OF OBS      
   G12   720   720         720   720         720            PRN / # OF OBS      
   G14   720               720   720         720            PRN / # OF OBS      
   G15   720   717         717   717         717            PRN / # OF OBS      
   G18   720               720   720         720            PRN / # OF OBS      
   G20   720               718   718         718            PRN / # OF OBS      
   G21   720               720   720         720            PRN / # OF OBS      
   G24   720   720   720   720   720   720   720            PRN / # OF OBS      
   G25   720   720   720   720   720   720   720            PRN / # OF OBS      
   G31   720   720         720   720         720            PRN / # OF OBS      
   G32   720   720   720   720   720   720   720            PRN / # OF OBS      
     5.000                                                  INTERVAL            
  2016     4    20     0     0    0.0000000     GPS         TIME OF FIRST OBS   
  2016     4    20     0    59   55.0000000     GPS         TIME OF LAST OBS    
                                                            END OF HEADER      
 16 04 20 00 00 00.0000000  0 11G10G12G14G15G18G20G21G24G25G31G32   
  21596693.703 7  21596701.172 9  21596701.539 9 113491417.922 7  88434864.374 9
  84750076.663 9  21596701.48049
  22128335.563 6  22128341.496 9                 116285114.452 6  90611844.197 9
                  22128341.19948
  23060554.336 5                                 121183979.571 5  94429102.54547
                  23060560.00447
  23945787.898 5  23945793.363 8                 125836086.158 5  98054033.114 8
                  23945792.82847
  20340279.383 7                                 106888893.034 7  83290054.44049
                  20340283.78549
  22907264.703 6                                 120378497.391 6  93801480.25347
                  22907270.40647
  21753815.797 7                                 114317133.002 7  89078253.51548
                  21753820.95748
  22136362.984 6  22136371.480 9  22136373.637 9 116327374.082 6  90644746.873 9
  86867887.193 9  22136371.60248
  22464795.820 6  22464804.535 9  22464806.484 9 118053288.019 6  91989620.849 9
  88156729.109 9  22464804.66048
  24016988.414 5  24016994.527 8                 126209914.671 5  98345575.320 8
                  24016994.76646
  23087067.352 6  23087076.102 9  23087076.930 9 121323315.322 6  94537686.175 9
  90598620.519 9  23087075.84047
 16 04 20 00 00 05.0000000  0 11G10G12G14G15G18G20G21G24G25G31G32   
  21594376.195 7  21594383.426 9  21594383.836 9 113479238.316 7  88425373.774 9
  84740981.497 9  21594383.66049
  22127206.461 6  22127212.332 9                 116279180.642 6  90607220.450 9
                  22127212.09448
  23059524.586 5                                 121178570.616 5  94424887.77547
                  23059530.54347
  23947519.305 6  23947525.492 8                 125845186.733 6  98061124.472 8
                  23947524.73047
  20339420.078 7                                 106884377.770 7  83286536.05049
                  20339424.17249
  22909861.992 6                                 120392142.097 6  93812112.47747
                  22909867.04747
  21755679.750 7                                 114326927.100 7  89085885.27448
                  21755684.88348
  22139099.086 6  22139107.000 9  22139108.887 9 116341749.504 6  90655948.493 9
  86878622.073 9  22139106.85248
  22462214.422 6  22462223.176 9  22462225.031 9 118039724.033 6  91979051.501 9
  88146600.165 9  22462223.09048
  24013834.148 5  24013840.398 8                 126193338.001 5  98332658.440 8
                  24013840.28146
  23085789.281 6  23085796.941 9  23085797.918 9 121316594.573 6  94532449.218 9
  90593601.775 9  23085796.77047
 16 04 20 00 00 10.0000000  0 11G10G12G14G15G18G20G21G24G25G31G32   
  21592059.148 7  21592066.543 9  21592066.793 9 113467064.375 7  88415887.582 9
  84731890.571 9  21592066.90649
  22126079.719 6  22126085.703 9                 116273259.658 6  90602606.690 9
                  22126085.56648
  23058496.070 6                                 121173162.782 6  94420673.87747
                  23058501.06347
  23949251.711 6  23949257.297 8                 125854286.788 6  98068215.432 8
                  23949256.59046
  20338562.906 7                                 106879873.007 7  83283025.84449
                  20338567.28949
  22912459.258 6                                 120405794.412 6  93822750.63647
                  22912465.13347
  21757545.336 7                                 114336730.723 7  89093524.45548
                  21757550.02348
  22141835.648 6  22141843.574 9  22141845.570 9 116356130.333 6  90667154.336 9
  86889361.002 9  22141843.35948
  22459634.789 6  22459643.074 9  22459645.355 9 118026165.828 6  91968486.681 9
  88136475.537 9  22459643.06348
  24010680.258 5  24010687.336 8                 126176767.581 5  98319746.425 8
                  24010686.95346
  23084509.953 6  23084518.293 9  23084519.078 9 121309874.750 6  94527212.995 9
  90588583.721 9  23084518.34047
 16 04 20 00 00 15.0000000  0 11G10G12G14G15G18G20G21G24G25G31G32   
  21589743.648 7  21589751.316 9  21589751.625 9 113454896.476 7  88406406.105 9
  84722804.152 9  21589751.73849
  22124955.234 6  22124960.727 9                 116267351.876 6  90598003.221 9
                  22124960.89148
  23057466.422 5                                 121167756.435 5  94416461.14047
                  23057472.57047
  23950983.602 5  23950989.266 8                 125863386.786 5  98075306.328 8
                  23950988.97747
  20337707.594 7                                 106875379.105 7  83279524.10349
                  20337712.02749
  22915058.828 6                                 120419454.721 6  93833395.01947
                  22915064.98447
  21759412.547 7                                 114346544.241 7  89101171.35048
                  21759417.95748
  22144573.211 6  22144581.551 9  22144583.266 9 116370517.040 6  90678364.756 9
  86900104.316 9  22144581.11348
  22457055.320 6  22457064.598 9  22457066.668 9 118012613.807 6  91957926.642 9
  88126355.519 9  22457064.02347
  24007528.828 5  24007535.219 8                 126160203.757 5  98306839.548 8
                  24007534.72746
  23083231.516 6  23083239.961 9  23083240.492 9 121303156.178 6  94521977.740 9
  90583566.601 9  23083239.75447
 16 04 20 00 00 20.0000000  0 11G10G12G14G15G18G20G21G24G25G31G32   
  21587429.422 7  21587436.488 9  21587436.852 9 113442734.377 7  88396929.144 9
  84713722.068 9  21587437.14149
  22123833.492 6  22123839.723 9                 116261456.987 6  90593409.797 9
                  22123839.87548
  23056438.773 6                                 121162351.287 6  94412249.33747
                  23056443.88747
  23952714.469 5  23952720.969 8                 125872486.442 5  98082396.957 8
                  23952720.99247
  20336854.617 7                                 106870895.777 7  83276030.59349
                  20336858.61749
  22917660.070 6                                 120433122.724 6  93844045.40247
                  22917666.31647
  21761281.906 7                                 114356367.378 7  89108825.73448
                  21761287.14548
  22147312.469 6  22147320.078 9  22147322.105 9 116384909.287 6  90689579.477 9
  86910851.765 9  22147320.07048
  22454478.484 6  22454486.270 9  22454488.719 9 117999067.671 6  91947371.222 9
  88116239.904 9  22454486.13348
  24004378.297 5  24004383.918 8                 126143646.280 5  98293937.624 8
                  24004383.78546
  23081953.492 6  23081961.074 9  23081962.500 9 121296438.548 6  94516743.224 9
  90578550.189 9  23081961.58647
 16 04 20 00 00 25.0000000  0 11G10G12G14G15G18G20G21G24G25G31G32   
  21585116.102 7  21585123.707 9  21585124.000 9 113430577.919 7  88387456.586 9
  84704644.194 9  21585124.11349
  22122713.906 6  22122719.895 9                 116255575.029 6  90588826.454 9
                  22122719.86748
  23055410.164 5                                 121156947.191 5  94408038.34647
                  23055415.68847
  23954445.688 5  23954452.762 8                 125881585.593 5  98089487.179 8
                  23954453.00847
  20336003.250 7                                 106866422.920 7  83272545.24949
                  20336007.54749
  22920262.359 6                                 120446798.277 6  93854701.66147
                  22920267.85247
  21763153.266 7                                 114366199.972 7  89116487.48848
                  21763158.06348
  22150051.953 6  22150060.211 9  22150062.133 9 116399306.928 6  90700798.416 9
  86921603.248 9  22150060.04348
  22451901.227 6  22451910.359 9  22451911.949 9 117985527.350 6  91936820.315 9
  88106128.622 9  22451909.65648
  24001228.391 5  24001234.570 8                 126127095.031 5  98281040.543 8
                  24001234.21946
  23080675.594 6  23080683.441 9  23080684.328 9 121289721.782 6  94511509.376 9
  90573534.419 9  23080683.23847
 16 04 20 00 00 30.0000000  0 11G10G12G14G15G18G20G21G24G25G31G32   
  21582804.016 7  21582811.141 9  21582811.547 9 113418427.483 7  88377988.708 9
  84695570.815 9  21582811.60249
  22121597.516 6  22121603.359 9                 116249706.235 6  90584253.377 9
                  22121603.62548
  23054381.656 6                                 121151544.578 6  94403828.52147
                  23054387.73047
  23956177.227 5  23956184.336 8                 125890684.643 5  98096577.338 8
                  23956184.65647
  20335154.289 7                                 106861960.847 7  83269068.30549
                  20335158.98449
  22922866.625 6                                 120460481.719 6  93865364.06047
                  22922872.18447
  21765025.875 7                                 114376042.357 7  89124156.87048
                  21765031.02748
  22152792.633 6  22152800.691 9  22152802.879 9 116413710.349 6  90712021.865 9
  86932359.044 9  22152800.43448
  22449326.031 6  22449335.168 9  22449336.516 9 117971993.126 6  91926274.174 9
  88096021.897 9  22449334.62948
  23998080.055 5  23998086.332 8                 126110550.302 5  98268148.546 8
                  23998085.93046
  23079397.508 6  23079405.125 9  23079406.336 9 121283006.178 6  94506276.437 9
  90568519.516 9  23079405.07047
 16 04 20 00 00 35.0000000  0 11G10G12G14G15G18G20G21G24G25G31G32   
  21580492.758 7  21580500.156 9  21580500.281 9 113406282.621 7  88368525.182 9
  84686501.603 9  21580500.62949
  22120482.633 6  22120489.164 9                 116243850.149 6  90579690.199 9
                  22120489.45348
  23053354.023 6                                 121146142.939 6  94399619.44047
                  23053359.72747
  23957908.234 5  23957916.109 8                 125899783.113 5  98103667.048 8
                  23957916.07847
  20334307.031 7                                 106857509.100 7  83265599.40849
                  20334311.51249
  22925472.102 6                                 120474172.610 6  93876032.27547
                  22925476.99247
  21766900.500 7                                 114385894.102 7  89131833.55348
                  21766906.09048
  22155534.492 6  22155542.582 9  22155544.508 9 116428119.117 6  90723249.473 9
  86943118.831 9  22155542.41448
  22446751.531 6  22446760.555 9  22446762.152 9 117958464.637 6  91915732.494 9
  88085919.453 9  22446760.44547
  23994933.172 5  23994939.656 8                 126094011.739 5  98255261.358 8
                  23994939.06346
  23078119.141 6  23078127.102 9  23078128.324 9 121276291.298 6  94501044.064 9
  90563505.155 9  23078127.41047
 16 04 20 00 00 40.0000000  0 11G10G12G14G15G18G20G21G24G25G31G32   
  21578183.109 7  21578190.398 9  21578190.621 9 113394143.491 7  88359066.124 9
  84677436.669 9  21578190.79349
  22119371.172 6  22119376.918 9                 116238006.915 6  90575137.028 9
                  22119377.32048
  23052326.469 6                                 121140742.371 6  94395411.20547
                  23052331.97747
  23959639.227 5  23959647.059 8                 125908881.172 5  98110756.424 8
                  23959647.58647
  20333461.992 7                                 106853067.915 7  83262138.73949
                  20333466.69149
  22928078.383 6                                 120487871.090 6  93886706.41747
                  22928083.74647
  21768777.438 7                                 114395755.282 7  89139517.57848
                  21768782.35548
  22158278.141 6  22158285.840 9  22158287.852 9 116442533.330 6  90734481.310 9
  86953882.684 9  22158285.75848
  22444178.188 6  22444187.293 9  22444189.324 9 117944942.013 6  91905195.394 9
  88075821.389 9  22444187.44148
  23991786.883 5  23991793.914 8                 126077479.400 5  98242379.017 8
                  23991793.05946
  23076841.703 6  23076850.367 9  23076851.039 9 121269577.251 6  94495812.332 9
  90558491.417 9  23076850.00847
 16 04 20 00 00 45.0000000  0 11G10G12G14G15G18G20G21G24G25G31G32   
  21575873.852 7  21575881.406 9  21575881.832 9 113382010.265 7  88349611.662 9
  84668376.142 9  21575881.94549
  22118261.438 6  22118267.453 9                 116232176.683 6  90570593.988 9
                  22118267.61748
  23051298.305 5                                 121135343.010 5  94391203.91247
                  23051304.32447
  23961371.328 5  23961378.285 8                 125917978.950 5  98117845.579 8
                  23961378.96547
  20332619.055 7                                 106848637.405 7  83258686.39249
                  20332623.07849
  22930686.461 6                                 120501577.311 6  93897386.57547
                  22930692.35547
  21770656.172 7                                 114405626.053 7  89147209.07748
                  21770660.72348
  22161021.703 6  22161029.949 9  22161031.758 9 116456953.075 6  90745717.474 9
  86964650.671 9  22161029.60548
  22441605.883 6  22441615.211 9  22441617.605 9 117931425.436 6  91894662.988 9
  88065727.838 9  22441615.07848
  23988642.109 5  23988648.684 8                 126060953.489 5  98229501.675 8
                  23988648.17646
  23075564.484 6  23075572.262 9  23075573.305 9 121262864.211 6  94490581.393 9
  90553478.429 9  23075572.44947
 16 04 20 00 00 50.0000000  0 11G10G12G14G15G18G20G21G24G25G31G32   
  21573566.039 7  21573573.242 9  21573573.719 9 113369882.880 7  88340161.748 9
  84659319.972 9  21573573.89149
  22117154.492 6  22117160.555 9                 116226359.436 6  90566061.067 9
                  22117160.47348
  23050271.352 5                                 121129944.849 5  94386997.54647
                  23050277.17647
  23963102.227 5  23963109.008 8                 125927076.398 5  98124934.475 8
                  23963109.54747
  20331778.227 7                                 106844217.538 7  83255242.34249
                  20331782.33249
  22933296.375 6                                 120515291.226 6  93908072.73147
                  22933301.76247
  21772536.297 7                                 114415506.362 7  89154908.02248
                  21772541.05148
  22163766.930 6  22163774.770 9  22163776.621 9 116471378.299 6  90756957.911 9
  86975422.752 9  22163774.64848
  22439034.602 6  22439043.785 9  22439046.461 9 117917914.815 6  91884135.251 9
  88055638.746 9  22439043.40648
  23985498.406 5  23985504.414 8                 126044433.917 5  98216629.283 8
                  23985504.24646
  23074287.477 6  23074295.324 9  23074295.977 9 121256152.154 6  94485351.213 9
  90548466.180 9  23074295.00447
 16 04 20 00 00 55.0000000  0 11G10G12G14G15G18G20G21G24G25G31G32   
  21571259.641 7  21571267.008 9  21571267.219 9 113357761.503 7  88330716.521 9
  84650268.298 9  21571267.56649
  22116050.234 6  22116056.371 9                 116220555.378 6  90561538.422 9
                  22116056.41048
  23049244.883 6                                 121124548.022 6  94382792.22247
                  23049250.72347
  23964833.852 5  23964840.305 8                 125936173.650 5  98132023.233 8
                  23964840.45747
  20330938.984 7                                 106839808.515 7  83251806.73449
                  20330942.90649
  22935907.289 5                                 120529012.997 5  93918765.00447
                  22935913.74647
  21774417.648 7                                 114425396.351 7  89162614.50148
                  21774423.02748
  22166513.148 6  22166521.043 9  22166522.762 9 116485809.044 6  90768202.647 9
  86986198.951 9  22166520.72748
  22436465.141 6  22436473.922 9  22436476.668 9 117904410.353 6  91873612.275 9
  88045554.247 9  22436473.37947
  23982356.000 5  23982362.137 8                 126027920.852 5  98203761.965 8
                  23982362.00846
  23073010.391 6  23073017.965 9  23073018.785 9 121249441.167 6  94480121.869 9
  90543454.724 9  23073017.52047
 16 04 20 00 01 00.0000000  0 11G10G12G14G15G18G20G21G24G25G31G32   
  21568954.258 7  21568961.324 9  21568961.586 9 113345646.018 7  88321275.880 9
  84641221.020 9  21568962.05149
  22114948.438 6  22114954.043 9                 116214764.340 6  90557025.924 9
                  22114953.75048
  23048217.484 5                                 121119152.336 5  94378587.79047
                  23048223.59047
  23966564.570 5  23966570.707 8                 125945270.541 5  98139111.716 8
                  23966570.85947
  20330102.039 7                                 106835410.165 7  83248379.44449
                  20330106.22749
  22938519.891 6                                 120542742.396 6  93929463.22947
                  22938526.45347
  21776301.617 7                                 114435295.867 7  89170328.39548
                  21776306.75048
  22169259.484 6  22169268.242 9  22169270.023 9 116500245.323 6  90779451.686 9
  86996979.284 9  22169268.10548
  22433896.445 6  22433904.930 9  22433907.383 9 117890911.944 6  91863094.035 9
  88035474.274 9  22433904.56348
  23979214.930 5  23979221.113 8                 126011414.244 5  98190899.665 8
                  23979220.79746
  23071732.891 6  23071741.414 9  23071742.211 9 121242731.136 6  94474893.270 9
  90538443.984 9  23071741.18047
 16 04 20 00 01 05.0000000  0 11G10G12G14G15G18G20G21G24G25G31G32   
  21566649.609 7  21566657.000 9  21566657.215 9 113333536.299 7  88311839.740 9
  84632178.047 9  21566657.44549
  22113849.047 6  22113855.016 9                 116208986.254 6  90552523.519 9
                  22113854.76648
  23047190.758 6                                 121113757.759 6  94374384.22447
                  23047196.87947
  23968295.352 5  23968301.625 8                 125954367.015 5  98146199.878 8
                  23968301.39547
  20329266.898 7                                 106831022.350 7  83244960.36549
                  20329271.70349
  22941133.586 6                                 120556479.314 6  93940167.30047
                  22941140.23847
  21778187.328 7                                 114445204.756 7  89178049.60148
                  21778192.43848
  22172007.945 6  22172016.098 9  22172018.203 9 116514686.942 6  90790704.882 9
  87007763.607 9  22172016.05148
  22431329.219 6  22431338.035 9  22431339.805 9 117877419.484 6  91852580.428 9
  88025398.729 9  22431337.68848
  23976075.336 5  23976081.789 8                 125994913.989 5  98178042.332 8
                  23976081.47746
  23070456.836 6  23070464.641 9  23070465.484 9 121236021.923 6  94469665.304 9
  90533433.851 9  23070464.45347
 16 04 20 00 01 10.0000000  0 11G10G12G14G15G18G20G21G24G25G31G32   
  21564346.422 7  21564353.883 9  21564354.293 9 113321432.428 7  88302408.156 9
  84623139.440 9  21564354.34849
  22112751.664 6  22112757.148 9                 116203221.099 6  90548031.194 9
                  22112757.31648
  23046165.195 6                                 121108364.219 6  94370181.46447
                  23046170.48447
  23970026.773 5  23970032.691 8                 125963463.098 5  98153287.730 8
                  23970032.36747
  20328433.914 7                                 106826645.153 7  83241549.56349
                  20328438.30549
  22943749.250 6                                 120570223.802 6  93950877.28047
                  22943755.10247
  21780074.859 7                                 114455123.078 7  89185778.16548
                  21780079.61748
  22174757.227 6  22174765.063 9  22174766.988 9 116529134.007 6  90801962.334 9
  87018551.995 9  22174765.07048
  22428762.758 6  22428771.734 9  22428773.402 9 117863932.987 6  91842071.463 9
  88015327.647 9  22428771.34448
  23972936.547 5  23972942.516 8                 125978420.089 5  98165189.944 8
                  23972942.35246
  23069179.938 6  23069188.215 9  23069188.828 9 121229313.594 6  94464438.038 9
  90528424.385 9  23069187.97347
 16 04 20 00 01 15.0000000  0 11G10G12G14G15G18G20G21G24G25G31G32   
  21562044.203 7  21562051.703 9  21562051.977 9 113309334.637 7  88292981.301 9
  84614105.374 9  21562052.15249
  22111657.148 6  22111663.027 9                 116197469.223 6  90543549.205 9
                  22111662.80148
  23045138.773 6                                 121102972.079 6  94365979.79147
                  23045144.64147
  23971757.438 5  23971763.973 8                 125972559.027 5  98160375.472 8
                  23971763.35247
  20327603.313 7                                 106822278.878 7  83238147.26449
                  20327607.07449
  22946366.547 6                                 120583976.134 6  93961593.37747
                  22946371.79747
  21781963.883 7                                 114465051.078 7  89193514.26448
                  21781968.70748
  22177507.523 6  22177515.387 9  22177517.180 9 116543586.573 6  90813224.078 9
  87029344.483 9  22177515.14548
  22426196.961 6  22426206.059 9  22426208.020 9 117850452.753 6  91831567.392 9
  88005261.228 9  22426206.37148
  23969799.063 5  23969805.695 8                 125961932.814 5  98152342.718 8
                  23969805.33646
  23067903.266 6  23067911.637 9  23067912.621 9 121222606.398 6  94459211.647 9
  90523415.760 9  23067911.76647
 16 04 20 00 01 20.0000000  0 11G10G12G14G15G18G20G21G24G25G31G32   
  21559743.047 7  21559750.773 9  21559751.199 9 113297242.684 7  88283558.999 9
  84605075.672 9  21559751.31349
  22110565.367 6  22110571.227 9                 116191730.300 6  90539077.320 9
                  22110571.20348
  23044112.898 6                                 121097581.017 6  94361778.95947
                  23044118.70347
  23973488.953 5  23973495.090 8                 125981654.576 5  98167462.911 8
                  23973494.79347
  20326774.234 7                                 106817923.199 7  83234753.22749
                  20326778.67649
  22948985.086 6                                 120597736.007 6  93972315.34747
                  22948990.33647
  21783854.844 6                                 114474988.453 6  89201257.66548
                  21783859.66848
  22180258.609 6  22180266.828 9  22180268.480 9 116558044.582 6  90824490.049 9
  87040141.045 9  22180266.38748
  22423633.344 6  22423642.402 9  22423644.301 9 117836978.537 6  91821068.010 9
  87995199.327 9  22423642.24248
  23966662.641 5  23966669.566 8                 125945451.903 5  98139500.447 8
                  23966668.86346
  23066627.195 6  23066635.566 9  23066636.547 9 121215900.002 6  94453985.887 9
  90518407.739 9  23066635.63347
 16 04 20 00 01 25.0000000  0 11G10G12G14G15G18G20G21G24G25G31G32   
  21557443.344 7  21557450.660 9  21557451.000 9 113285156.749 7  88274141.389 9
  84596050.459 9  21557451.29349
  22109475.563 6  22109481.047 9                 116186004.521 6  90534615.665 9
                  22109481.16048
  23043087.289 6                                 121092191.142 6  94357579.05847
                  23043092.94547
  23975218.664 5  23975225.613 8                 125990749.823 5  98174550.108 8
                  23975225.61347
  20325947.891 7                                 106813578.259 7  83231367.55249
                  20325951.92649
  22951604.836 6                                 120611503.588 6  93983043.32347
                  22951610.15647
  21785747.883 6                                 114484935.373 6  89209008.50448
                  21785752.89548
  22183011.391 6  22183019.488 9  22183021.348 9 116572508.049 6  90835760.278 9
  87050941.683 9  22183019.31648
  22421070.984 6  22421079.223 9  22421081.598 9 117823510.491 6  91810573.434 9
  87985142.018 9  22421079.01248
  23963527.742 5  23963534.254 8                 125928977.545 5  98126663.286 8
                  23963534.24646
  23065351.078 6  23065359.004 9  23065360.281 9 121209194.657 6  94448760.938 9
  90513400.496 9  23065359.13347
 16 04 20 00 01 30.0000000  0 11G10G12G14G15G18G20G21G24G25G31G32   
  21555144.578 7  21555152.008 9  21555152.324 9 113273076.528 7  88264728.228 9
  84587029.512 9  21555152.32049
  22108388.266 6  22108394.309 9                 116180291.624 6  90530164.055 9
                  22108394.24248
  23042062.234 6                                 121086802.229 6  94353379.90447
                  23042067.35547
  23976949.844 5  23976955.910 8                 125999844.541 5  98181636.874 8
                  23976956.53147
  20325122.578 7                                 106809243.805 7  83227990.05749
                  20325126.73449
  22954225.836 6                                 120625278.540 6  93993777.04047
                  22954231.68447
  21787642.328 7                                 114494891.503 7  89216766.51948
                  21787647.61748
  22185764.164 6  22185772.262 9  22185774.016 9 116586976.620 6  90847034.474 9
  87061746.126 9  22185771.98448
  22418508.492 6  22418517.492 9  22418520.129 9 117810048.308 6  91800083.408 9
  87975089.086 9  22418517.48448
  23960394.391 5  23960400.563 8                 125912509.379 5  98113830.947 8
                  23960400.71546
  23064075.430 6  23064083.773 9  23064084.508 9 121202489.961 6  94443536.503 9
  90508393.741 9  23064083.47747
 16 04 20 00 01 35.0000000  0 11G10G12G14G15G18G20G21G24G25G31G32   
  21552847.250 7  21552854.453 9  21552854.711 9 113261002.370 7  88255319.793 9
  84578013.097 9  21552854.82449
  22107303.734 6  22107309.461 9                 116174591.938 6  90525722.741 9
                  22107309.27348
  23041037.266 6                                 121081414.599 6  94349181.74347
                  23041041.87547
  23978680.508 5  23978687.203 8                 126008939.086 5  98188723.515 8
                  23978687.34847
  20324300.250 7                                 106804920.191 7  83224620.99949
                  20324304.18049
  22956848.891 6                                 120639061.258 6  94004516.79747
                  22956855.07047
  21789538.859 6                                 114504857.184 6  89224531.97548
                  21789543.66448
  22188518.789 6  22188527.059 9  22188528.574 9 116601450.673 6  90858312.963 9
  87072554.663 9  22188526.65648
  22415948.406 6  22415957.191 9  22415959.125 9 117796592.409 6  91789598.283 9
  87965040.846 9  22415956.65648
  23957261.563 5  23957267.516 8                 125896047.779 5  98101003.724 8
                  23957267.69146
  23062799.461 6  23062807.770 9  23062808.680 9 121195786.376 6  94438312.929 9
  90503387.816 9  23062807.82447
 16 04 20 00 01 40.0000000  0 11G10G12G14G15G18G20G21G24G25G31G32   
  21550550.805 7  21550557.715 9  21550558.133 9 113248934.221 7  88245916.044 9
  84569001.163 9  21550558.30949
  22106221.680 6  22106227.465 9                 116168905.349 6  90521291.634 9
                  22106227.48848
  23040011.781 6                                 121076028.099 6  94344984.47247
                  23040017.01647
  23980411.531 5  23980417.539 8                 126018033.314 5  98195809.917 8
                  23980417.90247
  20323479.250 7                                 106800607.348 7  83221260.34549
                  20323483.69949
  22959473.477 6                                 120652851.564 6  94015262.47847
                  22959479.53947
  21791437.023 7                                 114514832.282 7  89232304.77948
                  21791441.79348
  22191274.125 6  22191282.066 9  22191283.816 9 116615930.191 6  90869595.697 9
  87083367.288 9  22191282.13348
  22413388.953 6  22413398.152 9  22413399.797 9 117783142.660 6  91779117.962 9
  87954997.201 9  22413397.61748
  23954130.609 5  23954136.184 8                 125879592.728 5  98088181.607 8
                  23954136.65246
  23061524.539 6  23061532.195 9  23061533.191 9 121189083.682 6  94433090.043 9
  90498382.549 9  23061532.27747
 16 04 20 00 01 45.0000000  0 11G10G12G14G15G18G20G21G24G25G31G32   
  21548255.172 7  21548262.695 9  21548262.926 9 113236872.143 7  88236517.023 9
  84559993.772 9  21548263.03949
  22105141.977 6  22105147.672 9                 116163232.006 6  90516870.856 9
                  22105147.58248
  23038986.961 6                                 121070642.845 6  94340788.16147
                  23038992.26247
  23982142.141 5  23982147.859 8                 126027127.333 5  98202896.162 8
                  23982148.13347
  20322660.688 7                                 106796305.402 7  83217908.17149
                  20322665.19949
  22962099.000 6                                 120666649.621 6  94026014.20747
                  22962105.09047
  21793337.047 7                                 114524816.901 7  89240084.99148
                  21793341.98448
  22194030.266 6  22194038.563 9  22194040.309 9 116630415.160 6  90880882.682 9
  87094183.976 9  22194038.68448
  22410830.258 6  22410839.879 9  22410841.137 9 117769699.196 6  91768642.536 9
  87944958.251 9  22410839.60548
  23950999.250 5  23951005.945 8                 125863144.201 5  98075364.567 8
                  23951006.16846
  23060249.453 6  23060257.563 9  23060258.137 9 121182382.015 6  94427867.959 9
  90493378.055 9  23060257.86747
 16 04 20 00 01 50.0000000  0 11G10G12G14G15G18G20G21G24G25G31G32   
  21545960.859 7  21545968.656 9  21545968.684 9 113224815.764 7  88227122.441 9
  84550990.628 9  21545968.79749
  22104065.039 6  22104070.539 9                 116157571.493 6  90512460.058 9
                  22104070.37548
  23037962.523 6                                 121065258.421 6  94336592.51647
                  23037967.66447
  23983871.766 5  23983878.504 8                 126036220.769 5  98209981.940 8
                  23983878.77047
  20321844.281 7                                 106792013.890 7  83214564.13549
                  20321848.58249
  22964725.484 6                                 120680454.965 6  94036771.61247
                  22964731.89847
  21795238.953 7                                 114534810.655 7  89247872.32748
                  21795244.20348
  22196787.844 6  22196796.012 9  22196797.898 9 116644905.175 6  90892173.587 9
  87105004.434 9  22196795.92648
  22408273.461 6  22408282.730 9  22408283.969 9 117756261.598 6  91758171.695 9
  87934923.681 9  22408282.78948
  23947871.414 5  23947877.539 8                 125846701.932 5  98062552.426 8
                  23947877.59046
  23058973.844 6  23058981.758 9  23058982.598 9 121175680.977 6  94422646.372 9
  90488374.032 9  23058982.03547
 16 04 20 00 01 55.0000000  0 11G10G12G14G15G18G20G21G24G25G31G32   
  21543667.773 7  21543675.160 9  21543675.352 9 113212765.353 7  88217732.508 9
  84541991.945 9  21543675.58249
  22102990.453 6  22102995.957 9                 116151924.063 6  90508059.465 9
                  22102995.89848
  23036937.445 6                                 121059875.100 6  94332397.70647
                  23036943.47747
  23985602.125 5  23985608.766 8                 126045313.847 5  98217067.432 8
                  23985609.02747
  20321029.383 7                                 106787733.134 7  83211228.47849
                  20321033.35949
  22967354.305 6                                 120694267.860 6  94047534.87947
                  22967360.29347
  21797142.484 6                                 114544813.735 6  89255666.92548
                  21797147.13348
  22199546.156 6  22199554.313 9  22199556.141 9 116659400.562 6  90903468.692 9
  87115828.907 9  22199554.16448
  22405717.688 6  22405726.484 9  22405728.086 9 117742830.172 6  91747705.647 9
  87924893.720 9  22405726.43848
  23944743.508 5  23944750.348 8                 125830266.135 5  98049745.297 8
                  23944750.18846
  23057698.695 6  23057706.844 9  23057707.801 9 121168980.804 6  94417425.453 9
  90483370.652 9  23057707.12147
 16 04 20 00 02 00.0000000  0 11G10G12G14G15G18G20G21G24G25G31G32   
  21541376.109 7  21541383.156 9  21541383.535 9 113200721.047 7  88208347.337 9
  84532997.820 9  21541383.76649
  22101918.125 6  22101923.902 9                 116146289.912 6  90503669.215 9
                  22101923.99248
  23035914.070 6                                 121054493.039 6  94328203.88947
                  23035918.89847
  23987332.867 5  23987339.359 8                 126054406.670 5  98224152.740 8
                  23987339.51247
  20320216.961 7                                 106783463.230 7  83207901.27449
                  20320220.91049
  22969984.539 6                                 120708088.428 6  94058304.14047
                  22969990.58247
  21799047.891 7                                 114554826.323 7  89263468.94048
                  21799052.64848
  22202305.250 6  22202313.445 9  22202315.395 9 116673901.413 6  90914768.054 9
  87126657.456 9  22202313.47748
  22403163.180 6  22403171.801 9  22403174.172 9 117729405.061 6  91737244.512 9
  87914868.469 9  22403172.05548
  23941617.664 5  23941623.695 8                 125813836.928 5  98036943.317 8
                  23941623.94546
  23056424.094 6  23056431.965 9  23056433.105 9 121162281.641 6  94412205.324 9
  90478368.024 9  23056432.42647
 16 04 20 00 02 05.0000000  0 11G10G12G14G15G18G20G21G24G25G31G32   
  21539085.039 7  21539092.523 9  21539092.695 9 113188682.944 7  88198966.998 9
  84524008.329 9  21539092.81349
  22100848.992 6  22100854.355 9                 116140669.088 6  90499289.353 9
                  22100854.17648
  23034889.445 6                                 121049112.326 6  94324011.12447
                  23034895.39847
  23989063.203 5  23989069.539 8                 126063499.379 5  98231237.979 8
                  23989069.63347
  20319406.250 7                                 106779204.282 7  83204582.61149
                  20319410.48049
  22972616.203 6                                 120721916.817 6  94069079.49547
                  22972621.99247
  21800954.781 7                                 114564848.413 7  89271278.35648
                  21800959.69948
  22205065.609 6  22205074.176 9  22205075.883 9 116688407.727 6  90926071.671 9
  87137490.087 9  22205073.96548
  22400609.266 6  22400618.430 9  22400620.543 9 117715986.378 6  91726788.398 9
  87904848.016 9  22400617.78148
  23938492.164 5  23938498.582 8                 125797414.454 5  98024146.581 8
                  23938498.64546
  23055149.414 6  23055157.512 9  23055158.625 9 121155583.561 6  94406986.043 9
  90473366.212 9  23055157.53547
 16 04 20 00 02 10.0000000  0 11G10G12G14G15G18G20G21G24G25G31G32   
  21536795.352 7  21536802.648 9  21536802.852 9 113176650.540 7  88189591.097 9
  84515023.091 9  21536803.02349
  22099781.117 6  22099787.031 9                 116135061.092 6  90494919.480 9
                  22099786.80148
  23033866.125 6                                 121043732.387 6  94319818.96547
                  23033871.59047
  23990792.797 5  23990799.676 8                 126072591.457 5  98238322.707 8
                  23990799.79747
  20318598.016 7                                 106774955.770 7  83201272.08149
                  20318602.58649
  22975248.398 6                                 120735752.469 6  94079860.50947
                  22975255.02047
  21802863.500 6                                 114574879.520 6  89279094.79548
                  21802868.84848
  22207827.578 6  22207835.871 9  22207837.516 9 116702918.882 6  90937379.051 9
  87148326.329 9  22207835.65648
  22398056.492 6  22398065.836 9  22398068.203 9 117702573.543 6  91716336.832 9
  87894831.945 9  22398065.67648
  23935368.000 4  23935374.426 8                 125780998.190 4  98011354.677 8
                  23935374.48846
  23053874.781 6  23053883.145 9  23053883.852 9 121148886.035 6  94401767.187 9
  90468364.811 9  23053882.64547
 16 04 20 00 02 15.0000000  0 11G10G12G14G15G18G20G21G24G25G31G32   
  21534506.875 7  21534513.957 9  21534514.285 9 113164624.380 7  88180220.063 9
  84506042.519 9  21534514.45749
  22098716.516 6  22098722.297 9                 116129466.492 6  90490560.056 9
                  22098722.24248
  23032842.461 6                                 121038353.721 6  94315627.78847
                  23032848.34047
  23992523.063 5  23992530.012 8                 126081683.437 5  98245407.338 8
                  23992530.08647
  20317791.617 7                                 106770718.189 7  83197970.06949
                  20317795.88749
  22977883.445 6                                 120749595.847 6  94090647.54447
                  22977889.35247
  21804774.648 6                                 114584920.128 6  89286918.63548
                  21804779.56648
  22210589.516 6  22210598.348 9  22210600.465 9 116717435.591 6  90948690.768 9
  87159166.722 9  22210598.31348
  22395505.664 6  22395514.867 9  22395516.930 9 117689167.174 6  91705890.311 9
  87884820.701 9  22395514.75448
  23932245.930 5  23932251.770 8                 125764588.584 5  97998567.978 8
                  23932251.56646
  23052600.672 6  23052608.430 9  23052609.574 9 121142189.578 6  94396549.164 9
  90463364.211 9  23052608.42647
 16 04 20 00 02 20.0000000  0 11G10G12G14G15G18G20G21G24G25G31G32   
  21532219.656 7  21532227.211 9  21532227.301 9 113152604.247 7  88170853.721 9
  84497066.446 9  21532227.47349
  22097654.172 6  22097660.242 9                 116123885.074 6  90486210.891 9
                  22097660.19548
  23031819.133 6                                 121032976.129 6  94311437.45147
                  23031825.17247
  23994253.547 5  23994259.539 8                 126090775.100 5  98252491.738 8
                  23994259.94547
  20316987.266 7                                 106766491.399 7  83194676.46049
                  20316991.84049
  22980519.125 6                                 120763446.765 6  94101440.45447
                  22980525.19947
  21806686.891 6                                 114594970.045 6  89294749.74548
                  21806692.03948
  22213353.125 6  22213361.531 9  22213363.516 9 116731957.541 6  90960006.575 9
  87170011.034 9  22213361.59848
  22392955.711 6  22392964.848 9  22392966.637 9 117675767.041 6  91695448.663 9
  87874814.107 9  22392964.93048
  23929124.344 5  23929130.301 8                 125748185.540 5  97985786.382 8
                  23929130.25846
  23051326.484 6  23051334.633 9  23051335.555 9 121135494.021 6  94391331.844 9
  90458364.276 9  23051334.40647
 16 04 20 00 02 25.0000000  0 11G10G12G14G15G18G20G21G24G25G31G32   
  21529933.516 8  21529940.461 9  21529940.770 9 113140590.072 8  88161492.026 9
  84488094.814 9  21529941.05949
  22096594.656 6  22096601.008 9                 116118316.746 6  90481871.933 9
                  22096601.02748
  23030795.508 6                                 121027599.513 6  94307247.88447
                  23030802.05947
  23995984.117 6  23995990.305 8                 126099866.317 6  98259575.792 8
                  23995989.99647
  20316185.094 7                                 106762275.323 7  83191391.20849
                  20316189.45349
  22983155.938 6                                 120777305.169 6  94112239.19747
                  22983162.36347
  21808601.242 6                                 114605029.163 6  89302588.00448
                  21808606.06648
  22216117.391 6  22216126.023 9  22216127.660 9 116746484.638 6  90971326.387 9
  87180859.182 9  22216125.74248
  22390407.336 6  22390415.980 9  22390417.848 9 117662373.086 6  91685011.808 9
  87864812.122 9  22390416.08248
  23926003.828 5  23926010.371 8                 125731788.940 5  97973009.810 8
                  23926010.27046
  23050052.898 6  23050061.051 9  23050061.996 9 121128799.229 6  94386115.120 9
  90453364.918 9  23050060.49647
 16 04 20 00 02 30.0000000  0 11G10G12G14G15G18G20G21G24G25G31G32   
  21527648.406 7  21527655.617 9  21527655.914 9 113128582.290 7  88152135.315 9
  84479127.968 9  21527655.85249
  22095537.656 6  22095544.230 9                 116112762.000 6  90477543.559 9
                  22095543.74248
  23029773.547 6                                 121022224.352 6  94303059.45147
                  23029778.94147
  23997713.484 5  23997719.699 8                 126108957.560 5  98266659.884 8
                  23997720.18047
  20315384.922 7                                 106758070.405 7  83188114.64349
                  20315389.36749
  22985795.031 6                                 120791171.445 6  94123044.06747
                  22985800.93847
  21810516.727 6                                 114615097.911 6  89310433.78148
                  21810521.80548
  22218883.680 6  22218891.309 9  22218893.020 9 116761017.231 6  90982650.480 9
  87191711.439 9  22218891.33648
  22387859.531 6  22387868.164 9  22387869.941 9 117648985.778 6  91674580.149 9
  87854815.113 9  22387868.00048
  23922885.313 5  23922891.734 8                 125715399.227 5  97960238.609 8
                  23922891.07846
  23048778.898 6  23048786.988 9  23048787.973 9 121122105.636 6  94380899.330 9
  90448366.453 9  23048786.64847
 16 04 20 00 02 35.0000000  0 11G10G12G14G15G18G20G21G24G25G31G32   
  21525364.328 7  21525371.730 9  21525372.094 9 113116580.312 7  88142783.127 9
  84470165.451 9  21525372.20749
  22094483.258 6  22094489.012 9                 116107220.111 6  90473225.216 9
                  22094489.30948
  23028750.734 6                                 121016849.967 6  94298871.61447
                  23028756.43447
  23999443.234 5  23999450.059 8                 126118048.206 5  98273743.493 8
                  23999450.16446
  20314586.547 7                                 106753876.058 7  83184846.32049
                  20314590.78149
  22988434.516 6                                 120805044.913 6  94133854.55347
                  22988440.50847
  21812434.734 7                                 114625175.569 7  89318286.49048
                  21812439.69148
  22221649.469 6  22221657.102 9  22221659.281 9 116775554.681 6  90993978.351 9
  87202567.320 9  22221657.36748
  22385312.773 6  22385322.258 9  22385324.594 9 117635604.393 6  91664153.091 9
  87844822.512 9  22385322.06647
  23919766.836 5  23919774.152 8                 125699015.742 5  97947472.256 8
                  23919773.46546
  23047505.281 6  23047513.051 9  23047513.996 9 121115412.580 6  94375683.962 9
  90443368.393 9  23047512.96547
 16 04 20 00 02 40.0000000  0 11G10G12G14G15G18G20G21G24G25G31G32   
  21523081.688 7  21523089.043 9  21523089.469 9 113104584.388 7  88133435.646 9
  84461207.455 9  21523089.46549
  22093431.180 6  22093437.063 9                 116101691.457 6  90468917.175 9
                  22093437.00448
  23027727.648 6                                 121011476.668 6  94294684.62647
                  23027733.93847
  24001173.273 5  24001179.395 8                 126127138.640 5  98280826.935 8
                  24001179.27347
  20313790.336 7                                 106749692.525 7  83181586.42049
                  20313795.01249
  22991076.102 6                                 120818925.893 6  94144670.89647
                  22991082.09047
  21814354.266 6                                 114635262.505 6  89326146.44248
                  21814359.11348
  22224416.992 6  22224425.020 9  22224426.957 9 116790097.343 6  91005310.292 9
  87213427.100 9  22224424.92248
  22382768.039 6  22382776.664 9  22382779.207 9 117622229.386 6  91653731.003 9
  87834834.686 9  22382776.56348
  23916650.656 4  23916657.684 8                 125682638.828 4  97934711.015 8
                  23916656.98446
  23046231.953 6  23046239.715 9  23046240.383 9 121108720.401 6  94370469.273 9
  90438370.981 9  23046239.52747
 16 04 20 00 02 45.0000000  0 11G10G12G14G15G18G20G21G24G25G31G32   
  21520800.211 7  21520807.012 9  21520807.504 9 113092594.691 7  88124093.026 9
  84452254.108 9  21520807.61749
  22092381.992 6  22092387.352 9                 116096176.185 6  90464619.560 9
                  22092387.22748
  23026705.445 6                                 121006104.522 6  94290498.54647
                  23026711.74647
  24002903.031 5  24002909.418 8                 126136228.828 5  98287910.198 8
                  24002908.96946
  20312996.531 7                                 106745519.942 7  83178335.05249
                  20313000.68049
  22993718.813 6                                 120832814.529 6  94155493.19847
                  22993724.64847
  21816275.117 6                                 114645358.769 6  89334013.65648
                  21816280.20748
  22227184.938 6  22227193.418 9  22227195.465 9 116804645.294 6  91016646.363 9
  87224290.819 9  22227193.43448
  22380224.094 6  22380233.238 9  22380235.340 9 117608860.821 6  91643313.944 9
  87824851.668 9  22380232.87148
  23913536.227 5  23913541.660 8                 125666268.632 5  97921955.010 8
                  23913541.32046
  23044958.508 6  23044966.813 9  23044967.316 9 121102029.222 6  94365255.367 9
  90433374.321 9  23044966.28547
 16 04 20 00 02 50.0000000  0 11G10G12G14G15G18G20G21G24G25G31G32   
  21518519.758 7  21518526.832 9  21518527.215 9 113080611.120 7  88114755.182 9
  84443305.339 9  21518527.44549
  22091334.672 6  22091340.391 9                 116090674.116 6  90460332.232 9
                  22091340.16848
  23025683.695 6                                 121000733.474 6  94286313.29847
                  23025688.86347
  24004632.820 5  24004638.816 8                 126145318.725 5  98294993.232 8
                  24004638.96547
  20312204.523 7                                 106741358.265 7  83175092.18349
                  20312208.77749
  22996363.125 5                                 120846710.666 5  94166321.34047
                  22996369.49247
  21818198.734 6                                 114655464.200 6  89341888.00848
                  21818203.96548
  22229954.570 6  22229962.871 9  22229964.797 9 116819198.464 6  91027986.484 9
  87235158.442 9  22229962.58648
  22377681.523 6  22377690.512 9  22377692.359 9 117595498.601 6  91632901.819 9
  87814873.392 9  22377689.89148
  23910421.688 4  23910428.449 8                 125649905.001 4  97909204.127 8
                  23910427.59046
  23043685.336 6  23043693.172 9  23043694.281 9 121095338.894 6  94360042.116 9
  90428378.297 9  23043693.13347
 16 04 20 00 02 55.0000000  0 11G10G12G14G15G18G20G21G24G25G31G32   
  21516240.422 7  21516247.602 9  21516247.883 9 113068633.542 7  88105422.005 9
  84434361.043 9  21516248.11349
  22090290.094 6  22090295.891 9                 116085185.178 6  90456055.128 9
                  22090295.55148
  23024661.266 6                                 120995363.359 6  94282128.79847
                  23024666.95347
  24006362.234 5  24006368.152 8                 126154408.184 5  98302075.909 8
                  24006368.87147
  20311414.789 7                                 106737207.294 7  83171857.65949
                  20311418.80549
  22999009.055 6                                 120860614.208 6  94177155.25147
                  22999015.64847
  21820123.000 6                                 114665578.753 6  89349769.47348
                  21820128.17648
  22232724.828 6  22232733.238 9  22232734.906 9 116833756.776 6  91039330.629 9
  87246029.909 9  22232732.93048
  22375139.648 6  22375148.352 9  22375150.398 9 117582142.634 6  91622494.576 9
  87804899.773 9  22375148.51648
  23907309.539 4  23907315.988 8                 125633547.836 4  97896458.281 8
                  23907315.50046
  23042412.031 6  23042420.449 9  23042421.250 9 121088649.331 6  94354829.473 9
  90423382.841 9  23042420.27747
 16 04 20 00 03 00.0000000  0 11G10G12G14G15G18G20G21G24G25G31G32   
  21513962.094 7  21513969.719 9  21513970.063 9 113056662.138 7  88096093.639 9
  84425421.360 9  21513970.11749
  22089248.352 6  22089253.938 9                 116079709.522 6  90451788.381 9
                  22089253.55148
  23023639.375 6                                 120989994.316 6  94277945.12147
                  23023645.54347
  24008091.070 5  24008097.445 8                 126163497.369 5  98309158.383 8
                  24008097.74646
  20310626.797 7                                 106733067.213 7  83168631.61249
                  20310630.97349
  23001656.375 6                                 120874525.265 6  94187995.01947
                  23001662.16847
  21822049.367 6                                 114675702.543 6  89357658.13948
                  21822054.93048
  22235496.195 6  22235504.250 9  22235506.484 9 116848320.203 6  91050678.736 9
  87256905.184 9  22235504.27348
  22372599.594 6  22372608.363 9  22372610.379 9 117568793.046 6  91612092.302 9
  87794930.929 9  22372608.14548
  23904198.141 5  23904204.398 8                 125617197.297 5  97883717.608 8
                  23904204.25446
  23041139.633 6  23041148.086 9  23041148.762 9 121081960.605 6  94349617.475 9
  90418388.010 9  23041148.08247
 16 04 20 00 03 05.0000000  0 11G10G12G14G15G18G20G21G24G25G31G32   
  21511685.508 7  21511692.703 9  21511693.035 9 113044696.793 7  88086769.993 9
  84416486.196 9  21511693.20749
  22088208.820 6  22088214.520 9                 116074247.048 6  90447531.913 9
                  22088214.24248
  23022618.320 6                                 120984626.266 6  94273762.23547
                  23022624.13747
  24009821.547 5  24009827.203 8                 126172586.214 5  98316240.601 8
                  24009827.02046
  20309841.375 7                                 106728937.914 7  83165413.97249
                  20309845.22349
  23004305.250 6                                 120888443.741 6  94198840.58247
                  23004310.66047
  21823977.836 6                                 114685835.442 6  89365553.89948
                  21823983.27748
  22238269.141 6  22238276.910 9  22238279.066 9 116862888.729 6  91062030.833 9
  87267784.269 9  22238276.79748
  22370060.297 6  22370069.289 9  22370071.563 9 117555449.787 6  91601694.953 9
  87784966.804 9  22370068.97748
  23901087.680 4  23901094.191 8                 125600853.326 4  97870982.037 8
                  23901094.14146
  23039866.672 6  23039875.117 9  23039875.563 9 121075272.645 6  94344406.079 9
  90413393.750 9  23039874.88347
 16 04 20 00 03 10.0000000  0 11G10G12G14G15G18G20G21G24G25G31G32   
  21509409.758 7  21509416.879 9  21509417.098 9 113032737.832 7  88077451.316 9
  84407555.801 9  21509417.09449
  22087172.117 6  22087177.465 9                 116068798.104 6  90443285.975 9
                  22087177.43448
  23021597.195 6                                 120979259.479 6  94269580.30947
                  23021602.82447
  24011551.188 5  24011557.043 8                 126181674.973 5  98323322.759 8
                  24011556.54346
  20309057.344 7                                 106724819.718 7  83162204.98949
                  20309061.32449
  23006955.156 6                                 120902369.926 6  94209692.14747
                  23006960.67247
  21825908.125 6                                 114695977.712 6  89373456.96348
                  21825912.79348
  22241041.859 6  22241050.281 9  22241052.066 9 116877462.619 6  91073387.113 9
  87278667.369 9  22241049.73848
  22367522.484 6  22367531.629 9  22367533.879 9 117542113.117 6  91591302.748 9
  87775007.608 9  22367531.11748
  23897979.055 5  23897985.051 8                 125584516.161 5  97858251.787 8
                  23897985.25846
  23038594.531 6  23038602.359 9  23038603.125 9 121068585.766 6  94339195.521 9
  90408400.303 9  23038602.50447
 16 04 20 00 03 15.0000000  0 11G10G12G14G15G18G20G21G24G25G31G32   
  21507135.063 7  21507142.582 9  21507142.691 9 113020785.158 7  88068137.547 9
  84398630.107 9  21507142.74649
  22086137.117 6  22086143.660 9                 116063362.630 6  90439050.537 9
                  22086143.31648
  23020576.281 6                                 120973893.869 6  94265399.31147
                  23020581.91047
  24013280.344 5  24013286.922 8                 126190763.547 5  98330404.765 8
                  24013286.51647
  20308275.586 7                                 106720712.530 7  83159004.58149
                  20308279.75049
  23009607.133 6                                 120916303.731 6  94220549.65647
                  23009612.43447
  21827839.430 6                                 114706129.372 6  89381367.33448
                  21827845.04748
  22243816.164 6  22243824.574 9  22243826.641 9 116892041.796 6  91084747.506 9
  87289554.408 9  22243824.54748
  22364985.703 6  22364994.652 9  22364997.000 9 117528783.043 6  91580915.663 9
  87765053.328 9  22364994.12148
  23894871.500 5  23894877.711 8                 125568185.791 5  97845526.803 8
                  23894877.77046
  23037322.289 6  23037330.055 9  23037330.824 9 121061899.861 6  94333985.723 9
  90403407.578 9  23037329.96947
 16 04 20 00 03 20.0000000  0 11G10G12G14G15G18G20G21G24G25G31G32   
  21504861.695 7  21504869.133 9  21504869.426 9 113008838.690 7  88058828.607 9
  84389709.039 9  21504869.53949
  22085105.789 6  22085111.656 9                 116057940.446 6  90434825.462 9
                  22085111.41448
  23019555.063 6                                 120968529.289 6  94261219.11347
                  23019560.82447
  24015009.523 5  24015016.941 8                 126199851.843 5  98337486.530 8
                  24015016.45347
  20307496.172 7                                 106716616.208 7  83155812.63849
                  20307501.05149
  23012259.508 6                                 120930245.046 6  94231413.00147
                  23012265.63747
  21829773.297 6                                 114716290.154 6  89389284.82148
                  21829778.39848
  22246591.516 6  22246599.676 9  22246601.477 9 116906626.091 6  91096111.877 9
  87300445.268 9  22246599.38348
  22362450.664 6  22362459.320 9  22362461.406 9 117515459.407 6  91570533.618 9
  87755103.863 9  22362459.23048
  23891765.445 5  23891771.309 8                 125551862.071 5  97832807.023 8
                  23891771.57046
  23036049.758 6  23036057.871 9  23036058.793 9 121055214.785 6  94328776.576 9
  90398415.475 9  23036057.87947
 16 04 20 00 03 25.0000000  0 11G10G12G14G15G18G20G21G24G25G31G32   
  21502589.641 7  21502596.742 9  21502597.234 9 112996898.187 7  88049524.321 9
  84380792.429 9  21502597.11349
  22084076.227 6  22084082.012 9                 116052531.363 6  90430610.592 9
                  22084082.12548
  23018534.500 6                                 120963165.548 6  94257039.57547
                  23018540.27347
  24016739.500 5  24016745.969 8                 126208939.684 5  98344567.938 8
                  24016746.56647
  20306718.734 7                                 106712530.542 7  83152628.99849
                  20306722.90249
  23014913.977 6                                 120944193.632 6  94242282.01347
                  23014920.16447
  21831708.734 6                                 114726459.900 6  89397209.28648
                  21831713.88348
  22249368.344 6  22249376.066 9  22249378.141 9 116921215.185 6  91107479.992 9
  87311339.711 9  22249375.87148
  22359915.914 6  22359925.266 9  22359927.219 9 117502141.989 6  91560156.402 9
  87745159.031 9  22359925.39548
  23888660.141 5  23888665.816 8                 125535544.817 5  97820092.282 8
                  23888665.83646
  23034778.180 6  23034786.086 9  23034786.902 9 121048530.325 6  94323567.912 9
  90393423.839 9  23034786.04747
 16 04 20 00 03 30.0000000  0 11G10G12G14G15G18G20G21G24G25G31G32   
  21500318.797 7  21500326.258 9  21500326.711 9 112984964.014 7  88040224.970 9
  84371880.546 9  21500326.77049
  22083049.641 7  22083055.004 9                 116047135.717 7  90426406.193 9
                  22083055.21948
  23017514.148 6                                 120957802.894 6  94252860.88147
                  23017520.10547
  24018469.453 5  24018475.063 8                 126218027.312 5  98351649.185 8
                  24018475.57047
  20305943.219 7                                 106708455.931 7  83149453.97649
                  20305948.15649
  23017569.523 5                                 120958149.785 5  94253156.91547
                  23017576.39547
  21833645.492 6                                 114736638.874 6  89405140.95848
                  21833650.54348
  22252145.672 6  22252152.867 9  22252155.168 9 116935809.539 6  91118852.219 9
  87322238.089 9  22252152.84048
  22357383.422 6  22357391.469 9  22357393.574 9 117488831.159 6  91549784.343 9
  87735219.130 9  22357391.86748
  23885556.328 5  23885562.453 8                 125519234.288 5  97807382.777 8
                  23885562.72346
  23033506.320 6  23033514.523 9  23033515.379 9 121041846.823 6  94318359.993 9
  90388432.914 9  23033514.58247
 16 04 20 00 03 35.0000000  0 11G10G12G14G15G18G20G21G24G25G31G32   
  21498048.969 7  21498056.074 9  21498056.535 9 112973036.287 7  88030930.634 9
  84362973.475 9  21498056.53149
  22082025.242 7  22082031.547 9                 116041753.672 7  90422212.396 9
                  22082031.44148
  23016494.211 6                                 120952441.576 6  94248683.23247
                  23016499.45347
  24020199.203 6  24020204.691 8                 126227114.902 6  98358730.422 8
                  24020205.29347
  20305170.211 7                                 106704392.481 7  83146287.64849
                  20305174.50449
  23020227.172 6                                 120972113.639 6  94264037.82247
                  23020233.62947
  21835583.984 6                                 114746827.223 6  89413079.91848
                  21835589.13748
  22254923.023 6  22254931.313 9  22254933.109 9 116950409.227 6  91130228.601 9
  87333140.448 9  22254931.01648
  22354851.297 6  22354860.223 9  22354862.258 9 117475527.070 6  91539417.510 9
  87725284.256 9  22354860.25848
  23882453.680 5  23882459.906 8                 125502930.700 5  97794678.691 8
                  23882460.08646
  23032235.188 6  23032242.668 9  23032243.328 9 121035164.401 6  94313152.899 9
  90383442.784 9  23032242.53147
 16 04 20 00 03 40.0000000  0 11G10G12G14G15G18G20G21G24G25G31G32   
  21495780.430 7  21495787.699 9  21495787.973 9 112961114.521 7  88021640.943 9
  84354070.861 9  21495788.08649
  22081003.992 6  22081009.664 9                 116036384.674 6  90418028.760 9
                  22081009.57448
  23015474.008 6                                 120947081.027 6  94244506.16447
                  23015479.66847
  24021927.461 5  24021934.270 8                 126236201.925 5  98365811.211 8
                  24021934.38347
  20304399.047 7                                 106700339.701 7  83143129.63249
                  20304403.48049
  23022885.398 6                                 120986084.684 6  94274924.32847
                  23022891.93447
  21837524.766 6                                 114757024.402 6  89421025.76748
                  21837529.82448
  22257702.883 6  22257710.863 9  22257712.375 9 116965013.677 6  91141608.679 9
  87344046.359 9  22257710.69548
  22352321.344 6  22352329.664 9  22352332.004 9 117462229.198 6  91529055.533 9
  87715354.026 9  22352329.23848
  23879352.750 5  23879359.168 8                 125486633.458 5  97781979.538 8
                  23879358.80946
  23030962.898 6  23030971.367 9  23030972.066 9 121028482.507 6  94307946.236 9
  90378453.058 9  23030970.97747
 16 04 20 00 03 45.0000000  0 11G10G12G14G15G18G20G21G24G25G31G32   
  21493512.602 7  21493520.160 9  21493520.598 9 112949198.929 7  88012356.070 9
  84345172.851 9  21493520.71549
  22079984.305 6  22079990.539 9                 116031028.977 6  90413855.491 9
                  22079990.13348
  23014453.742 6                                 120941721.431 6  94240329.86747
                  23014459.19147
  24023655.836 5  24023663.094 8                 126245288.585 5  98372891.723 8
                  24023663.73047
  20303629.719 7                                 106696297.805 7  83139980.10149
                  20303634.22749
  23025545.867 6                                 121000063.105 6  94285816.59047
                  23025551.55147
  21839466.844 6                                 114767230.564 6  89428978.61048
                  21839472.28548
  22260481.977 6  22260490.574 9  22260492.438 9 116979623.068 6  91152992.602 9
  87354955.963 9  22260490.63748
  22349791.695 6  22349800.457 9  22349802.750 9 117448937.770 6  91518698.565 9
  87705428.606 9  22349799.92648
  23876252.102 5  23876259.340 8                 125470342.840 5  97769285.544 8
                  23876259.00846
  23029691.492 6  23029699.629 9  23029700.641 9 121021801.382 6  94302740.157 9
  90373463.904 9  23029699.37547
 16 04 20 00 03 50.0000000  0 11G10G12G14G15G18G20G21G24G25G31G32   
  21491246.781 7  21491253.727 9  21491254.324 9 112937289.745 7  88003076.181 9
  84336279.634 9  21491254.26249
  22078968.141 6  22078973.844 9                 116025686.826 6  90409692.773 9
                  22078973.28148
  23013434.305 6                                 120936363.018 6  94236154.47447
                  23013440.32847
  24025384.891 5  24025392.648 8                 126254375.184 5  98379972.169 8
                  24025392.90647
  20302862.820 7                                 106692267.032 7  83136839.23749
                  20302867.19949
  23028206.797 6                                 121014049.111 6  94296714.75847
                  23028212.66047
  21841410.922 6                                 114777446.011 6  89436938.69248
                  21841415.89148
  22263263.328 6  22263271.898 9  22263273.703 9 116994237.710 6  91164380.635 9
  87365869.491 9  22263271.66848
  22347264.156 6  22347272.816 9  22347274.840 9 117435653.029 6  91508346.811 9
  87695508.184 9  22347272.43048
  23873154.352 5  23873160.191 8                 125454059.060 5  97756596.886 8
                  23873160.53546
  23028420.180 6  23028428.695 9  23028429.707 9 121015121.231 6  94297534.841 9
  90368475.477 9  23028428.55947
 16 04 20 00 03 55.0000000  0 11G10G12G14G15G18G20G21G24G25G31G32   
  21488981.406 7  21488988.457 9  21488988.785 9 112925386.809 7  87993801.170 9
  84327391.078 9  21488988.84049
  22077954.156 6  22077959.738 9                 116020358.067 6  90405540.488 9
                  22077959.48848
  23012414.828 5                                 120931005.625 5  94231979.88747
                  23012420.69547
  24027114.305 5  24027121.117 8                 126263461.505 5  98387052.391 8
                  24027121.80547
  20302097.766 7                                 106688247.247 7  83133706.92949
                  20302102.12549
  23030869.688 6                                 121028042.585 6  94307618.75847
                  23030875.56647
  21843356.328 6                                 114787670.470 6  89444905.80048
                  21843361.76248
  22266045.570 6  22266053.840 9  22266055.871 9 117008857.404 6  91175772.593 9
  87376786.785 9  22266053.66048
  22344736.813 6  22344745.711 9  22344747.766 9 117422374.833 6  91498000.167 9
  87685592.647 9  22344745.94148
  23870056.375 5  23870062.563 8                 125437782.015 5  97743913.470 8
                  23870062.78946
  23027149.320 6  23027157.332 9  23027158.492 9 121008441.918 6  94292330.179 9
  90363487.674 9  23027157.34447
 16 04 20 00 04 00.0000000  0 11G10G12G14G15G18G20G21G24G25G31G32   
  21486717.586 7  21486724.801 9  21486725.043 9 112913490.156 7  87984531.052 9
  84318507.211 9  21486725.21549
  22076942.477 6  22076948.027 9                 116015042.708 6  90401398.654 9
                  22076947.74248
  23011395.375 6                                 120925649.238 6  94227806.07247
                  23011401.41447
  24028843.336 5  24028850.141 8                 126272547.511 5  98394132.364 8
                  24028850.75447
  20301335.133 7                                 106684238.392 7  83130583.14649
                  20301339.52749
  23033534.305 6                                 121042043.475 6  94318528.53047
                  23033540.28947
  21845304.070 6                                 114797903.995 6  89452879.97348
                  21845308.71948
  22268828.313 6  22268836.977 9  22268838.832 9 117023482.032 6  91187168.406 9
  87387707.770 9  22268836.79748
  22342212.180 6  22342220.262 9  22342221.770 9 117409103.187 6  91487658.640 9
  87675682.006 9  22342220.41448
  23866959.875 4  23866966.629 8                 125421511.647 4  97731235.253 8
                  23866966.81646
  23025878.164 6  23025887.016 9  23025887.766 9 121001763.373 6  94287126.111 9
  90358500.445 9  23025886.85247
 16 04 20 00 04 05.0000000  0 11G10G12G14G15G18G20G21G24G25G31G32   
  21484454.867 7  21484462.488 9  21484462.762 9 112901599.885 7  87975265.906 9
  84309628.114 9  21484462.81649
  22075933.469 6  22075939.102 9                 116009740.853 6  90397267.334 9
                  22075939.16848
  23010376.945 6                                 120920293.907 6  94223633.07947
                  23010382.33647
  24030572.352 5  24030578.934 8                 126281633.363 5  98401212.261 8
                  24030579.03146
  20300574.570 7                                 106680240.637 7  83127468.01149
                  20300578.62949
  23036199.477 6                                 121056051.947 6  94329444.20947
                  23036206.00847
  21847252.609 6                                 114808146.661 6  89460861.26548
                  21847258.32448
  22271612.609 6  22271621.078 9  22271622.613 9 117038111.768 6  91198568.193 9
  87398632.562 9  22271620.93048
  22339687.438 6  22339695.934 9  22339697.590 9 117395838.232 6  91477322.311 9
  87665776.356 9  22339696.23448
  23863865.648 5  23863871.703 8                 125405248.162 5  97718562.417 8
                  23863871.77746
  23024607.602 6  23024616.293 9  23024617.160 9 120995085.772 6  94281922.785 9
  90353513.922 9  23024616.18847
 16 04 20 00 04 10.0000000  0 11G10G12G14G15G18G20G21G24G25G31G32   
  21482193.602 7  21482201.285 9  21482201.520 9 112889716.096 7  87966005.808 9
  84300753.856 9  21482201.69149
  22074927.086 6  22074933.262 9                 116004452.556 6  90393146.589 9
                  22074932.91448
  23009357.531 6                                 120914939.801 6  94219461.03647
                  23009363.18047
  24032300.766 5  24032307.453 8                 126290719.119 5  98408292.049 8
                  24032307.14847
  20299815.555 7                                 106676254.028 7  83124361.55349
                  20299820.20749
  23038866.844 6                                 121070068.022 6  94340365.80847
                  23038873.52347
  21849203.641 6                                 114818398.516 6  89468849.71248
                  21849209.16448
  22274397.695 6  22274405.500 9  22274407.332 9 117052746.673 6  91209972.008 9
  87409561.223 9  22274405.53148
  22337164.391 6  22337173.301 9  22337174.941 9 117382580.056 6  91466991.264 9
  87655875.763 9  22337173.29348
  23860771.656 5  23860778.352 8                 125388991.520 5  97705894.894 8
                  23860778.42246
  23023337.305 6  23023345.168 9  23023346.172 9 120988409.133 6  94276720.205 9
  90348528.123 9  23023345.19947
 16 04 20 00 04 15.0000000  0 11G10G12G14G15G18G20G21G24G25G31G32   
  21479933.375 7  21479940.930 9  21479941.141 9 112877838.253 7  87956750.342 9
  84291884.040 9  21479941.07849
  22073923.109 6  22073929.113 9                 115999177.299 6  90389035.998 9
                  22073928.87948
  23008339.086 6                                 120909586.353 6  94215289.52947
                  23008344.13747
  24034030.414 5  24034036.777 8                 126299804.275 5  98415371.393 8
                  24034035.82847
  20299059.336 7                                 106672278.058 7  83121263.39649
                  20299063.21949
  23041535.563 6                                 121084091.129 6  94351292.90047
                  23041541.88347
  21851156.219 6                                 114828659.062 6  89476844.93548
                  21851161.46948
  22277183.000 6  22277191.457 9  22277193.664 9 117067386.142 6  91221379.382 9
  87420493.290 9  22277191.57048
  22334642.875 6  22334651.617 9  22334653.832 9 117369328.105 6  91456665.070 9
  87645979.829 9  22334651.12948
  23857679.656 5  23857686.043 8                 125372741.266 5  97693232.368 8
                  23857685.97746
  23022066.750 6  23022075.074 9  23022075.965 9 120981732.956 6  94271517.985 9
  90343542.661 9  23022074.93447
 16 04 20 00 04 20.0000000  0 11G10G12G14G15G18G20G21G24G25G31G32   
  21477674.211 7  21477681.930 9  21477682.133 9 112865966.914 7  87947499.950 9
  84283019.075 9  21477682.07449
  22072922.148 7  22072927.750 9                 115993915.702 7  90384936.048 9
                  22072927.78948
  23007320.625 6                                 120904234.067 6  94211118.90847
                  23007325.91447
  24035759.414 5  24035765.516 8                 126308889.327 5  98422450.647 8
                  24035764.58247
  20298304.844 7                                 106668313.293 7  83118173.96749
                  20298308.74249
  23044205.906 6                                 121098121.820 6  94362225.88647
                  23044211.43047
  21853110.523 6                                 114838928.761 6  89484847.29448
                  21853115.81648
  22279970.055 6  22279978.211 9  22279980.336 9 117082030.836 6  91232790.829 9
  87431429.257 9  22279978.18448
  22332122.000 6  22332131.258 9  22332133.652 9 117356082.966 6  91446344.177 9
  87636088.982 9  22332130.94948
  23854588.211 5  23854595.332 8                 125356497.931 5  97680575.222 8
                  23854595.14546
  23020796.594 6  23020804.469 9  23020805.379 9 120975057.773 6  94266316.542 9
  90338557.941 9  23020804.52347
 16 04 20 00 04 25.0000000  0 11G10G12G14G15G18G20G21G24G25G31G32   
  21475416.336 7  21475424.258 9  21475424.453 9 112854101.785 7  87938254.391 9
  84274158.751 9  21475424.44949
  22071923.320 7  22071929.164 9                 115988667.429 7  90380846.486 9
                  22071928.85948
  23006302.836 5                                 120898882.637 5  94206948.96947
                  23006307.67247
  24037488.352 5  24037494.395 8                 126317974.033 5  98429529.659 8
                  24037493.04747
  20297552.359 7                                 106664359.424 7  83115093.02949
                  20297556.46149
  23046876.758 6                                 121112159.816 6  94373164.57247
                  23046882.43447
  21855066.273 6                                 114849207.384 6  89492856.60648
                  21855071.70348
  22282757.906 6  22282766.141 9  22282767.973 9 117096680.359 6  91244206.034 9
  87442368.827 9  22282765.93848
  22329603.008 6  22329611.602 9  22329614.016 9 117342844.339 6  91436028.375 9
  87626203.006 9  22329611.37148
  23851498.922 5  23851505.422 8                 125340261.209 5  97667923.231 8
                  23851505.09046
  23019526.445 6  23019534.531 9  23019535.574 9 120968383.241 6  94261115.611 9
  90333573.712 9  23019534.71947
 16 04 20 00 04 30.0000000  0 11G10G12G14G15G18G20G21G24G25G31G32   
  21473159.891 7  21473167.164 9  21473167.648 9 112842243.061 7  87929013.827 9
  84265303.207 9  21473167.64849
  22070927.406 6  22070933.555 9                 115983432.662 6  90376767.442 9
                  22070933.58248
  23005284.383 6                                 120893532.258 6  94202779.83647
                  23005289.09047
  24039216.727 6  24039223.340 8                 126327058.542 6  98436608.500 8
                  24039222.59447
  20296802.016 7                                 106660416.619 7  83112020.70549
                  20296806.55149
  23049550.070 6                                 121126205.198 6  94384109.02047
                  23049555.01647
  21857024.328 6                                 114859495.026 6  89500872.94348
                  21857029.67648
  22285545.711 6  22285554.660 9  22285556.359 9 117111334.872 6  91255625.137 9
  87453312.126 9  22285554.38348
  22327085.102 6  22327093.527 9  22327095.844 9 117329612.395 6  91425717.762 9
  87616322.001 9  22327093.49248
  23848410.211 5  23848417.000 8                 125324031.335 5  97655276.574 8
                  23848416.35546
  23018256.813 6  23018264.902 9  23018265.566 9 120961709.550 6  94255915.326 9
  90328590.110 9  23018264.71147
 16 04 20 00 04 35.0000000  0 11G10G12G14G15G18G20G21G24G25G31G32   
  21470904.352 7  21470911.691 9  21470912.113 9 112830391.114 7  87919778.547 9
  84256452.728 9  21470912.05149
  22069933.969 6  22069939.605 9                 115978211.790 6  90372699.231 9
                  22069939.73048
  23004266.000 6                                 120888183.285 6  94198611.80047
                  23004271.82447
  24040945.977 5  24040952.168 8                 126336143.192 5  98443687.438 8
                  24040951.59847
  20296053.875 7                                 106656485.254 7  83108957.30549
                  20296058.02049
  23052224.047 6                                 121140258.382 6  94395059.53247
                  23052229.62547
  21858983.695 6                                 114869792.068 6  89508896.60348
                  21858989.15248
  22288336.328 6  22288344.453 9  22288346.539 9 117125994.755 6  91267048.404 9
  87464259.437 9  22288344.38748
  22324568.195 6  22324576.965 9  22324579.215 9 117316387.600 6  91415412.736 9
  87606446.342 9  22324577.09848
  23845323.031 5  23845329.676 8                 125307808.651 5  97642635.526 8
                  23845329.25846
  23016987.133 6  23016995.176 9  23016995.844 9 120955037.114 6  94250716.028 9
  90323607.446 9  23016995.16447
 16 04 20 00 04 40.0000000  0 11G10G12G14G15G18G20G21G24G25G31G32   
  21468650.234 7  21468657.648 9  21468657.918 9 112818545.148 7  87910547.925 9
  84247606.720 9  21468658.09049
  22068942.695 6  22068948.762 9                 115973003.962 6  90368641.181 9
                  22068948.42248
  23003248.602 6                                 120882834.874 6  94194444.20347
                  23003254.00047
  24042674.414 5  24042681.340 8                 126345227.187 5  98450765.863 8
                  24042680.88747
  20295307.625 7                                 106652564.520 7  83105902.18249
                  20295311.96949
  23054899.836 6                                 121154318.573 6  94406015.53047
                  23054905.31647
  21860945.039 6                                 114880097.626 6  89516926.89848
                  21860949.99248
  22291126.555 6  22291134.797 9  22291137.012 9 117140659.200 6  91278475.246 9
  87475210.157 9  22291134.44948
  22322053.148 6  22322061.273 9  22322063.371 9 117303169.042 6  91405112.549 9
  87596575.340 9  22322061.07848
  23842237.430 5  23842243.598 8                 125291592.333 5  97629999.429 8
                  23842243.28546
  23015717.297 6  23015725.340 9  23015726.066 9 120948365.040 6  94245517.014 9
  90318625.049 9  23015725.62147
 16 04 20 00 04 45.0000000  0 11G10G12G14G15G18G20G21G24G25G31G32   
  21466396.992 7  21466404.852 9  21466404.992 9 112806705.567 7  87901322.277 9
  84238765.471 9  21466405.10549
  22067954.383 6  22067960.477 9                 115967809.652 6  90364593.664 9
                  22067960.18048
  23002230.805 6                                 120877487.481 6  94190277.40247
                  23002236.44147
  24044402.680 5  24044410.113 8                 126354310.991 5  98457844.141 8
                  24044409.86347
  20294563.789 7                                 106648654.817 7  83102855.66049
                  20294568.26649
  23057576.484 6                                 121168386.147 6  94416977.26147
                  23057582.21147
  21862907.805 6                                 114890412.167 6  89524964.19748
                  21862912.69948
  22293918.117 6  22293926.461 9  22293928.660 9 117155328.515 6  91289905.880 9
  87486164.509 9  22293926.15648
  22319538.891 6  22319547.734 9  22319549.863 9 117289957.198 6  91394817.618 9
  87586709.354 9  22319547.10248
  23839152.922 5  23839159.691 8                 125275382.843 5  97617368.656 8
                  23839159.12146
  23014447.906 6  23014455.555 9  23014456.578 9 120941693.790 6  94240318.632 9
  90313643.266 9  23014455.72347
 16 04 20 00 04 50.0000000  0 11G10G12G14G15G18G20G21G24G25G31G32   
  21464145.430 7  21464153.051 9  21464153.203 9 112794872.478 7  87892101.686 9
  84229929.075 9  21464153.43449
  22066968.672 6  22066974.516 9                 115962628.993 6  90360556.788 9
                  22066974.29348
  23001213.352 6                                 120872141.111 6  94186111.40347
                  23001218.78547
  24046131.313 5  24046138.512 8                 126363394.624 5  98464922.293 8
                  24046138.23047
  20293821.695 7                                 106644756.294 7  83099817.84649
                  20293826.35249
  23060254.508 6                                 121182461.204 6  94427944.82947
                  23060260.62547
  21864872.461 6                                 114900735.792 6  89533008.57048
                  21864877.31648
  22296710.688 6  22296718.859 9  22296720.793 9 117170002.864 6  91301340.432 9
  87497122.616 9  22296718.75848
  22317025.766 6  22317034.379 9  22317037.043 9 117276752.207 6  91384527.994 9
  87576848.480 9  22317034.10548
  23836069.750 5  23836076.449 8                 125259180.257 5  97604743.261 8
                  23836075.75446
  23013178.547 6  23013186.156 9  23013186.973 9 120935023.425 6  94235120.944 9
  90308662.152 9  23013186.46947
 16 04 20 00 04 55.0000000  0 11G10G12G14G15G18G20G21G24G25G31G32   
  21461894.625 7  21461902.277 9  21461902.500 9 112783045.588 7  87882885.928 9
  84221097.302 9  21461902.55549
  22065984.898 6  22065990.832 9                 115957461.609 6  90356530.255 9
                  22065990.97348
  23000195.969 6                                 120866795.482 6  94181945.96847
                  23000201.81647
  24047860.234 5  24047867.656 8                 126372477.791 5  98472000.070 8
                  24047867.52347
  20293082.297 7                                 106640868.621 7  83096788.48849
                  20293086.32849
  23062934.164 5                                 121196543.408 5  94438917.94347
                  23062940.53147
  21866838.336 6                                 114911068.050 6  89541059.68048
                  21866843.43048
  22299503.789 6  22299512.074 9  22299514.328 9 117184681.872 6  91312778.615 9
  87508084.204 9  22299512.17648
  22314514.273 6  22314523.691 9  22314526.121 9 117263553.696 6  91374243.444 9
  87566992.457 9  22314523.12548
  23832986.922 5  23832993.656 8                 125242984.210 5  97592122.976 8
                  23832993.91046
  23011909.141 6  23011917.074 9  23011917.602 9 120928353.626 6  94229923.699 9
  90303681.456 9  23011916.68847
 16 04 20 00 05 00.0000000  0 11G10G12G14G15G18G20G21G24G25G31G32   
  21459645.633 7  21459652.906 9  21459653.164 9 112771225.301 7  87873675.315 9
  84212270.469 9  21459653.39549
  22065004.078 6  22065010.352 9                 115952308.033 6  90352514.484 9
                  22065010.33648
  22999179.180 6                                 120861451.043 6  94177781.47347
                  22999184.76247
  24049588.313 5  24049596.055 8                 126381560.929 5  98479077.813 8
                  24049595.90647
  20292344.313 7                                 106636992.267 7  83093767.94749
                  20292349.04349
  23065615.734 5                                 121210633.183 5  94449896.98647
                  23065621.80947
  21868806.477 6                                 114921409.475 6  89549117.91748
                  21868811.39548
  22302297.875 6  22302305.910 9  22302308.254 9 117199365.958 6  91324220.749 9
  87519049.591 9  22302306.04348
  22312003.875 6  22312012.832 9  22312015.473 9 117250362.155 6  91363964.317 9
  87557141.624 9  22312012.59448
  23829906.609 5  23829912.875 8                 125226795.209 5  97579508.166 8
                  23829913.06646
  23010639.797 6  23010648.109 9  23010648.809 9 120921684.780 6  94224727.193 9
  90298701.466 9  23010648.07047
 16 04 20 00 05 05.0000000  0 11G10G12G14G15G18G20G21G24G25G31G32   
  21457397.500 7  21457404.820 9  21457405.133 9 112759411.611 7  87864469.847 9
  84203448.553 9  21457405.30549
  22064026.469 6  22064032.266 9                 115947168.199 6  90348509.409 9
                  22064032.16448
  22998162.242 6                                 120856107.701 6  94173617.81947
                  22998167.47747
  24051316.109 6  24051324.801 9                 126390643.932 6  98486155.459 9
                  24051325.11747
  20291609.258 7                                 106633127.144 7  83090756.16449
                  20291613.50049
  23068298.234 6                                 121224730.491 6  94460881.87747
                  23068304.67247
  21870775.883 6                                 114931759.985 6  89557183.25148
                  21870781.25848
  22305093.258 6  22305102.016 9  22305104.105 9 117214055.068 6  91335666.808 9
  87530018.726 9  22305101.72348
  22309494.641 6  22309503.977 9  22309506.340 9 117237177.510 6  91353690.572 9
  87547295.954 9  22309504.28148
  23826827.695 5  23826833.777 8                 125210613.205 5  97566898.819 8
                  23826833.48446
  23009371.344 6  23009379.480 9  23009380.188 9 120915016.908 6  94219531.447 9
  90293722.215 9  23009379.33247
 16 04 20 00 05 10.0000000  0 11G10G12G14G15G18G20G21G24G25G31G32   
  21455150.383 8  21455157.625 9  21455157.930 9 112747604.089 8  87855269.180 9
  84194631.247 9  21455157.92649
  22063050.695 6  22063056.703 9                 115942041.560 6  90344514.631 9
                  22063056.46948
  22997145.367 6                                 120850765.037 6  94169454.70547
                  22997151.04747
  24053044.820 5  24053052.785 8                 126399726.484 5  98493232.744 8
                  24053053.72347
  20290875.344 7                                 106629272.843 7  83087752.81149
                  20290879.75049
  23070982.305 6                                 121238834.884 6  94471872.31147
                  23070988.11747
  21872747.344 6                                 114942119.105 6  89565255.28648
                  21872752.08248
  22307889.313 6  22307897.977 9  22307900.023 9 117228748.813 6  91347116.469 9
  87540991.311 9  22307897.81648
  22306987.203 6  22306995.934 9  22306997.734 9 117223999.396 6  91343421.920 9
  87537455.154 9  22306995.85248
  23823749.688 5  23823756.090 8                 125194437.726 5  97554294.549 8
                  23823755.84446
  23008102.859 6  23008110.496 9  23008111.457 9 120908349.546 6  94214336.097 9
  90288743.338 9  23008110.48447
 16 04 20 00 05 15.0000000  0 11G10G12G14G15G18G20G21G24G25G31G32   
  21452904.992 7  21452912.313 9  21452912.500 9 112735803.078 7  87846073.581 9
  84185818.805 9  21452912.78949
  22062078.016 6  22062083.535 9                 115936928.485 6  90340530.413 9
                  22062083.40648
  22996129.188 6                                 120845423.376 6  94165292.37047
                  22996135.12947
  24054773.766 6  24054780.566 8                 126408808.810 6  98500309.862 8
                  24054781.51647
  20290144.313 7                                 106625429.690 7  83084758.14049
                  20290148.17249
  23073668.320 6                                 121252946.662 6  94482868.49447
                  23073673.76247
  21874720.141 6                                 114952487.139 6  89573334.26248
                  21874725.02048
  22310687.016 6  22310695.340 9  22310696.965 9 117243447.327 6  91358569.851 9
  87551967.467 9  22310694.98848
  22304480.977 6  22304489.438 9  22304491.449 9 117210828.103 6  91333158.586 9
  87527619.449 9  22304489.21548
  23820673.016 5  23820679.027 8                 125178269.138 5  97541695.656 8
                  23820679.09446
  23006834.375 6  23006841.980 9  23006842.801 9 120901682.963 6  94209141.361 9
  90283765.046 9  23006841.71147
 16 04 20 00 05 20.0000000  0 11G10G12G14G15G18G20G21G24G25G31G32   
  21450660.469 7  21450667.965 9  21450668.336 9 112724008.552 7  87836883.039 9
  84177011.200 9  21450668.39549
  22061107.938 6  22061113.355 9                 115931829.010 6  90336556.794 9
                  22061113.35948
  22995112.570 6                                 120840082.720 6  94161130.82147
                  22995118.91447
  24056501.469 5  24056508.871 8                 126417890.962 5  98507386.853 8
                  24056508.96147
  20289415.148 7                                 106621597.722 7  83081772.19049
                  20289419.16849
  23076354.688 6                                 121267065.874 6  94493870.46047
                  23076360.16047
  21876695.055 6                                 114962864.053 6  89581420.16748
                  21876699.73448
  22313484.445 6  22313492.664 9  22313494.781 9 117258150.625 6  91370026.962 9
  87562947.204 9  22313492.74648
  22301975.836 6  22301984.551 9  22301986.527 9 117197663.681 6  91322900.573 9
  87517788.874 9  22301983.76648
  23817597.469 5  23817603.699 8                 125162107.439 5  97529102.123 8
                  23817603.87546
  23005565.797 6  23005573.520 9  23005574.523 9 120895017.217 6  94203947.274 9
  90278787.377 9  23005573.31647
 16 04 20 00 05 25.0000000  0 11G10G12G14G15G18G20G21G24G25G31G32   
  21448417.414 7  21448424.516 9  21448424.719 9 112712220.618 7  87827697.639 9
  84168208.523 9  21448424.83249
  22060139.641 6  22060145.594 9                 115926743.154 6  90332593.791 9
                  22060145.37148
  22994096.430 6                                 120834743.092 6  94156970.06847
                  22994102.18847
  24058230.500 6  24058237.195 8                 126426972.941 6  98514463.719 8
                  24058237.07847
  20288688.172 7                                 106617776.951 7  83078794.95949
                  20288692.28949
  23079042.602 5                                 121281192.591 5  94504878.28747
                  23079049.07847
  21878671.336 6                                 114973249.893 6  89589513.02948
                  21878676.38348
  22316283.664 6  22316291.668 9  22316293.699 9 117272858.841 6  91381487.897 9
  87573930.604 9  22316291.37148
  22299472.227 6  22299480.957 9  22299483.172 9 117184506.168 6  91312647.980 9
  87507963.462 9  22299480.46948
  23814523.414 5  23814529.496 8                 125145952.678 5  97516514.001 8
                  23814529.33246
  23004297.117 6  23004305.551 9  23004306.191 9 120888352.321 6  94198753.846 9
  90273810.346 9  23004305.04347
 16 04 20 00 05 30.0000000  0 11G10G12G14G15G18G20G21G24G25G31G32   
  21446175.414 8  21446182.656 9  21446183.188 9 112700438.961 8  87818517.125 9
  84159410.531 9  21446183.18849
  22059174.219 6  22059180.777 9                 115921670.672 6  90328641.208 9
                  22059180.62548
  22993080.031 5                                 120829404.098 5  94152809.81347
                  22993086.26647
  24059957.906 5  24059965.293 8                 126436054.504 5  98521540.270 8
                  24059965.75447
  20287962.820 7                                 106613967.150 7  83075826.28249
                  20287967.16049
  23081732.867 6                                 121295326.362 6  94515891.58647
                  23081739.09447
  21880649.359 6                                 114983644.387 6  89597612.62448
                  21880654.19548
  22319083.609 6  22319091.297 9  22319093.711 9 117287571.659 6  91392952.434 9
  87584917.442 9  22319091.38348
  22296969.711 6  22296978.645 9  22296980.738 9 117171355.299 6  91302400.525 9
  87498143.001 9  22296977.85948
  23811450.414 5  23811457.094 8                 125129804.624 5  97503931.107 8
                  23811456.93846
  23003029.406 6  23003037.414 9  23003038.395 9 120881687.980 6  94193560.851 9
  90268833.724 9  23003037.24647
 16 04 20 00 05 35.0000000  0 11G10G12G14G15G18G20G21G24G25G31G32   
  21443934.656 7  21443941.977 9  21443942.188 9 112688664.334 7  87809342.086 9
  84150617.788 9  21443942.30149
  22058212.023 6  22058217.723 9                 115916612.332 6  90324699.642 9
                  22058217.77748
  22992065.055 6                                 120824066.594 6  94148650.72147
                  22992070.53947
  24061686.367 5  24061693.402 8                 126445136.406 5  98528617.062 8
                  24061693.52347
  20287240.016 7                                 106610169.029 7  83072866.70349
                  20287244.56649
  23084423.805 6                                 121309467.977 6  94526911.00247
                  23084429.94547
  21882628.852 6                                 114994048.243 6  89605719.51748
                  21882634.06648
  22321884.391 6  22321892.500 9  22321894.535 9 117302289.786 6  91404421.102 9
  87595908.242 9  22321892.03548
  22294468.539 6  22294477.172 9  22294479.480 9 117158211.805 6  91292158.873 9
  87488328.062 9  22294477.18848
  23808379.133 5  23808385.422 8                 125113663.976 5  97491353.973 8
                  23808384.90246
  23001761.211 6  23001769.230 9  23001770.168 9 120875024.957 6  94188368.888 9
  90263858.090 9  23001769.02047
 16 04 20 00 05 40.0000000  0 11G10G12G14G15G18G20G21G24G25G31G32   
  21441695.289 7  21441702.520 9  21441702.824 9 112676895.965 7  87800171.932 9
  84141829.716 9  21441702.93849
  22057251.766 6  22057257.977 9                 115911567.321 6  90320768.463 9
                  22057258.21148
  22991049.727 6                                 120818729.790 6  94144492.16647
                  22991055.21147
  24063414.359 5  24063421.066 8                 126454217.857 5  98535693.501 8
                  24063421.77047
  20286519.563 7                                 106606381.770 7  83069915.59149
                  20286523.66849
  23087116.578 6                                 121323616.613 6  94537935.90447
                  23087122.35547
  21884610.422 6                                 115004460.672 6  89613833.09248
                  21884615.62148
  22324685.453 6  22324694.305 9  22324696.230 9 117317012.458 6  91415893.314 9
  87606902.442 9  22324694.31648
  22291968.703 6  22291977.289 9  22291978.773 9 117145074.930 6  91281922.336 9
  87478518.056 9  22291976.88748
  23805308.430 5  23805314.977 8                 125097529.951 5  97478782.008 8
                  23805314.91446
  23000493.430 6  23000501.020 9  23000502.020 9 120868362.420 6  94183177.299 9
  90258882.816 9  23000501.10547
 16 04 20 00 05 45.0000000  0 11G10G12G14G15G18G20G21G24G25G31G32   
  21439456.891 7  21439464.590 9  21439465.039 9 112665133.960 7  87791006.727 9
  84133046.401 9  21439465.03549
  22056294.641 6  22056300.684 9                 115906535.793 6  90316847.787 9
                  22056300.42248
  22990033.453 6                                 120813393.747 6  94140334.22047
                  22990039.58647
  24065141.883 5  24065148.922 8                 126463298.907 5  98542769.620 8
                  24065149.56346
  20285800.703 7                                 106602605.545 7  83066973.07649
                  20285804.98849
  23089809.938 6                                 121337772.389 6  94548966.36347
                  23089815.64547
  21886593.594 6                                 115014881.746 6  89621953.39648
                  21886598.28548
  22327488.281 6  22327496.633 9  22327498.340 9 117331739.743 6  91427369.114 9
  87617900.082 9  22327496.53948
  22289470.102 6  22289479.059 9  22289480.699 9 117131944.794 6  91271691.070 9
  87468713.085 9  22289478.93448
  23802239.922 5  23802246.250 8                 125081402.658 5  97466215.291 8
                  23802245.85946
  22999225.367 6  22999233.707 9  22999234.313 9 120861700.487 6  94177986.178 9
  90253908.001 9  22999233.39847
 16 04 20 00 05 50.0000000  0 11G10G12G14G15G18G20G21G24G25G31G32   
  21437220.172 7  21437227.750 9  21437227.941 9 112653378.756 7  87781846.829 9
  84124268.161 9  21437227.93849
  22055339.898 6  22055345.703 9                 115901518.178 6  90312937.960 9
                  22055345.65648
  22989018.781 6                                 120808058.956 6  94136177.22547
                  22989024.45747
  24066869.750 5  24066877.398 8                 126472380.017 5  98549845.792 8
                  24066877.59447
  20285084.734 7                                 106598840.699 7  83064039.42249
                  20285088.92649
  23092505.734 6                                 121351935.720 6  94560002.71547
                  23092510.30947
  21888578.258 6                                 115025311.849 6  89630080.74448
                  21888583.26248
  22330291.734 6  22330299.801 9  22330301.629 9 117346472.127 6  91438848.867 9
  87628901.526 9  22330299.83248
  22286972.680 6  22286981.852 9  22286983.270 9 117118821.814 6  91261465.360 9
  87458913.455 9  22286981.38748
  23799172.117 5  23799178.828 8                 125065282.548 5  97453654.172 8
                  23799178.83647
  22997958.031 6  22997966.086 9  22997966.738 9 120855039.563 6  94172795.847 9
  90248933.930 9  22997966.29347
 16 04 20 00 05 55.0000000  0 11G10G12G14G15G18G20G21G24G25G31G32   
  21434984.219 7  21434991.359 9  21434991.910 9 112641629.688 7  87772691.712 9
  84115494.500 9  21434991.90649
  22054387.359 6  22054392.836 9                 115896513.753 6  90309038.404 9
                  22054392.75048
  22988003.773 6                                 120802724.722 6  94132020.69347
                  22988009.44547
  24068598.492 5  24068605.188 8                 126481460.521 5  98556921.506 8
                  24068605.16446
  20284369.969 7                                 106595086.556 7  83061114.11249
                  20284374.37149
  23095201.266 6                                 121366105.937 6  94571044.44447
                  23095206.17647
  21890564.211 6                                 115035750.271 6  89638214.57948
                  21890569.35948
  22333096.211 6  22333104.438 9  22333106.133 9 117361208.849 6  91450332.039 9
  87639906.221 9  22333104.16048
  22284477.359 6  22284485.941 9  22284487.762 9 117105705.317 6  91251244.714 9
  87449118.667 9  22284485.29348
  23796105.828 5  23796112.402 8                 125049168.915 5  97441098.101 8
                  23796112.23446
  22996690.531 6  22996698.629 9  22996699.273 9 120848378.951 6  94167605.767 9
  90243960.102 9  22996698.82847
 16 04 20 00 06 00.0000000  0 11G10G12G14G15G18G20G21G24G25G31G32   
  21432749.867 7  21432757.391 9  21432757.672 9 112629887.299 7  87763541.797 9
  84106725.840 9  21432757.72749
  22053437.477 6  22053443.406 9                 115891523.150 6  90305149.624 9
                  22053443.48048
  22986988.883 6                                 120797391.519 6  94127864.93747
                  22986994.41847
  24070326.461 5  24070333.352 8                 126490540.920 5  98563997.139 8
                  24070333.21947
  20283657.461 7                                 106591343.740 7  83058197.63149
                  20283661.84049
  23097899.773 6                                 121380283.589 6  94582091.95447
                  23097904.58647
  21892552.555 6                                 115046197.616 6  89646355.35948
                  21892558.04348
  22335901.453 6  22335909.141 9  22335911.148 9 117375950.346 6  91461818.912 9
  87650914.475 9  22335909.11748
  22281982.047 6  22281990.859 9  22281992.809 9 117092595.906 6  91241029.591 9
  87439329.180 9  22281990.22348
  23793040.484 5  23793047.449 8                 125033062.305 5  97428547.505 8
                  23793047.41846
  22995423.117 6  22995431.574 9  22995432.207 9 120841719.240 6  94162416.381 9
  90238986.939 9  22995431.70347
 16 04 20 00 06 05.0000000  0 11G10G12G14G15G18G20G21G24G25G31G32   
  21430516.391 7  21430523.859 9  21430524.180 9 112618151.481 7  87754397.004 9
  84097962.076 9  21430524.35249
  22052490.484 6  22052496.207 9                 115886546.164 6  90301271.455 9
                  22052496.34448
  22985974.156 6                                 120792059.233 6  94123709.91347
                  22985980.16047
  24072054.438 5  24072061.090 8                 126499621.108 5  98571072.596 8
                  24072061.30147
  20282947.664 7                                 106587612.107 7  83055289.85649
                  20282951.75049
  23100598.523 5                                 121394468.501 5  94593145.11547
                  23100604.32847
  21894542.164 6                                 115056653.662 6  89654502.91648
                  21894547.38348
  22338707.078 6  22338715.902 9  22338717.531 9 117390696.580 6  91473309.481 9
  87661926.265 9  22338715.73048
  22279489.320 6  22279497.531 9  22279499.773 9 117079493.417 6  91230819.848 9
  87429544.846 9  22279497.36348
  23789977.125 5  23789983.277 8                 125016962.622 5  97416002.300 8
                  23789983.42647
  22994155.555 6  22994164.242 9  22994164.824 9 120835060.253 6  94157227.561 9
  90234014.319 9  22994164.20347
 16 04 20 00 06 10.0000000  0 11G10G12G14G15G18G20G21G24G25G31G32   
  21428284.477 7  21428291.691 9  21428292.301 9 112606422.302 7  87745257.389 9
  84089203.274 9  21428292.30149
  22051545.773 6  22051551.875 9                 115881582.893 6  90297403.962 9
                  22051552.01248
  22984960.133 6                                 120786727.915 6  94119555.63447
                  22984965.52347
  24073783.055 6  24073789.582 8                 126508701.159 6  98578147.949 8
                  24073789.64847
  20282239.727 7                                 106583891.753 7  83052390.88049
                  20282244.26249
  23103299.648 5                                 121408660.769 5  94604204.01547
                  23103305.43047
  21896533.688 6                                 115067118.530 6  89662657.35748
                  21896538.57448
  22341514.266 6  22341522.578 9  22341524.445 9 117405447.582 6  91484803.752 9
  87672941.619 9  22341522.58648
  22276997.414 6  22277005.641 9  22277007.625 9 117066397.979 6  91220615.625 9
  87419765.791 9  22277005.68448
  23786914.930 5  23786921.047 8                 125000869.996 5  97403462.594 8
                  23786921.07047
  22992889.250 6  22992897.301 9  22992897.914 9 120828402.075 6  94152039.371 9
  90229042.301 9  22992897.41047
 16 04 20 00 06 15.0000000  0 11G10G12G14G15G18G20G21G24G25G31G32   
  21426053.859 7  21426061.371 9  21426061.641 9 112594699.821 7  87736122.982 9
  84080449.473 9  21426061.69549
  22050604.188 6  22050610.137 9                 115876633.356 6  90293547.179 9
                  22050609.96148
  22983945.414 6                                 120781397.561 6  94115402.11247
                  22983951.10947
  24075510.117 5  24075517.027 8                 126517781.068 5  98585223.191 8
                  24075517.24247
  20281533.891 7                                 106580182.704 7  83049500.71149
                  20281538.47349
  23106001.336 6                                 121422860.364 6  94615268.61847
                  23106007.59447
  21898526.297 6                                 115077592.183 6  89670818.63148
                  21898531.92248
  22344322.688 6  22344330.492 9  22344332.258 9 117420203.410 6  91496301.801 9
  87683960.577 9  22344330.40248
  22274506.180 6  22274515.301 9  22274516.602 9 117053309.590 6  91210416.867 9
  87409991.986 9  22274515.30548
  23783854.234 5  23783860.746 8                 124984784.403 5  97390928.371 8
                  23783860.43047
  22991622.203 6  22991630.371 9  22991631.133 9 120821744.732 6  94146851.829 9
  90224070.909 9  22991630.86347
 16 04 20 00 06 20.0000000  0 11G10G12G14G15G18G20G21G24G25G31G32   
  21423824.430 7  21423831.680 9  21423832.238 9 112582983.993 7  87726993.761 9
  84071700.636 9  21423832.35249
  22049665.047 6  22049670.652 9                 115871697.575 6  90289701.120 9
                  22049670.60948
  22982931.039 6                                 120776068.156 6  94111249.32947
                  22982937.00047
  24077238.219 6  24077244.637 8                 126526860.839 6  98592298.320 8
                  24077245.09447
  20280830.344 7                                 106576484.926 7  83046619.31949
                  20280834.84049
  23108705.164 5                                 121437067.279 5  94626338.92947
                  23108711.50847
  21900521.656 6                                 115088074.589 6  89678986.73548
                  21900526.77748
  22347131.289 6  22347139.324 9  22347141.270 9 117434963.915 6  91507803.490 9
  87694983.022 9  22347139.00448
  22272016.969 6  22272025.922 9  22272027.270 9 117040228.240 6  91200223.621 9
  87400223.450 9  22272025.73848
  23780793.883 5  23780800.688 8                 124968705.785 5  97378399.576 8
                  23780800.36747
  22990355.672 6  22990363.680 9  22990364.301 9 120815088.129 6  94141664.860 9
  90219100.063 9  22990363.91447
 16 04 20 00 06 25.0000000  0 11G10G12G14G15G18G20G21G24G25G31G32   
  21421596.266 7  21421603.719 9  21421604.102 9 112571274.671 7  87717869.619 9
  84062956.661 9  21421604.09849
  22048728.398 6  22048734.141 9                 115866775.415 6  90285865.665 9
                  22048734.13748
  22981917.094 6                                 120770739.587 6  94107097.20047
                  22981922.54347
  24078965.703 5  24078972.535 8                 126535940.305 5  98599373.227 8
                  24078972.36747
  20280128.414 7                                 106572798.259 7  83043746.58949
                  20280132.74649
  23111409.219 5                                 121451281.388 5  94637414.85147
                  23111415.53147
  21902517.891 6                                 115098565.620 6  89687161.55048
                  21902522.75448
  22349941.078 6  22349949.355 9  22349951.355 9 117449729.033 6  91519308.760 9
  87706008.914 9  22349949.37948
  22269528.727 6  22269538.125 9  22269539.605 9 117027153.794 6  91190035.731 9
  87390460.061 9  22269537.60548
  23777735.531 5  23777742.129 8                 124952634.076 5  97365876.177 8
                  23777742.20347
  22989088.695 6  22989097.117 9  22989097.785 9 120808432.209 6  94136478.425 9
  90214129.727 9  22989097.04747
 16 04 20 00 06 30.0000000  0 11G10G12G14G15G18G20G21G24G25G31G32   
  21419369.578 7  21419376.598 9  21419377.031 9 112559572.203 7  87708750.811 9
  84054217.808 9  21419376.97349
  22047794.141 6  22047800.070 9                 115861867.185 6  90282041.073 9
                  22047800.02748
  22980903.422 5                                 120765412.098 5  94102945.90647
                  22980909.11747
  24080693.391 5  24080700.090 8                 126545019.786 5  98606448.138 8
                  24080700.25446
  20279429.414 7                                 106569123.101 7  83040882.82149
                  20279433.88749
  23114115.977 5                                 121465502.922 5  94648496.53647
                  23114121.66447
  21904515.891 6                                 115109065.575 6  89695343.32548
                  21904521.50848
  22352751.078 6  22352760.156 9  22352762.012 9 117464499.071 6  91530817.881 9
  87717038.485 9  22352760.15248
  22267042.539 6  22267051.641 9  22267053.379 9 117014086.617 6  91179853.523 9
  87380702.116 9  22267051.26248
  23774679.375 5  23774685.465 8                 124936569.539 5  97353358.362 8
                  23774685.05947
  22987822.641 6  22987830.613 9  22987831.598 9 120801777.235 6  94131292.735 9
  90209160.109 9  22987830.74247
 16 04 20 00 06 35.0000000  0 11G10G12G14G15G18G20G21G24G25G31G32   
  21417143.484 7  21417150.605 9  21417150.996 9 112547876.173 7  87699637.022 9
  84045483.759 9  21417150.99249
  22046862.359 6  22046868.598 9                 115856972.462 6  90278227.001 9
                  22046868.60248
  22979889.320 6                                 120760085.324 6  94098795.17947
                  22979895.09447
  24082420.547 5  24082427.473 8                 126554098.919 5  98613522.774 8
                  24082427.52046
  20278732.172 7                                 106565458.989 7  83038027.66649
                  20278736.53949
  23116823.695 5                                 121479731.549 5  94659583.76647
                  23116829.29347
  21906515.891 6                                 115119573.986 6  89703531.69148
                  21906520.91448
  22355562.898 6  22355571.570 9  22355573.465 9 117479273.589 6  91542330.479 9
  87728071.401 9  22355571.60548
  22264557.008 6  22264566.078 9  22264568.531 9 117001026.249 6  91169676.609 9
  87370949.244 9  22264566.05948
  23771623.117 5  23771629.676 8                 124920511.764 5  97340845.816 8
                  23771629.38747
  22986555.875 6  22986564.594 9  22986565.309 9 120795122.777 6  94126107.433 9
  90204190.865 9  22986564.33647
 16 04 20 00 06 40.0000000  0 11G10G12G14G15G18G20G21G24G25G31G32   
  21414919.305 7  21414926.590 9  21414926.918 9 112536186.951 7  87690528.536 9
  84036754.793 9  21414926.97349
  22045934.102 6  22045939.770 9                 115852091.694 6  90274423.804 9
                  22045939.67248
  22978876.195 6                                 120754759.571 6  94094645.24147
                  22978882.44547
  24084148.695 5  24084155.352 8                 126563178.034 5  98620597.383 8
                  24084155.44146
  20278037.164 7                                 106561806.264 7  83035181.38749
                  20278041.22749
  23119533.242 6                                 121493967.531 6  94670676.71947
                  23119538.05547
  21908516.867 6                                 115130091.201 6  89711726.91548
                  21908522.10548
  22358375.344 6  22358383.578 9  22358385.336 9 117494052.841 6  91553846.788 9
  87739107.848 9  22358383.24248
  22262072.719 6  22262082.168 9  22262084.371 9 116987973.095 6  91159505.331 9
  87361201.757 9  22262082.01648
  23768569.227 5  23768575.586 8                 124904461.082 5  97328338.790 8
                  23768575.30947
  22985289.617 6  22985298.117 9  22985298.855 9 120788469.182 6  94120922.817 9
  90199222.270 9  22985297.88347
 16 04 20 00 06 45.0000000  0 11G10G12G14G15G18G20G21G24G25G31G32   
  21412696.125 7  21412703.762 9  21412703.934 9 112524504.536 7  87681425.353 9
  84028030.909 9  21412703.98849
  22045007.867 6  22045013.457 9                 115847224.831 6  90270631.442 9
                  22045013.39848
  22977863.188 6                                 120749434.869 6  94090496.12147
                  22977869.32047
  24085875.914 5  24085882.789 8                 126572257.071 5  98627671.951 8
                  24085882.44546
  20277344.367 7                                 106558164.966 7  83032344.01049
                  20277348.65249
  23122243.367 5                                 121508210.918 5  94681775.45447
                  23122249.24247
  21910519.500 6                                 115140617.256 6  89719929.03148
                  21910525.23048
  22361188.680 6  22361197.203 9  22361199.352 9 117508836.772 6  91565366.720 9
  87750147.785 9  22361196.84848
  22259590.438 6  22259599.352 9  22259601.293 9 116974927.165 6  91149339.674 9
  87351459.676 9  22259599.35248
  23765515.492 5  23765522.156 8                 124888417.597 5  97315837.378 8
                  23765521.52746
  22984024.219 6  22984032.195 9  22984032.711 9 120781816.419 6  94115738.847 9
  90194254.301 9  22984032.09047
 16 04 20 00 06 50.0000000  0 11G10G12G14G15G18G20G21G24G25G31G32   
  21410474.195 7  21410481.398 9  21410481.824 9 112512828.594 7  87672327.220 9
  84019311.861 9  21410481.99649
  22044084.406 6  22044090.250 9                 115842371.462 6  90266849.592 9
                  22044089.74248
  22976849.703 6                                 120744110.771 6  94086347.47747
                  22976855.67647
  24087603.609 5  24087610.727 8                 126581335.741 5  98634746.228 8
                  24087609.89847
  20276653.430 7                                 106554534.738 7  83029515.25449
                  20276657.14849
  23124955.563 6                                 121522461.331 6  94692879.66647
                  23124961.18447
  21912524.406 6                                 115151151.728 6  89728137.70248
                  21912530.10948
  22364003.109 6  22364011.211 9  22364013.477 9 117523625.072 6  91576890.067 9
  87761190.983 9  22364010.97348
  22257108.898 6  22257117.980 9  22257119.832 9 116961888.082 6  91139179.367 9
  87341722.698 9  22257117.77348
  23762463.680 5  23762470.453 8                 124872380.894 5  97303341.245 8
                  23762469.98447
  22982757.813 6  22982766.840 9  22982767.328 9 120775164.227 6  94110555.323 9
  90189286.754 9  22982766.71147
 16 04 20 00 06 55.0000000  0 11G10G12G14G15G18G20G21G24G25G31G32   
  21408253.633 7  21408260.906 9  21408261.219 9 112501159.393 7  87663234.335 9
  84010597.845 9  21408261.27749
  22043163.250 6  22043169.344 9                 115837531.912 6  90263078.514 9
                  22043168.89848
  22975836.648 6                                 120738787.645 6  94082199.56947
                  22975842.53147
  24089331.789 5  24089337.953 8                 126590414.230 5  98641820.374 8
                  24089337.23846
  20275964.922 7                                 106550915.826 7  83026695.32149
                  20275968.96949
  23127668.570 6                                 121536719.000 6  94703989.52647
                  23127675.03547
  21914530.695 6                                 115161694.883 6  89736353.13548
                  21914536.44948
  22366817.398 6  22366826.199 9  22366828.379 9 117538418.090 6  91588417.081 9
  87772237.718 9  22366826.11348
  22254629.422 6  22254638.230 9  22254639.871 9 116948856.181 6  91129024.629 9
  87331991.091 9  22254637.63748
  23759413.422 5  23759419.730 8                 124856351.261 5  97290850.630 8
                  23759419.66447
  22981491.984 6  22981500.668 9  22981501.449 9 120768512.778 6  94105372.375 9
  90184319.761 9  22981500.88747
 16 04 20 00 07 00.0000000  0 11G10G12G14G15G18G20G21G24G25G31G32   
  21406034.391 7  21406041.508 9  21406041.773 9 112489496.908 7  87654146.686 9
  84001888.844 9  21406041.94549
  22042245.289 6  22042251.152 9                 115832706.137 6  90259318.170 9
                  22042250.82048
  22974824.289 6                                 120733465.430 6  94078052.39547
                  22974829.42647
  24091059.797 5  24091065.898 8                 126599492.581 5  98648894.426 8
                  24091065.29747
  20275278.203 7                                 106547308.257 7  83023884.22449
                  20275282.73049
  23130382.563 6                                 121550983.948 6  94715105.04647
                  23130389.14547
  21916539.086 6                                 115172246.658 6  89744575.29348
                  21916544.45748
  22369633.641 6  22369641.980 9  22369644.043 9 117553215.693 6  91599947.679 9
  87783287.867 9  22369641.94948
  22252150.992 6  22252159.523 9  22252161.660 9 116935831.445 6  91118875.481 9
  87322264.818 9  22252159.30948
  23756364.641 5  23756371.207 8                 124840328.708 5  97278365.531 8
                  23756370.98047
  22980226.641 6  22980235.137 9  22980235.789 9 120761862.082 6  94100190.009 9
  90179353.331 9  22980234.93447
 16 04 20 00 07 05.0000000  0 11G10G12G14G15G18G20G21G24G25G31G32   
  21403816.438 7  21403823.531 9  21403824.023 9 112477841.208 7  87645064.317 9
  83993184.917 9  21403824.13749
  22041329.344 6  22041335.375 9                 115827894.231 6  90255568.626 9
                  22041335.01248
  22973811.531 6                                 120728144.055 6  94073905.86147
                  22973816.95347
  24092787.727 5  24092793.652 8                 126608570.708 5  98655968.279 8
                  24092793.27347
  20274593.695 7                                 106543711.980 7  83021081.92849
                  20274597.89149
  23133098.602 5                                 121565256.137 5  94726226.22247
                  23133104.53147
  21918548.688 6                                 115182807.096 6  89752804.18848
                  21918553.80148
  22372450.672 6  22372458.781 9  22372460.785 9 117568017.938 6  91611481.881 9
  87794341.480 9  22372458.46148
  22249673.859 6  22249682.781 9  22249684.664 9 116922813.854 6  91108731.903 9
  87312543.898 9  22249682.25448
  23753317.336 5  23753323.203 8                 124824313.218 5  97265885.941 8
                  23753323.60547
  22978961.305 6  22978969.559 9  22978970.090 9 120755212.096 6  94095008.205 9
  90174387.433 9  22978969.58647
 16 04 20 00 07 10.0000000  0 11G10G12G14G15G18G20G21G24G25G31G32   
  21401599.500 7  21401606.574 9  21401607.004 9 112466192.109 7  87635987.097 9
  83984485.913 9  21401607.05949
  22040416.352 6  22040422.434 9                 115823096.009 6  90251829.751 9
                  22040422.10248
  22972799.070 6                                 120722823.467 6  94069759.95447
                  22972804.75847
  24094515.125 6  24094521.031 8                 126617648.586 6  98663041.933 8
                  24094521.10947
  20273911.703 7                                 106540126.909 7  83018288.36649
                  20273915.79749
  23135815.781 5                                 121579535.456 5  94737352.94847
                  23135821.52347
  21920559.875 6                                 115193375.989 6  89761039.68748
                  21920565.34048
  22375268.680 6  22375276.465 9  22375278.602 9 117582824.678 6  91623019.607 9
  87805398.455 9  22375276.03948
  22247197.938 6  22247206.828 9  22247208.965 9 116909803.301 6  91098593.814 9
  87302828.221 9  22247206.73048
  23750270.508 5  23750277.066 8                 124808304.673 5  97253411.755 8
                  23750276.86347
  22977696.156 6  22977704.551 9  22977705.250 9 120748562.734 6  94089826.887 9
  90169421.998 9  22977704.51247
 16 04 20 00 07 15.0000000  0 11G10G12G14G15G18G20G21G24G25G31G32   
  21399384.008 7  21399391.375 9  21399391.555 9 112454549.856 7  87626915.210 9
  83975792.017 9  21399391.66849
  22039505.992 6  22039512.043 9                 115818311.657 6  90248101.683 9
                  22039511.92248
  22971786.906 6                                 120717503.853 6  94065614.79647
                  22971791.92247
  24096242.469 6  24096248.504 8                 126626726.351 6  98670115.501 8
                  24096248.93847
  20273231.680 7                                 106536553.252 7  83015503.69349
                  20273235.85549
  23138534.969 5                                 121593822.031 5  94748485.33847
                  23138540.38347
  21922572.844 6                                 115203953.541 6  89769281.92348
                  21922577.75848
  22378086.922 6  22378095.367 9  22378097.551 9 117597635.984 6  91634560.875 9
  87816458.842 9  22378094.93048
  22244723.781 6  22244732.488 9  22244734.340 9 116896800.032 6  91088461.406 9
  87293117.996 9  22244732.22348
  23747225.500 5  23747232.234 8                 124792303.296 5  97240943.161 8
                  23747231.91847
  22976430.750 6  22976439.230 9  22976439.957 9 120741914.180 6  94084646.197 9
  90164457.168 9  22976439.39547
 16 04 20 00 07 20.0000000  0 11G10G12G14G15G18G20G21G24G25G31G32   
  21397169.664 7  21397177.457 9  21397177.641 9 112442914.280 7  87617848.528 9
  83967103.117 9  21397177.63749
  22038597.891 6  22038604.121 9                 115813541.129 6  90244384.397 9
                  22038604.27348
  22970774.531 6                                 120712185.015 6  94061470.25347
                  22970779.84447
  24097970.086 6  24097975.551 8                 126635803.895 6  98677188.915 8
                  24097975.94147
  20272553.688 7                                 106532990.888 7  83012727.82149
                  20272557.80149
  23141254.438 5                                 121608115.748 5  94759623.28447
                  23141260.13347
  21924587.273 6                                 115214539.611 6  89777530.80248
                  21924592.84048
  22380906.000 6  22380914.082 9  22380916.266 9 117612451.815 6  91646105.679 9
  87827522.604 9  22380913.87948
  22242250.227 6  22242259.590 9  22242261.207 9 116883803.864 6  91078334.531 9
  87283413.065 9  22242259.26648
  23744182.086 5  23744188.551 8                 124776308.872 5  97228479.981 8
                  23744188.14147
  22975166.313 6  22975174.004 9  22975174.656 9 120735266.249 6  94079465.995 9
  90159492.806 9  22975173.85947
 16 04 20 00 07 25.0000000  0 11G10G12G14G15G18G20G21G24G25G31G32   
  21394957.109 7  21394964.652 9  21394964.898 9 112431285.493 7  87608787.138 9
  83958419.276 9  21394965.07049
  22037693.063 6  22037698.668 9                 115808784.387 6  90240677.834 9
                  22037698.51648
  22969762.508 6                                 120706867.035 6  94057326.36347
                  22969768.02047
  24099697.211 6  24099703.367 8                 126644881.305 6  98684262.222 8
                  24099703.48046
  20271877.977 7                                 106529439.870 7  83009960.79049
                  20271881.97749
  23143976.266 6                                 121622416.651 6  94770766.84647
                  23143982.04747
  21926602.883 6                                 115225134.227 6  89785786.33548
                  21926608.57048
  22383726.438 6  22383734.820 9  22383736.613 9 117627272.197 6  91657654.012 9
  87838589.762 9  22383734.64148
  22239778.781 6  22239787.355 9  22239789.051 9 116870814.921 6  91068213.261 9
  87273713.525 9  22239786.75848
  23741139.852 5  23741146.309 8                 124760321.527 5  97216022.317 8
                  23741146.03947
  22973901.398 6  22973909.090 9  22973909.676 9 120728619.059 6  94074286.361 9
  90154528.989 9  22973908.99647
 16 04 20 00 07 30.0000000  0 11G10G12G14G15G18G20G21G24G25G31G32   
  21392745.508 7  21392752.895 9  21392753.262 9 112419663.327 7  87599730.903 9
  83949740.387 9  21392753.25849
  22036790.602 6  22036795.816 9                 115804041.330 6  90236981.952 9
                  22036795.86748
  22968750.969 6                                 120701549.792 6  94053183.06147
                  22968756.57847
  24101424.125 5  24101430.531 8                 126653958.409 5  98691335.276 8
                  24101430.50846
  20271204.508 7                                 106525900.015 7  83007202.45949
                  20271208.75049
  23146698.266 5                                 121636724.599 5  94781915.86747
                  23146704.85547
  21928620.867 6                                 115235737.266 6  89794048.43548
                  21928626.19548
  22386547.680 6  22386555.660 9  22386557.762 9 117642096.980 6  91669205.783 9
  87849660.214 9  22386555.67248
  22237308.086 6  22237317.512 9  22237318.668 9 116857833.022 6  91058097.497 9
  87264019.252 9  22237316.66848
  23738098.906 5  23738105.270 8                 124744341.108 5  97203570.057 8
                  23738105.50047
  22972636.016 6  22972644.184 9  22972645.070 9 120721972.378 6  94069107.129 9
  90149565.557 9  22972644.44947
 16 04 20 00 07 35.0000000  0 11G10G12G14G15G18G20G21G24G25G31G32   
  21390534.930 7  21390542.723 9  21390543.070 9 112408047.954 7  87590679.964 9
  83941066.569 9  21390543.00849
  22035890.438 6  22035896.094 9                 115799312.118 6  90233296.842 9
                  22035896.18448
  22967738.945 6                                 120696233.383 6  94049040.40647
                  22967745.14547
  24103151.250 5  24103158.047 8                 126663035.415 5  98698408.244 8
                  24103157.63747
  20270532.773 7                                 106522371.460 7  83004452.93249
                  20270536.92649
  23149422.086 5                                 121651039.746 5  94793070.52047
                  23149429.16047
  21930639.977 6                                 115246348.857 6  89802317.19848
                  21930645.51248
  22389369.422 6  22389377.410 9  22389379.500 9 117656926.218 6  91680761.037 9
  87860733.990 9  22389377.23048
  22234839.055 6  22234848.301 9  22234850.207 9 116844858.382 6  91047987.388 9
  87254330.401 9  22234847.85548
  23735059.383 5  23735065.309 8                 124728367.733 5  97191123.273 8
                  23735065.10947
  22971371.617 6  22971380.066 9  22971380.512 9 120715326.463 6  94063928.491 9
  90144602.696 9  22971379.83247
 16 04 20 00 07 40.0000000  0 11G10G12G14G15G18G20G21G24G25G31G32   
  21388326.016 7  21388333.445 9  21388333.824 9 112396439.340 7  87581634.284 9
  83932397.796 9  21388333.82049
  22034993.398 6  22034999.145 9                 115794596.686 6  90229622.476 9
                  22034999.09048
  22966727.523 6                                 120690917.804 6  94044898.39347
                  22966733.40247
  24104878.063 5  24104884.887 8                 126672112.201 5  98705481.061 8
                  24104884.71947
  20269863.602 7                                 106518854.195 7  83001712.20649
                  20269868.21549
  23152147.930 5                                 121665362.030 5  94804230.71147
                  23152154.64147
  21932661.250 6                                 115256968.898 6  89810592.55848
                  21932666.72348
  22392192.188 6  22392200.066 9  22392202.398 9 117671759.929 6  91692319.761 9
  87871811.105 9  22392200.07048
  22232371.484 6  22232380.270 9  22232382.270 9 116831890.907 6  91037882.868 9
  87244646.905 9  22232380.21148
  23732021.070 5  23732027.094 8                 124712401.461 5  97178682.035 8
                  23732026.90647
  22970107.078 6  22970115.156 9  22970115.859 9 120708681.154 6  94058750.328 9
  90139640.284 9  22970115.12147
 16 04 20 00 07 45.0000000  0 11G10G12G14G15G18G20G21G24G25G31G32   
  21386118.641 7  21386125.988 9  21386126.262 9 112384837.622 7  87572593.986 9
  83923734.176 9  21386126.19949
  22034098.258 6  22034104.352 9                 115789895.217 6  90225958.993 9
                  22034103.92648
  22965716.203 6                                 120685603.161 6  94040757.10147
                  22965721.85547
  24106604.969 5  24106611.773 8                 126681188.862 5  98712553.770 8
                  24106611.70347
  20269196.383 7                                 106515348.425 7  82998980.43049
                  20269200.99249
  23154875.203 5                                 121679691.546 5  94815396.55547
                  23154880.76247
  21934684.023 6                                 115267597.547 6  89818874.60548
                  21934689.00848
  22395015.445 6  22395024.164 9  22395026.352 9 117686598.252 6  91703882.089 9
  87882891.662 9  22395024.08248
  22229905.055 6  22229914.129 9  22229916.117 9 116818930.834 6  91027784.116 9
  87234968.930 9  22229914.35248
  23728984.250 5  23728990.773 8                 124696442.423 5  97166246.427 8
                  23728990.62947
  22968842.664 6  22968850.805 9  22968851.418 9 120702036.660 6  94053572.800 9
  90134678.482 9  22968850.79747
 16 04 20 00 07 50.0000000  0 11G10G12G14G15G18G20G21G24G25G31G32   
  21383911.820 7  21383919.023 9  21383919.500 9 112373243.025 7  87563559.238 9
  83915075.873 9  21383919.49649
  22033206.344 6  22033212.172 9                 115785207.919 6  90222306.548 9
                  22033211.79348
  22964705.430 6                                 120680289.597 6  94036616.67347
                  22964710.61747
  24108332.039 5  24108339.102 8                 126690265.664 5  98719626.603 8
                  24108338.37146
  20268531.336 7                                 106511854.287 7  82996257.72649
                  20268536.07049
  23157603.320 5                                 121694028.519 5  94826568.21047
                  23157608.38347
  21936708.125 6                                 115278234.973 6  89827163.50148
                  21936713.21548
  22397840.313 6  22397848.531 9  22397850.609 9 117701441.283 6  91715448.076 9
  87893975.737 9  22397848.28148
  22227440.758 6  22227449.359 9  22227451.109 9 116805978.281 6  91017691.231 9
  87225296.576 9  22227449.34448
  23725948.555 5  23725954.859 8                 124680490.751 5  97153816.556 8
                  23725955.07447
  22967578.242 6  22967586.012 9  22967586.785 9 120695393.123 6  94048396.013 9
  90129717.396 9  22967585.75447
 16 04 20 00 07 55.0000000  0 11G10G12G14G15G18G20G21G24G25G31G32   
  21381706.711 7  21381714.598 9  21381714.836 9 112361655.214 7  87554529.771 9
  83906422.640 9  21381714.71549
  22032316.984 6  22032322.738 9                 115780534.417 6  90218664.855 9
                  22032322.83248
  22963694.109 6                                 120674976.875 6  94032476.87047
                  22963699.67247
  24110060.336 5  24110066.387 8                 126699342.362 5  98726699.340 8
                  24110065.66446
  20267868.938 7                                 106508371.572 7  82993543.91849
                  20267873.44949
  23160333.289 5                                 121708372.586 5  94837745.39647
                  23160338.14547
  21938733.813 6                                 115288880.829 6  89835458.96948
                  21938739.18448
  22400665.086 6  22400674.098 9  22400675.969 9 117716288.704 6  91727017.504 9
  87905063.100 9  22400673.64148
  22224976.836 6  22224986.395 9  22224987.332 9 116793032.963 6  91007603.951 9
  87215629.607 9  22224985.62548
  23722913.672 5  23722920.719 8                 124664546.196 5  97141392.238 8
                  23722920.44947
  22966314.383 6  22966322.184 9  22966323.168 9 120688750.247 6  94043219.744 9
  90124756.804 9  22966322.07847
 16 04 20 00 08 00.0000000  0 11G10G12G14G15G18G20G21G24G25G31G32   
  21379503.398 7  21379510.316 9  21379510.699 9 112350074.022 7  87545505.469 9
  83897774.344 9  21379510.63749
  22031430.344 6  22031435.711 9                 115775874.579 6  90215033.818 9
                  22031435.75448
  22962683.203 6                                 120669664.721 6  94028337.52847
                  22962689.05947
  24111787.844 5  24111793.434 8                 126708418.571 5  98733771.709 8
                  24111793.18846
  20267208.234 7                                 106504899.968 7  82990838.76849
                  20267212.51649
  23163063.727 5                                 121722723.576 5  94848927.98346
                  23163069.03546
  21940761.086 6                                 115299534.931 6  89843760.85848
                  21940766.50448
  22403491.219 6  22403500.250 9  22403502.309 9 117731140.369 6  91738590.207 9
  87916153.613 9  22403499.92648
  22222515.172 6  22222523.836 9  22222525.109 9 116780094.746 6  90997522.234 9
  87205967.962 9  22222523.22748
  23719881.680 6  23719887.828 8                 124648608.542 6  97128973.295 8
                  23719887.46547
  22965049.938 6  22965058.152 9  22965059.113 9 120682107.767 6  94038043.784 9
  90119796.512 9  22965057.96547
 16 04 20 00 08 05.0000000  0 11G10G12G14G15G18G20G21G24G25G31G32   
  21377300.570 7  21377308.336 9  21377308.770 9 112338499.769 7  87536486.563 9
  83889131.227 9  21377308.59049
  22030546.203 6  22030551.906 9                 115771228.745 6  90211413.679 9
                  22030552.33248
  22961672.695 6                                 120664353.441 6  94024198.87047
                  22961678.26247
  24113515.305 5  24113521.008 8                 126717494.758 5  98740844.055 8
                  24113520.82847
  20266549.648 7                                 106501439.886 7  82988142.59449
                  20266554.48849
  23165796.148 5                                 121737081.738 5  94860116.15847
                  23165801.66047
  21942790.555 6                                 115310197.536 6  89852069.37448
                  21942795.59848
  22406318.734 6  22406327.207 9  22406329.324 9 117745996.615 6  91750166.500 9
  87927247.554 9  22406327.17248
  22220054.297 6  22220063.250 9  22220065.125 9 116767163.890 6  90987446.235 9
  87196311.802 9  22220062.83248
  23716850.391 5  23716856.488 8                 124632678.063 5  97116559.947 8
                  23716856.43847
  22963786.406 6  22963794.254 9  22963795.234 9 120675466.072 6  94032868.443 9
  90114836.809 9  22963794.32047
 16 04 20 00 08 10.0000000  0 11G10G12G14G15G18G20G21G24G25G31G32   
  21375099.516 7  21375106.551 9  21375107.004 9 112326932.301 7  87527472.950 9
  83880493.183 9  21375107.05949
  22029664.891 6  22029670.594 9                 115766596.808 6  90207804.377 9
                  22029670.45348
  22960662.055 6                                 120659042.936 6  94020060.80547
                  22960667.84047
  24115242.648 5  24115248.363 8                 126726570.789 5  98747916.287 8
                  24115248.19147
  20265893.523 7                                 106497991.172 7  82985455.28649
                  20265897.74649
  23168529.313 5                                 121751447.060 5  94871309.88047
                  23168535.71147
  21944821.133 6                                 115320868.527 6  89860384.42148
                  21944826.03148
  22409146.586 6  22409154.844 9  22409156.566 9 117760857.202 6  91761746.173 9
  87938344.741 9  22409154.70748
  22217595.242 6  22217604.477 9  22217606.336 9 116754240.344 6  90977375.950 9
  87186661.108 9  22217604.21948
  23713819.734 5  23713826.684 8                 124616754.688 5  97104152.134 8
                  23713826.53547
  22962522.297 6  22962530.359 9  22962531.320 9 120668824.991 6  94027693.574 9
  90109877.562 9  22962530.34847
 16 04 20 00 08 15.0000000  0 11G10G12G14G15G18G20G21G24G25G31G32   
  21372899.445 7  21372906.668 9  21372906.953 9 112315371.581 7  87518464.600 9
  83871860.179 9  21372907.07049
  22028786.414 7  22028791.824 9                 115761978.615 7  90204205.780 9
                  22028792.30548
  22959651.289 6                                 120653733.102 6  94015923.27747
                  22959657.37547
  24116969.234 5  24116975.387 8                 126735646.467 5  98754988.243 8
                  24116975.48447
  20265239.281 7                                 106494553.695 7  82982776.72849
                  20265243.72349
  23171264.320 5                                 121765819.304 5  94882509.02347
                  23171270.93447
  21946853.297 6                                 115331547.778 6  89868705.91148
                  21946858.41448
  22411975.313 6  22411983.145 9  22411985.527 9 117775722.034 6  91773329.152 9
  87949445.098 9  22411983.25848
  22215137.055 6  22215145.957 9  22215148.258 9 116741323.986 6  90967311.254 9
  87177015.767 9  22215146.02348
  23710791.047 5  23710797.520 8                 124600838.344 5  97091749.796 8
                  23710797.30947
  22961258.852 6  22961267.090 9  22961268.078 9 120662184.447 6  94022519.127 9
  90104918.713 9  22961267.34047
 16 04 20 00 08 20.0000000  0 11G10G12G14G15G18G20G21G24G25G31G32   
  21370700.789 8  21370707.945 9  21370708.313 9 112303817.871 8  87509461.709 9
  83863232.409 9  21370708.30949
  22027909.781 6  22027915.223 9                 115757374.440 6  90200618.115 9
                  22027915.63748
  22958641.156 6                                 120648424.202 6  94011786.46447
                  22958647.07447
  24118696.906 5  24118703.051 8                 126744722.190 5  98762060.216 8
                  24118702.93047
  20264587.352 7                                 106491127.777 7  82980107.17149
                  20264591.60549
  23174001.414 5                                 121780198.824 5  94893713.81447
                  23174007.78547
  21948887.227 6                                 115342235.591 6  89877034.06348
                  21948891.88748
  22414804.852 6  22414813.203 9  22414815.332 9 117790591.447 6  91784915.703 9
  87960548.878 9  22414812.71548
  22212680.945 6  22212689.855 9  22212691.879 9 116728415.146 6  90957252.420 9
  87167376.058 9  22212689.87948
  23707763.617 5  23707769.777 8                 124584929.227 5  97079353.095 8
                  23707769.91047
  22959995.617 6  22960003.297 9  22960004.258 9 120655544.687 6  94017345.286 9
  90099960.447 9  22960003.28547
 16 04 20 00 08 25.0000000  0 11G10G12G14G15G18G20G21G24G25G31G32   
  21368503.516 7  21368510.672 9  21368511.207 9 112292271.070 7  87500464.200 9
  83854609.799 9  21368511.26249
  22027036.148 6  22027042.348 9                 115752784.175 6  90197041.286 9
                  22027042.19948
  22957630.953 5                                 120643116.090 5  94007650.28047
                  22957636.50047
  24120423.469 5  24120430.145 8                 126753797.818 5  98769132.126 8
                  24120430.00047
  20263937.938 7                                 106487713.325 7  82977446.56049
                  20263942.16449
  23176738.984 6                                 121794585.462 6  94904924.16647
                  23176745.70347
  21950922.398 6                                 115352931.810 6  89885368.77748
                  21950927.21948
  22417635.797 6  22417644.082 9  22417646.230 9 117805465.281 6  91796505.705 9
  87971655.951 9  22417643.60948
  22210225.375 6  22210234.590 9  22210236.488 9 116715513.621 6  90947199.289 9
  87157741.801 9  22210234.48848
  23704737.461 5  23704744.234 8                 124569027.346 5  97066962.031 8
                  23704744.11747
  22958732.219 6  22958740.379 9  22958741.191 9 120648905.588 6  94012171.961 9
  90095002.683 9  22958740.57047
 16 04 20 00 08 30.0000000  0 11G10G12G14G15G18G20G21G24G25G31G32   
  21366307.492 7  21366315.008 9  21366315.266 9 112280731.373 7  87491472.230 9
  83845992.487 9  21366315.32049
  22026165.367 6  22026171.055 9                 115748208.097 6  90193475.506 9
                  22026171.09448
  22956620.977 6                                 120637809.001 6  94003514.87847
                  22956627.04347
  24122150.055 5  24122157.672 8                 126762873.489 5  98776204.071 8
                  24122157.34847
  20263290.383 7                                 106484310.455 7  82974794.97049
                  20263294.50849
  23179478.195 5                                 121808979.396 5  94916140.20547
                  23179484.35947
  21952959.352 6                                 115363636.591 6  89893710.15648
                  21952964.69148
  22420466.078 6  22420475.293 9  22420477.727 9 117820343.597 6  91808099.203 9
  87982766.381 9  22420475.04748
  22207772.258 6  22207781.309 9  22207782.699 9 116702619.715 6  90937152.088 9
  87148113.237 9  22207780.58248
  23701712.984 5  23701719.570 8                 124553132.848 5  97054576.717 8
                  23701719.05147
  22957468.969 6  22957476.719 9  22957477.602 9 120642267.353 6  94006999.309 9
  90090045.550 9  22957476.57047
 16 04 20 00 08 35.0000000  0 11G10G12G14G15G18G20G21G24G25G31G32   
  21364113.031 7  21364120.195 9  21364120.672 9 112269198.306 7  87482485.424 9
  83837380.135 9  21364120.78549
  22025297.688 6  22025302.918 9                 115743645.604 6  90189920.312 9
                  22025302.85948
  22955611.602 5                                 120632502.413 5  93999379.87847
                  22955616.97347
  24123877.070 5  24123884.434 8                 126771948.704 5  98783275.657 8
                  24123884.51647
  20262644.898 7                                 106480918.733 7  82972152.06349
                  20262648.88749
  23182217.961 5                                 121823380.177 5  94927361.58247
                  23182224.72747
  21954998.289 6                                 115374349.450 6  89902057.82848
                  21955002.97348
  22423299.328 6  22423306.879 9  22423309.352 9 117835226.061 6  91819695.901 9
  87993879.897 9  22423307.32048
  22205320.156 6  22205328.672 9  22205330.590 9 116689732.910 6  90927110.419 9
  87138489.967 9  22205328.47348
  23698689.555 5  23698696.742 8                 124537245.188 5  97042196.728 8
                  23698696.51247
  22956206.273 6  22956214.180 9  22956214.605 9 120635629.479 6  94001826.929 9
  90085088.693 9  22956213.63347
 16 04 20 00 08 40.0000000  0 11G10G12G14G15G18G20G21G24G25G31G32   
  21361919.250 7  21361927.113 9  21361927.324 9 112257672.243 7  87473504.075 9
  83828773.005 9  21361927.37949
  22024431.922 6  22024437.805 9                 115739097.214 6  90186376.112 9
                  22024437.73848
  22954602.141 6                                 120627196.699 6  93995245.55347
                  22954607.24647
  24125603.992 5  24125611.227 8                 126781023.835 5  98790347.166 8
                  24125611.67247
  20262001.477 7                                 106477538.564 7  82969518.16349
                  20262005.74649
  23184959.352 5                                 121837788.099 5  94938588.51047
                  23184965.64547
  21957038.438 6                                 115385070.729 6  89910412.06548
                  21957043.35248
  22426131.828 6  22426139.777 9  22426141.727 9 117850112.949 6  91831296.063 9
  88004996.715 9  22426139.92648
  22202868.984 6  22202877.613 9  22202879.762 9 116676853.625 6  90917074.618 9
  87128872.326 9  22202877.35248
  23695667.836 5  23695674.418 8                 124521364.830 5  97029822.431 8
                  23695674.21547
  22954942.664 6  22954950.934 9  22954951.566 9 120628992.323 6  93996655.122 9
  90080132.375 9  22954950.82847
 16 04 20 00 08 45.0000000  0 11G10G12G14G15G18G20G21G24G25G31G32   
  21359727.586 7  21359734.824 9  21359735.348 9 112246152.980 7  87464528.027 9
  83820170.961 9  21359735.34849
  22023568.766 6  22023574.758 9                 115734562.642 6  90182842.676 9
                  22023574.63348
  22953592.508 6                                 120621891.610 6  93991111.71147
                  22953598.02047
  24127330.336 5  24127337.738 8                 126790098.658 5  98797418.436 8
                  24127338.50847
  20261360.266 7                                 106474169.711 7  82966893.08449
                  20261364.75449
  23187702.336 5                                 121852202.959 5  94949820.86447
                  23187708.54747
  21959079.656 6                                 115395800.205 6  89918772.68748
                  21959085.39548
  22428964.789 6  22428973.297 9  22428975.070 9 117865003.972 6  91842899.450 9
  88016116.633 9  22428972.80148
  22200419.320 6  22200428.309 9  22200430.879 9 116663981.594 6  90907044.466 9
  87119260.101 9  22200428.64548
  23692646.875 5  23692653.609 8                 124505491.408 5  97017453.546 8
                  23692653.45347
  22953679.555 6  22953688.254 9  22953688.586 9 120622355.693 6  93991483.718 9
  90075176.442 9  22953687.90647
 16 04 20 00 08 50.0000000  0 11G10G12G14G15G18G20G21G24G25G31G32   
  21357536.758 7  21357544.078 9  21357544.406 9 112234641.030 7  87455557.670 9
  83811574.373 9  21357544.52349
  22022708.695 6  22022714.387 9                 115730042.358 6  90179320.381 9
                  22022714.32448
  22952583.625 6                                 120616587.636 6  93986978.74747
                  22952588.87147
  24129057.320 5  24129064.402 8                 126799173.679 5  98804489.856 8
                  24129065.30947
  20260721.828 7                                 106470812.662 7  82964277.19349
                  20260725.81649
  23190447.594 6                                 121866625.220 6  94961058.95047
                  23190453.69147
  21961123.500 6                                 115406538.321 6  89927140.04548
                  21961128.50448
  22431799.641 6  22431807.746 9  22431809.727 9 117879899.631 6  91854506.474 9
  88027240.009 9  22431807.51648
  22197971.266 6  22197981.000 9  22197982.566 9 116651117.373 6  90897020.405 9
  87109653.703 9  22197980.32848
  23689627.750 5  23689634.457 8                 124489625.513 5  97005090.520 8
                  23689634.14547
  22952417.258 6  22952425.035 9  22952426.023 9 120615720.030 6  93986313.068 9
  90070221.239 9  22952425.46147
 16 04 20 00 08 55.0000000  0 11G10G12G14G15G18G20G21G24G25G31G32   
  21355347.609 7  21355355.027 9  21355355.266 9 112223135.873 7  87446592.611 9
  83802982.855 9  21355355.37949
  22021851.375 6  22021857.063 9                 115725535.920 6  90175808.864 9
                  22021857.12948
  22951574.094 6                                 120611284.257 6  93982846.23847
                  22951579.55547
  24130784.102 5  24130791.863 8                 126808248.436 5  98811561.078 8
                  24130791.82847
  20260084.953 7                                 106467466.952 7  82961670.14449
                  20260089.29349
  23193193.023 5                                 121881054.418 5  94972302.47147
                  23193199.07447
  21963168.398 6                                 115417284.610 6  89935513.76048
                  21963173.44948
  22434634.633 6  22434643.570 9  22434645.586 9 117894799.507 6  91866116.752 9
  88038366.534 9  22434643.14148
  22195525.172 6  22195533.691 9  22195535.672 9 116638260.437 6  90887002.017 9
  87100052.752 9  22195533.20348
  23686610.398 5  23686616.781 9                 124473766.719 5  96992733.034 9
                  23686616.48047
  22951154.703 6  22951162.328 9  22951163.043 9 120609084.839 6  93981142.791 9
  90065266.391 9  22951162.30547
 16 04 20 00 09 00.0000000  0 11G10G12G14G15G18G20G21G24G25G31G32   
  21353159.344 7  21353166.875 9  21353167.258 9 112211637.901 7  87437633.149 9
  83794396.704 9  21353167.31649
  22020996.641 6  22021002.535 9                 115721043.711 6  90172308.439 9
                  22021002.29748
  22950564.648 6                                 120605981.883 6  93978714.51847
                  22950570.92247
  24132511.180 5  24132518.145 8                 126817323.242 5  98818632.348 8
                  24132518.35946
  20259450.641 7                                 106464132.965 7  82959072.23449
                  20259454.76249
  23195940.695 5                                 121895490.845 5  94983551.61347
                  23195946.89847
  21965214.805 7                                 115428039.408 7  89943894.12048
                  21965220.10948
  22437471.461 6  22437479.227 9  22437481.570 9 117909703.779 6  91877730.455 9
  88049496.335 9  22437479.53548
  22193079.891 6  22193088.961 9  22193090.934 9 116625411.216 6  90876989.629 9
  87090457.552 9  22193088.28948
  23683593.789 5  23683600.141 8                 124457915.325 5  96980381.306 8
                  23683600.09047
  22949891.852 6  22949900.066 9  22949900.516 9 120602450.488 6  93975973.171 9
  90060312.169 9  22949900.07047
 16 04 20 00 09 05.0000000  0 11G10G12G14G15G18G20G21G24G25G31G32   
  21350972.977 8  21350980.305 9  21350980.516 9 112200146.830 8  87428679.064 9
  83785815.708 9  21350980.62949
  22020144.016 7  22020150.160 9                 115716565.376 7  90168818.826 9
                  22020150.02748
  22949555.813 6                                 120600680.116 6  93974583.26647
                  22949561.82047
  24134237.180 5  24134244.277 8                 126826397.828 5  98825703.436 8
                  24134244.26646
  20258818.492 7                                 106460810.351 7  82956483.17949
                  20258822.37949
  23198688.547 5                                 121909934.215 5  94994806.17347
                  23198695.43847
  21967263.313 6                                 115438802.370 6  89952280.83148
                  21967268.30948
  22440308.555 6  22440316.727 9  22440318.715 9 117924612.427 6  91889347.571 9
  88060629.404 9  22440316.85548
  22190636.289 6  22190645.387 9  22190646.996 9 116612569.337 6  90866982.960 9
  87080867.835 9  22190644.76248
  23680578.781 5  23680585.293 8                 124442071.083 5  96968035.157 8
                  23680585.04747
  22948629.414 6  22948637.652 9  22948638.207 9 120595816.699 6  93970803.984 9
  90055358.363 9  22948637.58647
 16 04 20 00 09 10.0000000  0 11G10G12G14G15G18G20G21G24G25G31G32   
  21348787.500 7  21348795.047 9  21348795.488 9 112188662.848 7  87419730.513 9
  83777240.009 9  21348795.48449
  22019294.859 7  22019301.055 9                 115712101.221 7  90165340.265 9
                  22019300.75848
  22948547.438 6                                 120595379.281 6  93970452.74347
                  22948552.84047
  24135964.898 5  24135971.457 8                 126835472.447 5  98832774.557 8
                  24135970.59046
  20258188.289 7                                 106457499.355 7  82953903.17949
                  20258192.28149
  23201439.031 5                                 121924384.743 5  95006066.31447
                  23201444.38347
  21969312.938 7                                 115449573.776 7  89960674.13048
                  21969317.81648
  22443146.102 6  22443154.387 9  22443156.262 9 117939525.450 6  91900968.109 9
  88071765.753 9  22443154.57848
  22188193.391 6  22188202.805 9  22188204.910 9 116599735.095 6  90856982.257 9
  87071283.830 9  22188202.55948
  23677564.711 5  23677571.031 8                 124426234.167 5  96955694.718 8
                  23677571.26647
  22947367.109 6  22947374.977 9  22947375.859 9 120589183.633 6  93965635.360 9
  90050405.101 9  22947375.06347
 16 04 20 00 09 15.0000000  0 11G10G12G14G15G18G20G21G24G25G31G32   
  21346603.734 7  21346610.660 9  21346611.223 9 112177185.540 7  87410787.152 9
  83768669.291 9  21346611.21949
  22018447.711 6  22018453.680 9                 115707650.760 6  90161872.371 9
                  22018453.76248
  22947538.805 6                                 120590078.837 6  93966322.53047
                  22947544.25447
  24137692.008 5  24137698.316 8                 126844546.527 5  98839845.283 8
                  24137697.62146
  20257560.203 7                                 106454199.525 7  82951331.87849
                  20257564.53549
  23204189.836 5                                 121938841.946 5  95017331.64847
                  23204195.13347
  21971364.203 6                                 115460353.172 6  89969073.64748
                  21971368.70748
  22445984.805 6  22445993.074 9  22445994.809 9 117954442.241 6  91912591.580 9
  88082904.900 9  22445992.77748
  22185753.039 6  22185761.734 9  22185764.059 9 116586908.052 6  90846987.162 9
  87061705.194 9  22185761.53148
  23674552.648 5  23674559.297 8                 124410404.167 5  96943359.659 8
                  23674559.09847
  22946104.695 6  22946113.156 9  22946113.820 9 120582550.850 6  93960466.964 9
  90045452.047 9  22946113.14147
 16 04 20 00 09 20.0000000  0 11G10G12G14G15G18G20G21G24G25G31G32   
  21344420.914 7  21344427.934 9  21344428.383 9 112165715.591 7  87401849.531 9
  83760104.068 9  21344428.32049
  22017603.875 7  22017609.703 9                 115703214.658 7  90158415.668 9
                  22017609.67248
  22946530.297 6                                 120584779.471 6  93962193.15247
                  22946536.03947
  24139418.750 5  24139425.078 8                 126853620.807 5  98846916.144 8
                  24139425.27346
  20256934.727 7                                 106450911.508 7  82948769.77949
                  20256939.04349
  23206942.438 5                                 121953306.549 5  95028602.75147
                  23206947.23447
  21973416.977 6                                 115471141.106 6  89977479.82248
                  21973421.68048
  22448824.414 6  22448832.328 9  22448834.117 9 117969363.612 6  91924218.611 9
  88094047.477 9  22448832.25848
  22183313.109 6  22183322.355 9  22183324.496 9 116574088.850 6  90836998.178 9
  87052132.418 9  22183322.14548
  23671541.563 5  23671548.328 8                 124394581.753 5  96931030.513 8
                  23671547.76247
  22944843.039 6  22944851.109 9  22944851.820 9 120575919.024 6  93955299.309 9
  90040499.709 9  22944850.96547
 16 04 20 00 09 25.0000000  0 11G10G12G14G15G18G20G21G24G25G31G32   
  21342239.594 7  21342247.047 9  21342247.363 9 112154252.766 7  87392917.458 9
  83751544.172 9  21342247.30149
  22016762.320 7  22016768.148 9                 115698792.676 7  90154969.967 9
                  22016767.73848
  22945521.836 6                                 120579480.928 6  93958064.40447
                  22945527.46147
  24141145.555 5  24141151.953 8                 126862695.090 5  98853987.000 8
                  24141152.31346
  20256311.164 7                                 106447635.141 7  82946216.76449
                  20256315.35549
  23209696.273 5                                 121967778.292 5  95039879.42847
                  23209701.16047
  21975471.703 6                                 115481937.376 6  89985892.48848
                  21975476.65648
  22451664.539 6  22451672.961 9  22451674.805 9 117984289.371 6  91935849.070 9
  88105193.330 9  22451672.71147
  22180875.281 6  22180884.570 9  22180886.316 9 116561277.279 6  90827015.137 9
  87042565.336 9  22180884.25448
  23668532.313 5  23668538.699 8                 124378766.722 5  96918707.127 8
                  23668538.25847
  22943581.852 6  22943589.477 9  22943590.105 9 120569287.915 6  93950132.202 9
  90035547.906 9  22943589.25047
 16 04 20 00 09 30.0000000  0 11G10G12G14G15G18G20G21G24G25G31G32   
  21340059.492 7  21340067.359 9  21340067.379 9 112142796.991 7  87383990.878 9
  83742989.530 9  21340067.49249
  22015923.578 6  22015929.238 9                 115694384.765 6  90151535.228 9
                  22015929.29348
  22944513.930 6                                 120574183.163 6  93953936.28747
                  22944519.80547
  24142872.320 5  24142878.813 8                 126871769.248 5  98861057.748 8
                  24142879.27346
  20255690.164 7                                 106444370.276 7  82943672.71149
                  20255694.03949
  23212452.203 5                                 121982257.086 5  95051161.61147
                  23212456.64547
  21977527.602 6                                 115492741.862 6  89994311.56848
                  21977532.60248
  22454505.219 6  22454513.695 9  22454515.660 9 117999219.355 6  91947482.814 9
  88116342.347 9  22454513.50848
  22178438.938 6  22178448.035 9  22178449.387 9 116548473.311 6  90817038.015 9
  87033003.930 9  22178447.32848
  23665524.023 6  23665530.207 8                 124362958.944 6  96906389.385 8
                  23665529.97347
  22942319.695 6  22942327.656 9  22942328.539 9 120562657.424 6  93944965.587 9
  90030596.562 9  22942327.56647
 16 04 20 00 09 35.0000000  0 11G10G12G14G15G18G20G21G24G25G31G32   
  21337880.750 7  21337888.207 9  21337888.609 9 112131347.991 7  87375069.575 9
  83734439.951 9  21337888.72349
  22015087.148 7  22015093.234 9                 115689990.649 7  90148111.238 9
                  22015092.98048
  22943505.828 6                                 120568885.868 6  93949808.51747
                  22943511.72747
  24144599.188 5  24144605.957 8                 126880843.019 5  98868128.205 8
                  24144605.58247
  20255070.898 7                                 106441116.697 7  82941137.45349
                  20255075.00449
  23215208.305 5                                 121996742.594 5  95062448.99547
                  23215213.99247
  21979585.000 6                                 115503554.264 6  90002736.79748
                  21979589.84848
  22457347.438 6  22457355.398 9  22457357.340 9 118014153.322 6  91959119.668 9
  88127494.319 9  22457355.36348
  22176003.430 6  22176012.570 9  22176014.223 9 116535676.646 6  90807066.593 9
  87023447.984 9  22176012.39848
  23662517.258 5  23662523.676 8                 124347158.170 5  96894077.111 8
                  23662523.61747
  22941058.125 6  22941065.684 9  22941066.668 9 120556027.284 6  93939799.243 9
  90025645.478 9  22941065.69547
 16 04 20 00 09 40.0000000  0 11G10G12G14G15G18G20G21G24G25G31G32   
  21335703.664 7  21335710.895 9  21335711.133 9 112119906.189 7  87366153.888 9
  83725895.749 9  21335711.07049
  22014253.922 7  22014259.855 9                 115685610.702 7  90144698.289 9
                  22014259.48448
  22942497.984 6                                 120563589.393 6  93945681.39347
                  22942503.27747
  24146325.898 5  24146332.039 8                 126889916.808 5  98875198.695 8
                  24146332.26647
  20254454.008 7                                 106437874.763 7  82938611.26349
                  20254458.21549
  23217965.539 5                                 122011235.266 5  95073741.98347
                  23217971.40647
  21981643.867 6                                 115514374.951 6  90011168.49848
                  21981649.12948
  22460190.039 6  22460198.301 9  22460200.332 9 118029091.598 6  91970759.875 9
  88138649.515 9  22460198.23847
  22173569.891 6  22173579.000 9  22173580.777 9 116522887.671 6  90797101.157 9
  87013897.773 9  22173578.71948
  23659512.055 5  23659518.094 8                 124331364.843 5  96881770.629 8
                  23659518.13347
  22939796.461 6  22939804.531 9  22939805.688 9 120549397.863 6  93934633.452 9
  90020694.935 9  22939804.59847
 16 04 20 00 09 45.0000000  0 11G10G12G14G15G18G20G21G24G25G31G32   
  21333527.555 7  21333535.605 9  21333535.887 9 112108471.649 7  87357243.861 9
  83717356.967 9  21333535.94149
  22013423.055 7  22013428.734 9                 115681244.996 7  90141296.442 9
                  22013428.40248
  22941490.031 6                                 120558293.897 6  93941555.03547
                  22941496.11747
  24148052.719 5  24148059.004 8                 126898990.662 5  98882269.220 8
                  24148059.07047
  20253838.938 7                                 106434644.567 7  82936094.22349
                  20253843.08649
  23220725.031 5                                 122025735.084 5  95085040.51247
                  23220731.19147
  21983704.844 6                                 115525203.998 6  90019606.70248
                  21983709.90648
  22463033.406 6  22463041.773 9  22463043.852 9 118044034.184 6  91982403.447 9
  88149807.939 9  22463041.75847
  22171137.914 6  22171147.070 9  22171149.289 9 116510106.515 6  90787141.819 9
  87004353.404 9  22171146.99248
  23656507.844 5  23656514.402 8                 124315578.975 5  96869469.968 8
                  23656514.26247
  22938535.633 6  22938543.238 9  22938544.113 9 120542769.267 6  93929468.307 9
  90015745.006 9  22938543.02347
 16 04 20 00 09 50.0000000  0 11G10G12G14G15G18G20G21G24G25G31G32   
  21331353.109 7  21331360.645 9  21331361.000 9 112097043.915 7  87348339.129 9
  83708823.269 9  21331361.11349
  22012595.078 7  22012600.918 9                 115676893.115 7  90137905.362 9
                  22012600.74648
  22940482.539 6                                 120552998.786 6  93937428.97747
                  22940488.11747
  24149779.383 5  24149785.926 8                 126908064.086 5  98889339.416 8
                  24149786.11347
  20253226.148 7                                 106431425.656 7  82933585.98149
                  20253231.03949
  23223485.383 5                                 122040241.645 5  95096344.31247
                  23223491.62547
  21985766.742 6                                 115536040.948 6  90028051.07148
                  21985772.58648
  22465877.992 6  22465885.895 9  22465887.914 9 118058980.727 6  91994050.089 9
  88160969.308 9  22465885.82047
  22168707.320 6  22168716.520 9  22168718.277 9 116497332.695 6  90777188.192 9
  86994814.515 9  22168715.92648
  23653505.406 5  23653511.801 8                 124299800.109 5  96857174.755 8
                  23653511.71947
  22937273.836 6  22937282.133 9  22937283.043 9 120536140.963 6  93924303.397 9
  90010795.295 9  22937282.07048
 16 04 20 00 09 55.0000000  0 11G10G12G14G15G18G20G21G24G25G31G32   
  21329180.133 7  21329187.445 9  21329187.617 9 112085623.496 7  87339440.104 9
  83700295.036 9  21329187.55549
  22011769.156 7  22011775.180 9                 115672555.559 7  90134525.443 9
                  22011775.09048
  22939475.266 6                                 120547704.610 6  93933303.64647
                  22939481.16447
  24151505.641 5  24151512.809 8                 126917137.701 5  98896409.755 8
                  24151512.68047
  20252616.156 7                                 106428218.554 7  82931086.93649
                  20252620.52049
  23226247.945 5                                 122054755.356 5  95107653.67447
                  23226253.56647
  21987830.789 6                                 115546886.260 6  90036501.94648
                  21987836.12948
  22468722.438 6  22468730.828 9  22468733.070 9 118073931.680 6  92005700.175 9
  88172133.980 9  22468730.98048
  22166277.922 6  22166287.168 9  22166288.805 9 116484566.741 6  90767240.698 9
  86985281.499 9  22166286.74648
  23650504.281 5  23650510.289 8                 124284028.755 5  96844885.401 8
                  23650510.03947
  22936012.789 6  22936020.652 9  22936021.672 9 120529513.494 6  93919139.125 9
  90005846.208 9  22936020.64147
                            4  8
RINEX FILE SPLICE                                           COMMENT             
R3Converter 1.23    SMO                 20160524 143622 UTC COMMENT             
----------------------------------------------------------- COMMENT             
CARRIER PHASE MEASUREMENTS: PHASE SHIFTS REMOVED            COMMENT             
----------------------------------------------------------- COMMENT             
cnvtToRINEX 2.30.0  SMO                 24-May-16 13:17 UTC COMMENT             
Forced Modulo Decimation to 5 seconds                       COMMENT             
----------------------------------------------------------- COMMENT             
 16 04 20 00 10 00.0000000  0 11G10G12G14G15G18G20G21G24G25G31G32   
  21327008.063 7  21327015.543 9  21327015.867 9 112074210.628 7  87330546.958 9
  83691772.434 9  21327015.80549
  22010946.375 7  22010952.391 9                 115668232.507 7  90131156.831 9
                  22010952.15648
  22938467.695 6                                 120542411.585 6  93929179.20147
                  22938473.66447
  24153232.234 5  24153239.480 8                 126926211.606 5  98903480.306 8
                  24153239.87947
  20252008.063 7                                 106425023.456 7  82928597.24749
                  20252012.45349
  23229011.266 5                                 122069276.461 5  95118968.81047
                  23229016.81347
  21989896.305 6                                 115557740.142 6  90044959.51648
                  21989901.70748
  22471568.664 6  22471577.344 9  22471579.008 9 118088887.234 6  92017353.862 9
  88183302.071 9  22471577.03147
  22163850.016 6  22163859.301 9  22163861.008 9 116471808.824 6  90757299.459 9
  86975754.483 9  22163858.83248
  23647504.227 5  23647510.676 9                 124268265.111 5  96832602.055 9
                  23647510.56347
  22934751.344 6  22934759.191 9  22934760.152 9 120522887.040 6  93913975.653 9
  90000897.879 9  22934759.23847
 16 04 20 00 10 05.0000000  0 11G10G12G14G15G18G20G21G24G25G31G32   
  21324837.414 7  21324845.141 9  21324845.238 9 112062804.260 7  87321658.878 9
  83683254.693 9  21324845.46949
  22010126.742 7  22010132.559 9                 115663923.020 7  90127798.793 9
                  22010132.39148
  22937460.477 6                                 120537118.666 6  93925054.84947
                  22937466.00047
  24154958.656 5  24154966.238 8                 126935284.808 5  98910550.331 8
                  24154966.70746
  20251402.484 7                                 106421839.314 7  82926116.09449
                  20251406.77749
  23231775.727 6                                 122083803.977 6  95130288.93347
                  23231781.14147
  21991962.984 7                                 115568601.538 7  90053422.93348
                  21991968.34848
  22474415.531 6  22474423.641 9  22474425.555 9 118103846.371 6  92029010.321 9
  88194472.858 9  22474423.46147
  22161423.727 6  22161431.965 9  22161434.309 9 116459058.013 6  90747363.770 9
  86966232.777 9  22161432.36748
  23644505.961 5  23644511.910 8                 124252508.241 5  96820323.986 8
                  23644512.40647
  22933490.258 6  22933498.438 9  22933499.406 9 120516260.552 6  93908812.161 9
  89995949.529 9  22933498.25847
 16 04 20 00 10 10.0000000  0 11G10G12G14G15G18G20G21G24G25G31G32   
  21322668.297 7  21322675.996 9  21322676.293 9 112051405.350 7  87312776.611 9
  83674742.519 9  21322676.28949
  22009309.477 6  22009315.148 9                 115659627.958 6  90124451.993 9
                  22009315.12148
  22936453.570 6                                 120531826.726 6  93920931.26247
                  22936459.39847
  24156684.688 5  24156691.777 8                 126944358.176 5  98917620.469 8
                  24156692.33647
  20250798.555 7                                 106418667.072 7  82923644.21349
                  20250802.90649
  23234541.266 6                                 122098338.751 6  95141614.73647
                  23234548.02747
  21994031.484 7                                 115579471.346 7  90061892.89648
                  21994036.12548
  22477263.352 6  22477271.816 9  22477273.676 9 118118809.810 6  92040670.151 9
  88205646.845 9  22477271.41048
  22158998.891 6  22159008.430 9  22159010.125 9 116446315.164 6  90737434.277 9
  86956717.014 9  22159008.00848
  23641509.125 5  23641515.316 8                 124236758.972 5  96808051.847 8
                  23641515.55547
  22932229.750 6  22932237.938 9  22932238.520 9 120509634.996 6  93903649.387 9
  89991001.872 9  22932237.43047
 16 04 20 00 10 15.0000000  0 11G10G12G14G15G18G20G21G24G25G31G32   
  21320500.594 7  21320507.813 9  21320508.188 9 112040013.512 7  87303899.854 9
  83666235.626 9  21320508.12949
  22008494.586 7  22008500.406 9                 115655346.922 7  90121116.120 9
                  22008500.23448
  22935446.688 6                                 120526535.422 6  93916808.16047
                  22935452.09847
  24158412.258 5  24158418.891 8                 126953431.396 5  98924690.498 8
                  24158419.40246
  20250197.109 7                                 106415506.333 7  82921181.29949
                  20250201.63349
  23237308.164 5                                 122112880.362 5  95152945.83347
                  23237315.07047
  21996101.945 6                                 115590349.177 6  90070369.12048
                  21996106.93448
  22480111.094 6  22480119.047 9  22480121.828 9 118133777.257 6  92052333.067 9
  88216823.834 9  22480119.67647
  22156575.633 6  22156584.570 9  22156586.637 9 116433579.953 6  90727510.741 9
  86947206.957 9  22156584.52048
  23638512.914 5  23638519.520 8                 124221016.991 5  96795785.378 8
                  23638518.94147
  22930969.055 6  22930977.496 9  22930978.254 9 120503009.931 6  93898487.002 9
  89986054.582 9  22930977.16447
 16 04 20 00 10 20.0000000  0 11G10G12G14G15G18G20G21G24G25G31G32   
  21318334.141 7  21318341.316 9  21318341.398 9 112028628.714 7  87295028.580 9
  83657733.988 9  21318341.51249
  22007682.805 7  22007688.500 9                 115651079.971 7  90117791.219 9
                  22007688.30148
  22934439.766 6                                 120521244.751 6  93912685.56347
                  22934445.48847
  24160138.492 5  24160145.770 8                 126962504.381 5  98931760.332 8
                  24160145.89546
  20249597.789 7                                 106412357.121 7  82918727.36949
                  20249602.35549
  23240076.602 5                                 122127428.856 5  95164282.29747
                  23240084.17247
  21998172.945 6                                 115601235.003 6  90078851.57348
                  21998179.00048
  22482960.148 6  22482968.379 9  22482970.848 9 118148748.735 6  92063999.158 9
  88228003.818 9  22482968.64148
  22154153.602 6  22154162.570 9  22154164.824 9 116420852.335 6  90717593.121 9
  86937702.567 9  22154162.05948
  23635518.922 5  23635525.863 8                 124205282.273 5  96783524.577 8
                  23635525.28547
  22929708.422 6  22929716.750 9  22929717.297 9 120496385.364 6  93893325.007 9
  89981107.667 9  22929716.55947
 16 04 20 00 10 25.0000000  0 11G10G12G14G15G18G20G21G24G25G31G32   
  21316168.938 7  21316176.359 9  21316176.574 9 112017251.009 7  87286162.831 9
  83649237.651 9  21316176.80549
  22006873.273 6  22006879.281 9                 115646827.089 6  90114477.286 9
                  22006879.23448
  22933433.391 6                                 120515954.664 6  93908563.40347
                  22933438.81647
  24161864.414 5  24161871.656 8                 126971577.214 5  98938830.055 8
                  24161872.15646
  20249000.688 7                                 106409219.441 7  82916282.41549
                  20249005.46549
  23242846.203 5                                 122141984.201 5  95175624.08747
                  23242853.92647
  22000246.672 7                                 115612128.807 7  90087340.24348
                  22000251.32848
  22485810.313 6  22485818.102 9  22485819.852 9 118163724.244 6  92075668.373 9
  88239186.827 9  22485817.64547
  22151732.727 6  22151741.605 9  22151743.902 9 116408132.371 6  90707681.461 9
  86928203.898 9  22151741.31648
  23632526.492 5  23632532.531 8                 124189554.816 5  96771269.421 8
                  23632532.28147
  22928447.859 6  22928455.902 9  22928456.586 9 120489761.283 6  93888163.380 9
  89976161.107 9  22928455.84847
 16 04 20 00 10 30.0000000  0 11G10G12G14G15G18G20G21G24G25G31G32   
  21314005.211 7  21314012.461 9  21314012.793 9 112005880.806 7  87277302.935 9
  83640746.911 9  21314012.84849
  22006066.898 7  22006072.406 9                 115642588.639 7  90111174.606 9
                  22006072.65648
  22932426.727 6                                 120510665.630 6  93904442.08147
                  22932432.53147
  24163591.594 5  24163598.543 8                 126980650.298 5  98945899.978 8
                  24163598.34446
  20248405.852 7                                 106406093.690 7  82913846.76449
                  20248410.29749
  23245618.086 5                                 122156546.742 5  95186971.50647
                  23245625.20747
  22002321.164 7                                 115623030.985 7  90095835.43148
                  22002326.17248
  22488660.492 6  22488668.590 9  22488670.676 9 118178704.111 6  92087341.015 9
  88250373.085 9  22488668.35248
  22149313.906 6  22149322.930 9  22149324.914 9 116395420.463 6  90697776.067 9
  86918711.233 9  22149322.56348
  23629535.133 5  23629540.777 8                 124173834.984 5  96759020.220 8
                  23629540.98847
  22927187.773 6  22927195.258 9  22927196.281 9 120483138.108 6  93883002.461 9
  89971215.230 9  22927195.48447
 16 04 20 00 10 35.0000000  0 11G10G12G14G15G18G20G21G24G25G31G32   
  21311842.938 7  21311850.570 9  21311850.590 9 111994517.631 7  87268448.507 9
  83632261.420 9  21311850.93849
  22005263.086 7  22005269.207 9                 115638364.241 7  90107882.868 9
                  22005268.97748
  22931420.953 6                                 120505377.105 6  93900321.14947
                  22931426.09447
  24165318.023 5  24165324.523 8                 126989723.056 5  98952969.664 8
                  24165324.23846
  20247813.219 7                                 106402979.400 7  82911420.04349
                  20247817.73449
  23248390.781 5                                 122171116.029 5  95198324.17847
                  23248397.52347
  22004396.867 6                                 115633941.057 6  90104336.77948
                  22004402.47348
  22491511.797 6  22491520.344 9  22491522.590 9 118193688.012 6  92099016.764 9
  88261562.349 9  22491520.20347
  22146896.383 6  22146905.234 9  22146907.262 9 116382716.127 6  90687876.586 9
  86909224.230 9  22146905.14548
  23626544.219 5  23626550.871 8                 124158122.411 5  96746776.667 8
                  23626550.94947
  22925927.555 6  22925935.410 9  22925936.098 9 120476515.337 6  93877841.860 9
  89966269.644 9  22925935.12547
 16 04 20 00 10 40.0000000  0 11G10G12G14G15G18G20G21G24G25G31G32   
  21309681.859 7  21309689.059 9  21309689.410 9 111983161.661 7  87259599.697 9
  83623781.309 9  21309689.58249
  22004461.719 6  22004467.703 9                 115634153.996 6  90104602.148 9
                  22004467.55548
  22930414.016 6                                 120500089.306 6  93896200.78147
                  22930419.36347
  24167045.109 5  24167051.266 8                 126998795.770 5  98960039.308 8
                  24167050.94146
  20247222.914 7                                 106399876.881 7  82909002.49449
                  20247227.18449
  23251164.594 5                                 122185692.308 5  95209682.30447
                  23251170.46547
  22006474.828 6                                 115644859.192 6  90112844.40248
                  22006479.99248
  22494363.539 6  22494371.965 9  22494374.707 9 118208675.938 6  92110695.662 9
  88272754.636 9  22494372.02747
  22144480.344 6  22144489.703 9  22144491.676 9 116370019.615 6  90677983.200 9
  86899743.071 9  22144489.32448
  23623556.086 5  23623562.977 8                 124142417.210 5  96734538.864 8
                  23623562.52047
  22924667.148 6  22924674.965 9  22924675.637 9 120469893.181 6  93872681.733 9
  89961324.527 9  22924674.60547
 16 04 20 00 10 45.0000000  0 11G10G12G14G15G18G20G21G24G25G31G32   
  21307522.398 7  21307529.695 9  21307529.992 9 111971813.233 7  87250756.766 9
  83615306.837 9  21307530.16449
  22003663.555 7  22003669.453 9                 115629958.256 7  90101332.736 9
                  22003669.11748
  22929408.008 6                                 120494802.499 6  93892081.19447
                  22929413.93047
  24168771.820 5  24168777.844 8                 127007868.700 5  98967109.133 8
                  24168777.77746
  20246634.844 7                                 106396786.285 7  82906594.23249
                  20246639.27749
  23253939.938 6                                 122200275.794 6  95221046.06447
                  23253944.83247
  22008554.086 6                                 115655785.649 6  90121358.51448
                  22008559.11748
  22497216.688 6  22497224.895 9  22497227.629 9 118223668.258 6  92122377.981 9
  88283950.183 9  22497225.18448
  22142065.688 6  22142074.742 9  22142076.961 9 116357331.167 6  90668096.106 9
  86890267.932 9  22142074.78548
  23620569.086 5  23620575.453 8                 124126719.644 5  96722307.006 8
                  23620575.39847
  22923407.773 6  22923415.406 9  22923415.938 9 120463271.880 6  93867522.274 9
  89956380.043 9  22923415.02347
 16 04 20 00 10 50.0000000  0 11G10G12G14G15G18G20G21G24G25G31G32   
  21305364.180 7  21305371.629 9  21305371.898 9 111960471.839 7  87241919.320 9
  83606837.612 9  21305372.01649
  22002867.977 7  22002873.488 9                 115625776.515 7  90098074.237 9
                  22002873.23448
  22928401.945 6                                 120489516.182 6  93887961.98647
                  22928408.09447
  24170498.203 5  24170503.891 8                 127016941.369 5  98974178.727 8
                  24170504.11746
  20246048.883 7                                 106393707.163 7  82904194.91749
                  20246053.25849
  23256715.742 6                                 122214866.019 6  95232415.07147
                  23256721.48447
  22010634.914 7                                 115666719.930 7  90129878.72248
                  22010639.80148
  22500070.055 6  22500078.910 9  22500080.883 9 118238664.340 6  92134063.233 9
  88295148.552 9  22500078.55547
  22139652.563 6  22139661.508 9  22139663.832 9 116344650.350 6  90658214.960 9
  86880798.496 9  22139661.65648
  23617583.672 5  23617589.758 8                 124111029.324 5  96710080.794 8
                  23617589.34847
  22922147.523 6  22922156.063 9  22922156.688 9 120456650.952 6  93862363.108 9
  89951435.842 9  22922155.65647
 16 04 20 00 10 55.0000000  0 11G10G12G14G15G18G20G21G24G25G31G32   
  21303207.711 7  21303214.578 9  21303215.000 9 111949137.755 7  87233087.562 9
  83598373.845 9  21303215.05549
  22002074.891 7  22002080.559 9                 115621609.027 7  90094826.845 9
                  22002080.42248
  22927396.383 6                                 120484230.581 6  93883843.33147
                  22927401.78147
  24172224.781 5  24172230.422 8                 127026014.013 5  98981248.317 8
                  24172230.34847
  20245465.203 7                                 106390639.728 7  82901804.70449
                  20245469.62549
  23259493.617 5                                 122229463.172 5  95243789.44946
                  23259498.48846
  22012716.891 7                                 115677662.260 7  90138405.20648
                  22012722.01648
  22502924.805 6  22502933.324 9  22502935.266 9 118253664.442 6  92145751.630 9
  88306349.921 9  22502933.23047
  22137241.469 6  22137249.988 9  22137251.922 9 116331977.420 6  90648339.936 9
  86871334.950 9  22137249.51248
  23614598.438 5  23614605.520 8                 124095346.477 5  96697860.409 8
                  23614604.73047
  22920887.445 6  22920895.625 9  22920896.277 9 120450030.679 6  93857204.454 9
  89946492.128 9  22920895.30547
 16 04 20 00 11 00.0000000  0 11G10G12G14G15G18G20G21G24G25G31G32   
  21301052.141 7  21301059.207 9  21301059.547 9 111937810.735 7  87224261.316 9
  83589915.355 9  21301059.66049
  22001284.352 7  22001289.961 9                 115617455.574 7  90091590.389 9
                  22001289.83648
  22926390.641 6                                 120478945.495 6  93879725.08147
                  22926396.60247
  24173951.469 6  24173957.164 8                 127035086.381 6  98988317.700 8
                  24173956.95747
  20244883.813 7                                 106387583.817 7  82899423.47449
                  20244888.32449
  23262272.641 5                                 122244067.064 5  95255169.10147
                  23262277.83247
  22014800.930 6                                 115688612.395 6  90146937.76848
                  22014806.22748
  22505780.219 6  22505788.133 9  22505789.957 9 118268668.330 6  92157442.963 9
  88317554.114 9  22505787.98048
  22134831.078 6  22134840.016 9  22134842.070 9 116319312.131 6  90638470.882 9
  86861877.097 9  22134839.95348
  23611616.219 5  23611622.574 8                 124079670.825 5  96685645.628 8
                  23611621.99247
  22919627.539 6  22919635.652 9  22919636.656 9 120443410.762 6  93852046.070 9
  89941548.680 9  22919635.62547
 16 04 20 00 11 05.0000000  0 11G10G12G14G15G18G20G21G24G25G31G32   
  21298898.070 7  21298905.801 9  21298905.992 9 111926491.305 7  87215440.981 9
  83581462.534 9  21298906.16849
  22000496.719 7  22000502.102 9                 115613316.678 7  90088365.271 9
                  22000501.98448
  22925385.000 6                                 120473661.377 6  93875607.59147
                  22925390.80547
  24175677.984 5  24175683.598 8                 127044158.957 5  98995387.248 8
                  24175683.59847
  20244304.305 7                                 106384539.980 7  82897051.65049
                  20244309.02349
  23265053.148 5                                 122258678.183 5  95266554.36247
                  23265059.12947
  22016886.016 6                                 115699570.868 6  90155476.83148
                  22016890.93048
  22508636.070 6  22508644.352 9  22508646.359 9 118283676.523 6  92169137.649 9
  88328761.526 9  22508643.97348
  22132422.328 6  22132431.469 9  22132432.996 9 116306655.034 6  90628608.201 9
  86852425.367 9  22132431.17248
  23608634.969 5  23608640.691 8                 124064002.946 5  96673436.907 8
                  23608640.66447
  22918367.898 6  22918376.371 9  22918377.020 9 120436791.744 6  93846888.388 9
  89936605.901 9  22918375.93047
 16 04 20 00 11 10.0000000  0 11G10G12G14G15G18G20G21G24G25G31G32   
  21296745.336 7  21296752.977 9  21296753.102 9 111915178.992 7  87206626.186 9
  83573015.024 9  21296753.15649
  21999711.711 7  21999718.035 9                 115609191.877 7  90085151.138 9
                  21999717.65248
  22924379.398 6                                 120468377.760 6  93871490.48147
                  22924385.32847
  24177403.719 5  24177409.836 8                 127053231.351 5  99002456.645 8
                  24177410.07846
  20243727.766 7                                 106381507.724 7  82894688.85149
                  20243731.94549
  23267834.656 5                                 122273296.035 5  95277944.88347
                  23267840.65247
  22018972.625 6                                 115710537.112 6  90164021.94548
                  22018978.00048
  22511492.250 6  22511501.141 9  22511503.516 9 118298688.705 6  92180835.436 9
  88339971.913 9  22511501.12947
  22130015.703 7  22130024.219 9  22130026.199 9 116294005.612 7  90618751.511 9
  86842979.370 9  22130024.14148
  23605654.422 5  23605660.926 8                 124048342.341 5  96661233.848 8
                  23605660.78147
  22917108.453 6  22917117.031 9  22917117.922 9 120430173.138 6  93841731.031 9
  89931663.438 9  22917116.83247
 16 04 20 00 11 15.0000000  0 11G10G12G14G15G18G20G21G24G25G31G32   
  21294594.125 7  21294601.637 9  21294601.852 9 111903874.137 7  87197817.208 9
  83564573.087 9  21294601.90649
  21998929.625 7  21998934.902 9                 115605081.483 7  90081948.240 9
                  21998935.07848
  22923374.391 6                                 120463094.907 6  93867373.96847
                  22923379.98447
  24179129.695 5  24179135.957 8                 127062303.797 5  99009526.062 8
                  24179136.41447
  20243152.867 7                                 106378487.277 7  82892335.25149
                  20243157.03549
  23270618.289 5                                 122287920.928 5  95289340.89947
                  23270623.80147
  22021061.023 6                                 115721511.463 6  90172573.38348
                  22021066.39548
  22514349.953 6  22514358.461 9  22514360.445 9 118313704.977 6  92192536.426 9
  88351185.355 9  22514358.58647
  22127609.992 6  22127619.020 9  22127621.055 9 116281364.259 6  90608901.110 9
  86833539.396 9  22127618.99648
  23602675.594 5  23602682.188 8                 124032689.357 5  96649036.732 8
                  23602681.90247
  22915849.219 6  22915857.398 9  22915858.453 9 120423555.235 6  93836574.224 9
  89926721.497 9  22915857.18847
 16 04 20 00 11 20.0000000  0 11G10G12G14G15G18G20G21G24G25G31G32   
  21292444.336 8  21292451.602 9  21292452.074 9 111892576.495 8  87189013.850 9
  83556136.538 9  21292452.12949
  21998150.008 7  21998156.324 9                 115600985.272 7  90078756.384 9
                  21998156.01248
  22922369.422 6                                 120457812.653 6  93863257.92647
                  22922374.72347
  24180855.703 5  24180862.980 8                 127071376.087 5  99016595.369 8
                  24180863.48046
  20242580.141 7                                 106375478.439 7  82889990.70049
                  20242584.43849
  23273402.148 5                                 122302552.623 5  95300742.18647
                  23273408.17247
  22023150.852 6                                 115732493.677 6  90181130.94348
                  22023156.12548
  22517208.500 6  22517216.758 9  22517218.262 9 118328725.180 6  92204240.473 9
  88362401.719 9  22517216.16847
  22125205.695 6  22125214.523 9  22125216.813 9 116268730.718 6  90599056.791 9
  86824105.253 9  22125214.69548
  23599698.125 5  23599705.387 8                 124017043.700 5  96636845.323 8
                  23599704.73047
  22914590.438 6  22914598.234 9  22914599.211 9 120416937.800 6  93831417.781 9
  89921779.905 9  22914598.18047
 16 04 20 00 11 25.0000000  0 11G10G12G14G15G18G20G21G24G25G31G32   
  21290295.734 7  21290303.184 9  21290303.484 9 111881286.326 7  87180216.317 9
  83547705.562 9  21290303.65649
  21997373.195 7  21997379.469 9                 115596903.482 7  90075575.761 9
                  21997379.21948
  22921364.219 6                                 120452531.217 6  93859142.51747
                  22921369.96547
  24182582.703 5  24182589.504 8                 127080448.565 5  99023664.806 8
                  24182589.21546
  20242009.875 7                                 106372481.428 7  82887655.36549
                  20242014.25849
  23276187.328 5                                 122317191.332 5  95312148.96946
                  23276193.73046
  22025242.352 6                                 115743483.981 6  90189694.81048
                  22025247.62148
  22520067.523 6  22520076.031 9  22520077.926 9 118343749.549 6  92215947.772 9
  88373621.222 9  22520076.00847
  22122803.219 7  22122812.348 9  22122814.250 9 116256105.214 7  90589218.729 9
  86814677.120 9  22122811.95748
  23596722.750 5  23596728.879 8                 124001405.620 5  96624659.815 8
                  23596728.76647
  22913331.336 6  22913338.902 9  22913340.172 9 120410321.082 6  93826261.896 9
  89916838.850 9  22913339.19947
 16 04 20 00 11 30.0000000  0 11G10G12G14G15G18G20G21G24G25G31G32   
  21288148.477 7  21288156.043 9  21288156.391 9 111870003.350 7  87171424.384 9
  83539279.965 9  21288156.44549
  21996599.398 7  21996604.793 9                 115592835.847 7  90072406.184 9
                  21996604.75048
  22920359.180 6                                 120447250.326 6  93855027.53047
                  22920364.87547
  24184308.617 5  24184316.461 8                 127089520.761 5  99030734.049 8
                  24184316.01246
  20241441.750 7                                 106369495.981 7  82885329.03549
                  20241446.15649
  23278974.070 5                                 122331836.799 5  95323561.00046
                  23278980.24246
  22027335.578 6                                 115754482.042 6  90198264.71648
                  22027340.44948
  22522927.117 6  22522935.582 9  22522937.781 9 118358777.777 6  92227658.075 9
  88384843.593 9  22522935.80547
  22120402.063 6  22120410.895 9  22120412.926 9 116243487.507 6  90579386.752 9
  86805254.811 9  22120410.92248
  23593747.898 5  23593754.590 8                 123985774.896 5  96612480.047 8
                  23593754.40647
  22912071.992 6  22912079.879 9  22912081.059 9 120403704.779 6  93821106.336 9
  89911898.100 9  22912080.08647
 16 04 20 00 11 35.0000000  0 11G10G12G14G15G18G20G21G24G25G31G32   
  21286003.383 7  21286010.441 9  21286010.730 9 111858727.740 7  87162638.196 9
  83530859.866 9  21286010.84449
  21995828.023 7  21995833.902 9                 115588782.541 7  90069247.757 9
                  21995833.70748
  22919354.570 6                                 120441970.135 6  93850913.10247
                  22919359.94947
  24186035.148 5  24186042.156 8                 127098592.954 5  99037803.275 8
                  24186042.51646
  20240876.156 7                                 106366522.325 7  82883011.90449
                  20240880.10249
  23281762.656 5                                 122346489.138 5  95334978.38947
                  23281768.00847
  22029429.656 6                                 115765488.075 6  90206840.83848
                  22029434.77348
  22525788.016 6  22525796.352 9  22525798.480 9 118373809.953 6  92239371.439 9
  88396068.907 9  22525796.27047
  22118002.641 6  22118011.566 9  22118013.258 9 116230877.806 6  90569561.009 9
  86795838.474 9  22118011.43448
  23590774.953 5  23590781.395 8                 123970151.628 5  96600306.079 8
                  23590781.37547
  22910812.922 6  22910821.043 9  22910821.977 9 120397089.062 6  93815951.233 9
  89906957.793 9  22910821.00447
 16 04 20 00 11 40.0000000  0 11G10G12G14G15G18G20G21G24G25G31G32   
  21283858.813 7  21283866.188 9  21283866.684 9 111847459.615 7  87153857.841 9
  83522445.357 9  21283866.73849
  21995059.313 7  21995065.352 9                 115584743.651 7  90066100.578 9
                  21995065.20748
  22918349.805 6                                 120436690.691 6  93846799.23647
                  22918355.44547
  24187761.898 5  24187768.848 8                 127107665.267 5  99044872.576 8
                  24187769.05547
  20240312.555 7                                 106363560.554 7  82880704.02349
                  20240316.89849
  23284552.555 5                                 122361148.443 5  95346401.21647
                  23284558.09047
  22031525.328 6                                 115776502.115 6  90215423.19648
                  22031530.52048
  22528648.805 6  22528657.879 9  22528659.707 9 118388846.077 6  92251087.900 9
  88407297.172 9  22528657.43848
  22115604.539 6  22115613.723 9  22115615.219 9 116218276.194 6  90559741.573 9
  86786428.178 9  22115613.51248
  23587803.211 5  23587810.191 8                 123954535.961 5  96588138.041 8
                  23587810.05147
  22909554.203 6  22909562.133 9  22909563.012 9 120390474.022 6  93810796.655 9
  89902017.990 9  22909562.09847
 16 04 20 00 11 45.0000000  0 11G10G12G14G15G18G20G21G24G25G31G32   
  21281715.758 7  21281723.012 9  21281723.207 9 111836198.723 7  87145083.114 9
  83514036.245 9  21281723.32049
  21994293.672 7  21994299.277 9                 115580718.951 7  90062964.445 9
                  21994299.25448
  22917345.086 6                                 120431411.737 6  93842685.77147
                  22917350.14847
  24189488.109 5  24189495.137 8                 127116737.369 5  99051941.738 8
                  24189495.33647
  20239750.914 7                                 106360610.386 7  82878405.18649
                  20239755.23449
  23287343.266 5                                 122375814.469 5  95357829.26446
                  23287349.73846
  22033622.414 6                                 115787523.874 6  90224011.57048
                  22033628.27048
  22531510.906 6  22531519.160 9  22531521.074 9 118403885.976 6  92262807.294 9
  88418528.260 9  22531519.15647
  22113208.336 6  22113217.250 9  22113219.293 9 116205682.388 6  90549928.220 9
  86777023.703 9  22113217.29348
  23584833.414 5  23584839.703 8                 123938927.698 5  96575975.768 8
                  23584839.59847
  22908295.680 6  22908303.684 9  22908304.512 9 120383859.407 6  93805642.408 9
  89897078.504 9  22908303.48047
 16 04 20 00 11 50.0000000  0 11G10G12G14G15G18G20G21G24G25G31G32   
  21279574.375 7  21279581.988 9  21279582.164 9 111824945.111 7  87136314.068 9
  83505632.575 9  21279582.21949
  21993530.297 7  21993535.859 9                 115576708.474 7  90059839.397 9
                  21993535.67248
  22916340.805 6                                 120426133.398 6  93838572.76847
                  22916346.58647
  24191214.977 5  24191221.727 8                 127125809.359 5  99059010.810 8
                  24191221.68847
  20239191.570 7                                 106357671.886 7  82876115.44449
                  20239195.85949
  23290136.406 5                                 122390487.202 5  95369262.54047
                  23290142.32847
  22035721.484 6                                 115798553.447 6  90232606.02748
                  22035727.08648
  22534374.164 6  22534382.188 9  22534384.527 9 118418929.702 6  92274529.673 9
  88429762.208 9  22534382.55147
  22110812.953 6  22110821.461 9  22110823.844 9 116193096.497 6  90540121.031 9
  86767625.147 9  22110821.49248
  23581864.352 5  23581871.195 8                 123923326.829 5  96563819.249 8
                  23581870.97747
  22907036.844 6  22907044.363 9  22907045.711 9 120377245.213 6  93800488.489 9
  89892139.333 9  22907044.62147
 16 04 20 00 11 55.0000000  0 11G10G12G14G15G18G20G21G24G25G31G32   
  21277434.500 7  21277441.965 9  21277442.078 9 111813699.077 7  87127550.924 9
  83497234.563 9  21277442.19149
  21992769.992 7  21992775.926 9                 115572712.523 7  90056725.665 9
                  21992775.78548
  22915336.688 6                                 120420855.823 6  93834460.37647
                  22915341.74647
  24192941.125 5  24192948.891 8                 127134881.436 5  99066079.957 8
                  24192948.41047
  20238634.727 7                                 106354745.329 7  82873835.00849
                  20238639.16449
  23292929.469 5                                 122405166.989 5  95380701.32147
                  23292936.41047
  22037822.328 6                                 115809591.046 6  90241206.74648
                  22037827.53548
  22537237.203 6  22537246.059 9  22537248.172 9 118433977.497 6  92286255.211 9
  88440999.183 9  22537246.13747
  22108419.523 6  22108428.703 9  22108430.668 9 116180518.793 6  90530320.219 9
  86758232.710 9  22108428.02348
  23578897.594 5  23578904.242 8                 123907733.638 5  96551668.721 8
                  23578903.79747
  22905778.242 6  22905786.492 9  22905787.191 9 120370631.771 6  93795335.156 9
  89887200.719 9  22905786.04347
 16 04 20 00 12 00.0000000  0 11G10G12G14G15G18G20G21G24G25G31G32   
  21275295.758 7  21275303.031 9  21275303.492 9 111802460.331 7  87118793.459 9
  83488841.987 9  21275303.55149
  21992012.234 7  21992018.008 9                 115568730.831 7  90053623.045 9
                  21992017.79748
  22914332.352 6                                 120415578.825 6  93830348.42347
                  22914337.97747
  24194668.156 5  24194674.449 8                 127143953.428 5  99073149.020 8
                  24194674.84446
  20238080.266 7                                 106351830.436 7  82871563.65649
                  20238084.20349
  23295723.516 5                                 122419853.473 5  95392145.31447
                  23295731.43047
  22039923.805 6                                 115820636.367 6  90249813.48548
                  22039929.34848
  22540101.945 6  22540110.410 9  22540112.141 9 118449029.039 6  92297983.667 9
  88452238.962 9  22540110.04747
  22106027.656 7  22106036.617 9  22106038.508 9 116167949.012 7  90520525.578 9
  86748846.184 9  22106036.27348
  23575931.523 5  23575937.969 8                 123892147.905 5  96539523.998 8
                  23575938.10547
  22904520.109 6  22904527.719 9  22904528.512 9 120364018.759 6  93790182.155 9
  89882262.431 9  22904527.65647
 16 04 20 00 12 05.0000000  0 11G10G12G14G15G18G20G21G24G25G31G32   
  21273158.500 7  21273165.883 9  21273166.074 9 111791228.857 7  87110041.658 9
  83480454.852 9  21273166.18849
  21991257.344 7  21991263.273 9                 115564763.288 7  90050531.455 9
                  21991263.11748
  22913327.891 6                                 120410302.285 6  93826236.83247
                  22913334.10547
  24196394.406 5  24196400.836 8                 127153025.171 5  99080217.910 8
                  24196400.94146
  20237527.820 7                                 106348927.205 7  82869301.39749
                  20237531.79749
  23298519.813 5                                 122434546.667 5  95403594.53047
                  23298526.64147
  22042026.961 6                                 115831689.347 6  90258426.17948
                  22042032.87948
  22542966.758 6  22542974.496 9  22542976.727 9 118464084.320 6  92309715.062 9
  88463481.534 9  22542974.51647
  22103637.227 6  22103645.977 9  22103647.605 9 116155387.121 6  90510737.093 9
  86739465.551 9  22103645.48848
  23572966.711 5  23572973.191 8                 123876569.500 5  96527384.993 8
                  23572973.03947
  22903261.313 6  22903269.555 9  22903270.605 9 120357406.124 6  93785029.456 9
  89877324.423 9  22903269.75047
 16 04 20 00 12 10.0000000  0 11G10G12G14G15G18G20G21G24G25G31G32   
  21271022.414 7  21271029.914 9  21271029.984 9 111780004.842 7  87101295.673 9
  83472073.276 9  21271029.98449
  21990504.523 7  21990510.648 9                 115560810.147 7  90047451.083 9
                  21990510.48848
  22912324.086 6                                 120405026.355 6  93822125.72347
                  22912329.71947
  24198120.328 5  24198127.328 8                 127162096.929 5  99087286.797 8
                  24198127.41447
  20236976.977 7                                 106346035.787 7  82867048.34349
                  20236981.84449
  23301317.180 5                                 122449246.673 5  95415049.05146
                  23301323.75046
  22044132.281 6                                 115842750.124 6  90267044.96148
                  22044137.54748
  22545831.656 6  22545840.430 9  22545842.445 9 118479143.514 6  92321449.494 9
  88474727.038 9  22545840.00047
  22101248.180 6  22101256.902 9  22101258.730 9 116142833.333 6  90500954.919 9
  86730090.961 9  22101256.78948
  23570004.172 5  23570010.402 8                 123860998.668 5  96515251.881 8
                  23570009.67247
  22902003.578 6  22902011.582 9  22902012.414 9 120350794.039 6  93779877.174 9
  89872386.823 9  22902011.55947
 16 04 20 00 12 15.0000000  0 11G10G12G14G15G18G20G21G24G25G31G32   
  21268887.969 7  21268895.566 9  21268895.801 9 111768788.384 7  87092555.573 9
  83463697.350 9  21268896.03149
  21989755.492 7  21989761.301 9                 115556871.442 7  90044381.961 9
                  21989761.05948
  22911320.539 6                                 120399751.181 6  93818015.20347
                  22911326.28147
  24199846.727 5  24199853.547 8                 127171168.790 5  99094355.782 8
                  24199853.46147
  20236429.492 7                                 106343156.258 7  82864804.54849
                  20236433.80549
  23304115.945 5                                 122463953.598 5  95426508.98847
                  23304122.05947
  22046238.680 7                                 115853818.843 7  90275669.93048
                  22046243.74248
  22548699.117 6  22548707.145 9  22548708.727 9 118494206.622 6  92333186.986 9
  88485975.443 9  22548706.57847
  22098861.070 6  22098869.863 9  22098872.012 9 116130287.691 6  90491179.097 9
  86720722.467 9  22098869.66048
  23567042.242 5  23567048.883 8                 123845435.465 5  96503124.713 8
                  23567048.12147
  22900745.414 6  22900753.191 9  22900754.176 9 120344182.631 6  93774725.424 9
  89867449.732 9  22900753.08647
 16 04 20 00 12 20.0000000  0 11G10G12G14G15G18G20G21G24G25G31G32   
  21266755.156 7  21266762.445 9  21266762.734 9 111757579.422 7  87083821.316 9
  83455327.020 9  21266763.02349
  21989008.781 7  21989014.785 9                 115552947.175 7  90041324.090 9
                  21989014.60948
  22910316.703 6                                 120394476.679 6  93813905.19447
                  22910322.32447
  24201572.570 5  24201579.637 8                 127180240.709 5  99101424.810 8
                  24201579.10247
  20235884.078 7                                 106340288.620 7  82862570.02549
                  20235887.97749
  23306916.078 5                                 122478667.397 5  95437974.26347
                  23306921.75847
  22048346.031 6                                 115864895.424 6  90284301.02048
                  22048351.28148
  22551565.703 6  22551574.355 9  22551576.188 9 118509273.574 6  92344927.446 9
  88497226.737 9  22551574.27047
  22096475.391 6  22096483.988 9  22096486.277 9 116117750.204 6  90481409.625 9
  86711360.053 9  22096483.57448
  23564082.031 5  23564088.566 8                 123829879.868 5  96491003.478 8
                  23564088.11747
  22899487.109 6  22899495.141 9  22899496.316 9 120337571.795 6  93769574.130 9
  89862513.068 9  22899495.34447
 16 04 20 00 12 25.0000000  0 11G10G12G14G15G18G20G21G24G25G31G32   
  21264623.586 7  21264631.063 9  21264631.395 9 111746377.811 7  87075092.787 9
  83446962.181 9  21264631.45349
  21988264.727 7  21988270.555 9                 115549037.176 7  90038277.351 9
                  21988270.45348
  22909313.289 6                                 120389202.680 6  93809795.58247
                  22909318.65647
  24203298.711 5  24203305.848 8                 127189312.467 5  99108493.708 8
                  24203305.28146
  20235340.594 7                                 106337432.705 7  82860344.63449
                  20235344.61349
  23309717.258 5                                 122493387.837 5  95449444.73947
                  23309723.00447
  22050455.359 6                                 115875979.661 6  90292938.08048
                  22050460.75448
  22554434.023 6  22554442.055 9  22554444.488 9 118524344.338 6  92356670.897 9
  88508480.877 9  22554442.39547
  22094090.945 6  22094099.715 9  22094101.820 9 116105220.686 6  90471646.363 9
  86702003.597 9  22094099.28948
  23561123.656 5  23561129.770 8                 123814331.691 5  96478888.021 8
                  23561129.41847
  22898229.102 6  22898237.238 9  22898238.391 9 120330961.360 6  93764423.141 9
  89857576.704 9  22898237.41847
 16 04 20 00 12 30.0000000  0 11G10G12G14G15G18G20G21G24G25G31G32   
  21262493.289 7  21262500.547 9  21262500.887 9 111735183.750 7  87066370.143 9
  83438602.973 9  21262501.05949
  21987523.523 7  21987529.223 9                 115545141.654 7  90035241.882 9
                  21987529.21148
  22908309.758 6                                 120383929.373 6  93805686.50947
                  22908315.15247
  24205024.984 5  24205032.063 8                 127198384.273 5  99115562.640 8
                  24205031.92646
  20234798.930 7                                 106334588.715 7  82858128.53249
                  20234803.68449
  23312519.820 5                                 122508115.162 5  95460920.54446
                  23312525.99646
  22052566.188 6                                 115887071.771 6  90301581.27048
                  22052571.60248
  22557302.023 6  22557310.930 9  22557313.156 9 118539419.019 6  92368417.404 9
  88519737.939 9  22557310.53548
  22091708.234 6  22091717.063 9  22091719.109 9 116092699.412 6  90461889.521 9
  86692653.296 9  22091716.81648
  23558166.109 5  23558172.793 8                 123798791.193 5  96466778.543 8
                  23558172.66046
  22896971.867 6  22896979.668 9  22896980.844 9 120324351.543 6  93759272.630 9
  89852640.801 9  22896979.81347
 16 04 20 00 12 35.0000000  0 11G10G12G14G15G18G20G21G24G25G31G32   
  21260364.773 7  21260372.016 9  21260372.422 9 111723997.311 7  87057653.436 9
  83430249.465 9  21260372.53549
  21986785.109 7  21986790.789 9                 115541260.656 7  90032217.725 9
                  21986790.65648
  22907306.438 6                                 120378656.784 6  93801578.00347
                  22907311.96547
  24206750.992 5  24206758.219 8                 127207456.206 5  99122631.656 8
                  24206758.36746
  20234260.359 7                                 106331756.662 7  82855921.73749
                  20234264.86349
  23315322.711 5                                 122522849.395 5  95472401.76147
                  23315329.68047
  22054678.211 6                                 115898171.719 6  90310230.57448
                  22054684.06348
  22560171.641 6  22560180.453 9  22560182.523 9 118554497.577 6  92380166.918 9
  88530997.889 9  22560180.07847
  22089326.914 6  22089335.789 9  22089337.602 9 116080186.349 6  90452139.082 9
  86683309.120 9  22089335.66048
  23555210.781 5  23555216.758 8                 123783258.389 5  96454675.065 8
                  23555216.81347
  22895713.742 6  22895721.742 9  22895722.965 9 120317742.371 6  93754122.631 9
  89847705.383 9  22895721.99247
 16 04 20 00 12 40.0000000  0 11G10G12G14G15G18G20G21G24G25G31G32   
  21258237.648 7  21258244.902 9  21258245.074 9 111712818.298 7  87048942.517 9
  83421901.498 9  21258245.07049
  21986049.188 6  21986055.039 9                 115537394.014 6  90029204.760 9
                  21986054.83648
  22906303.281 6                                 120373384.749 6  93797469.91647
                  22906308.52047
  24208477.117 5  24208484.242 8                 127216528.120 5  99129700.663 8
                  24208484.51646
  20233723.391 7                                 106328936.389 7  82853724.11749
                  20233727.61749
  23318127.867 5                                 122537590.366 5  95483888.19547
                  23318134.83647
  22056792.391 6                                 115909279.342 6  90318885.84948
                  22056797.57048
  22563041.273 6  22563050.023 9  22563052.012 9 118569579.948 6  92391919.410 9
  88542260.680 9  22563049.85947
  22086947.203 7  22086956.113 9  22086958.371 9 116067681.385 7  90442394.963 9
  86673970.999 9  22086956.31348
  23552256.336 5  23552262.027 8                 123767733.060 5  96442577.412 8
                  23552262.02347
  22894456.266 6  22894464.348 9  22894465.371 9 120311133.667 6  93748972.989 9
  89842770.309 9  22894464.04347
 16 04 20 00 12 45.0000000  0 11G10G12G14G15G18G20G21G24G25G31G32   
  21256111.727 7  21256118.840 9  21256119.215 9 111701646.795 7  87040237.444 9
  83413559.142 9  21256119.33249
  21985316.078 6  21985321.895 9                 115533541.787 6  90026203.030 9
                  21985321.67248
  22905300.070 6                                 120368113.300 6  93793362.28847
                  22905305.31347
  24210203.938 5  24210210.664 8                 127225600.033 5  99136769.670 8
                  24210210.60946
  20233188.820 7                                 106326127.967 7  82851535.73549
                  20233193.32449
  23320934.688 5                                 122552338.050 5  95495379.88046
                  23320940.90646
  22058907.656 6                                 115920394.676 6  90327547.13848
                  22058912.77348
  22565912.727 6  22565920.969 9  22565922.656 9 118584666.137 6  92403674.871 9
  88553526.347 9  22565920.62147
  22084569.258 6  22084578.105 9  22084580.254 9 116055184.570 6  90432657.177 9
  86664638.960 9  22084577.66848
  23549303.125 5  23549309.309 8                 123752215.390 5  96430485.719 8
                  23549309.15647
  22893198.609 6  22893206.855 9  22893208.047 9 120304525.468 6  93743823.739 9
  89837835.613 9  22893207.13347
 16 04 20 00 12 50.0000000  0 11G10G12G14G15G18G20G21G24G25G31G32   
  21253987.023 7  21253994.695 9  21253994.883 9 111690482.754 7  87031538.188 9
  83405222.360 9  21253995.11349
  21984585.711 6  21984591.734 9                 115529703.907 6  90023212.467 9
                  21984591.59448
  22904296.781 6                                 120362842.399 6  93789255.09547
                  22904302.56347
  24211930.688 5  24211937.266 8                 127234671.771 5  99143838.587 8
                  24211936.32846
  20232656.672 7                                 106323331.350 7  82849356.55249
                  20232661.61349
  23323741.703 5                                 122567092.459 5  95506876.79946
                  23323748.69146
  22061024.102 6                                 115931517.667 6  90336214.39448
                  22061029.20348
  22568783.969 6  22568792.070 9  22568794.277 9 118599755.925 6  92415433.146 9
  88564794.677 9  22568792.35947
  22082192.844 6  22082202.121 9  22082203.945 9 116042695.872 6  90422925.731 9
  86655312.985 9  22082201.82848
  23546351.805 5  23546358.039 8                 123736705.163 5  96418399.825 8
                  23546357.87147
  22891941.813 6  22891949.324 9  22891950.574 9 120297917.720 6  93738674.843 9
  89832901.252 9  22891949.60247
 16 04 20 00 12 55.0000000  0 11G10G12G14G15G18G20G21G24G25G31G32   
  21251864.313 7  21251871.867 9  21251872.070 9 111679326.569 7  87022845.058 9
  83396891.439 9  21251872.07049
  21983858.344 7  21983864.559 9                 115525880.810 7  90020233.424 9
                  21983864.48048
  22903294.211 6                                 120357572.393 6  93785148.58947
                  22903300.23447
  24213656.258 5  24213663.699 8                 127243743.903 5  99150907.769 8
                  24213662.53546
  20232126.938 7                                 106320546.923 7  82847186.86449
                  20232131.36749
  23326551.641 5                                 122581853.940 5  95518379.22346
                  23326557.17246
  22063141.813 6                                 115942648.663 6  90344887.88748
                  22063147.10248
  22571655.953 6  22571665.086 9  22571667.273 9 118614849.804 6  92427194.598 9
  88576066.080 9  22571664.71147
  22079817.898 6  22079826.926 9  22079828.855 9 116030215.706 6  90413200.907 9
  86645993.374 9  22079826.38348
  23543401.508 5  23543408.000 8                 123721202.902 5  96406320.142 8
                  23543407.53147
  22890684.367 6  22890692.137 9  22890693.008 9 120291310.819 6  93733526.612 9
  89827967.527 9  22890692.27047
 16 04 20 00 13 00.0000000  0 11G10G12G14G15G18G20G21G24G25G31G32   
  21249742.773 7  21249750.090 9  21249750.332 9 111668177.938 7  87014157.814 9
  83388566.160 9  21249750.50849
  21983133.320 7  21983139.480 9                 115522072.120 7  90017265.615 9
                  21983139.38348
  22902291.227 6                                 120352302.975 6  93781042.56147
                  22902297.29347
  24215383.281 5  24215389.988 8                 127252816.007 5  99157976.933 8
                  24215389.55547
  20231599.477 7                                 106317774.395 7  82845026.44949
                  20231603.40649
  23329361.789 5                                 122596622.136 5  95529886.90946
                  23329367.64546
  22065261.906 6                                 115953787.363 6  90353567.38048
                  22065267.06648
  22574529.281 6  22574537.813 9  22574540.246 9 118629947.498 6  92438959.012 9
  88587340.308 9  22574537.80147
  22077444.727 7  22077453.695 9  22077455.461 9 116017743.746 7  90403482.500 9
  86636679.894 9  22077453.16848
  23540453.289 5  23540459.387 8                 123705708.271 5  96394246.407 8
                  23540459.32846
  22889426.938 6  22889434.906 9  22889436.137 9 120284704.425 6  93728378.766 9
  89823034.183 9  22889435.34047
 16 04 20 00 13 05.0000000  0 11G10G12G14G15G18G20G21G24G25G31G32   
  21247622.469 7  21247630.027 9  21247630.484 9 111657036.736 7  87005476.358 9
  83380246.429 9  21247630.59849
  21982411.844 7  21982417.414 9                 115518277.738 7  90014308.959 9
                  21982417.20748
  22901289.039 6                                 120347034.033 6  93776936.88647
                  22901294.80947
  24217109.438 5  24217116.965 8                 127261887.940 5  99165045.961 8
                  24217116.86347
  20231074.125 7                                 106315013.603 7  82842875.17849
                  20231078.31349
  23332173.547 5                                 122611397.005 5  95541399.78846
                  23332179.24646
  22067382.672 6                                 115964933.591 6  90362252.75048
                  22067388.04348
  22577402.742 6  22577411.422 9  22577413.324 9 118645048.737 6  92450726.221 9
  88598617.207 9  22577411.23047
  22075072.156 6  22075081.492 9  22075083.227 9 116005279.865 6  90393770.379 9
  86627372.447 9  22075081.22748
  23537506.078 5  23537512.422 8                 123690221.102 5  96382178.484 8
                  23537512.05146
  22888170.414 6  22888177.602 9  22888178.762 9 120278098.428 6  93723231.231 9
  89818101.126 9  22888177.90647
 16 04 20 00 13 10.0000000  0 11G10G12G14G15G18G20G21G24G25G31G32   
  21245503.813 7  21245511.293 9  21245511.684 9 111645902.837 7  86996800.587 9
  83371932.156 9  21245511.91449
  21981692.172 6  21981698.238 9                 115514497.572 6  90011363.383 9
                  21981698.11348
  22900286.336 6                                 120341765.406 6  93772831.46747
                  22900292.09847
  24218835.641 5  24218843.309 8                 127270959.591 5  99172114.757 8
                  24218843.24247
  20230550.977 7                                 106312264.434 7  82840732.97149
                  20230555.28149
  23334986.391 5                                 122626178.311 5  95552917.67246
                  23334992.15246
  22069504.953 6                                 115976087.215 6  90370943.87948
                  22069510.64148
  22580277.289 6  22580285.680 9  22580287.645 9 118660153.452 6  92462496.111 9
  88609896.690 9  22580285.96547
  22072702.242 6  22072711.402 9  22072713.102 9 115992823.955 6  90384064.486 9
  86618070.957 9  22072710.98048
  23534560.078 5  23534566.133 8                 123674741.277 5  96370116.281 8
                  23534566.00847
  22886912.852 6  22886920.945 9  22886921.430 9 120271492.659 6  93718083.884 9
  89813168.243 9  22886920.63347
 16 04 20 00 13 15.0000000  0 11G10G12G14G15G18G20G21G24G25G31G32   
  21243386.594 7  21243393.789 9  21243394.102 9 111634776.611 7  86988130.801 9
  83363623.611 9  21243394.21549
  21980975.633 6  21980981.648 9                 115510731.970 6  90008429.144 9
                  21980981.77048
  22899283.734 6                                 120336497.469 6  93768726.57747
                  22899289.65247
  24220562.383 5  24220569.652 8                 127280031.385 5  99179183.673 8
                  24220569.98447
  20230029.930 7                                 106309527.275 7  82838600.11449
                  20230034.64149
  23337800.461 5                                 122640966.493 5  95564440.90746
                  23337806.83246
  22071629.266 6                                 115987248.588 6  90379641.03448
                  22071634.70748
  22583152.063 6  22583160.836 9  22583162.734 9 118675261.994 6  92474269.002 9
  88621179.042 9  22583160.70347
  22070333.750 6  22070342.688 9  22070344.789 9 115980376.407 6  90374365.094 9
  86608775.705 9  22070342.49248
  23531615.953 5  23531622.527 8                 123659269.170 5  96358060.101 8
                  23531622.49246
  22885655.727 6  22885663.574 9  22885664.570 9 120264887.490 6  93712936.995 9
  89808235.812 9  22885663.94947
 16 04 20 00 13 20.0000000  0 11G10G12G14G15G18G20G21G24G25G31G32   
  21241270.773 7  21241278.027 9  21241278.320 9 111623658.280 7  86979467.170 9
  83355320.959 9  21241278.37549
  21980261.781 7  21980267.594 9                 115506981.157 7  90005506.437 9
                  21980267.63348
  22898281.672 6                                 120331230.420 6  93764622.37447
                  22898287.15247
  24222288.867 5  24222296.363 8                 127289103.470 5  99186252.828 8
                  24222296.13747
  20229511.555 7                                 106306802.355 7  82836476.79949
                  20229515.60949
  23340616.063 5                                 122655761.695 5  95575969.61647
                  23340622.94947
  22073754.797 6                                 115998417.856 6  90388344.35148
                  22073760.24648
  22586028.625 6  22586036.820 9  22586039.043 9 118690374.462 6  92486044.940 9
  88632464.319 9  22586036.60247
  22067966.625 6  22067975.770 9  22067977.695 9 115967937.426 6  90364672.370 9
  86599486.853 9  22067975.22748
  23528672.742 5  23528679.730 8                 123643805.017 5  96346010.114 8
                  23528679.50847
  22884398.945 6  22884407.215 9  22884407.813 9 120258283.137 6  93707790.745 9
  89803303.987 9  22884407.25047
 16 04 20 00 13 25.0000000  0 11G10G12G14G15G18G20G21G24G25G31G32   
  21239156.594 7  21239163.879 9  21239164.051 9 111612547.431 7  86970809.362 9
  83347023.896 9  21239164.10549
  21979550.891 7  21979556.410 9                 115503244.692 7  90002594.908 9
                  21979556.69148
  22897279.258 6                                 120325963.822 6  93760518.53347
                  22897284.84447
  24224014.836 5  24224022.965 8                 127298175.358 5  99193321.819 8
                  24224022.96947
  20228995.227 7                                 106304089.193 7  82834362.64449
                  20228999.23449
  23343432.984 5                                 122670563.473 5  95587503.43847
                  23343439.48047
  22075881.875 7                                 116009594.659 7  90397053.53748
                  22075887.16848
  22588904.297 6  22588912.980 9  22588915.531 9 118705490.481 6  92497823.655 9
  88643752.241 9  22588912.96947
  22065601.063 7  22065610.098 9  22065612.109 9 115955506.567 7  90354985.984 9
  86590204.076 9  22065609.81648
  23525731.922 5  23525738.309 8                 123628348.427 5  96333966.017 8
                  23525738.15646
  22883142.398 6  22883150.594 9  22883151.223 9 120251679.142 6  93702644.769 9
  89798372.432 9  22883150.66047
 16 04 20 00 13 30.0000000  0 11G10G12G14G15G18G20G21G24G25G31G32   
  21237043.742 7  21237051.363 9  21237051.691 9 111601444.220 7  86962157.512 9
  83338732.535 9  21237051.80549
  21978842.383 7  21978848.336 9                 115499522.760 7  89999694.702 9
                  21978848.55148
  22896277.320 6                                 120320697.800 6  93756415.13647
                  22896282.87947
  24225741.055 5  24225749.043 8                 127307247.357 5  99200390.879 8
                  24225749.20347
  20228481.297 7                                 106301387.984 7  82832257.80149
                  20228485.05149
  23346251.313 5                                 122685371.962 5  95599042.50147
                  23346257.26647
  22078009.742 6                                 116020779.098 6  90405768.67048
                  22078014.99648
  22591782.523 6  22591790.293 9  22591792.215 9 118720610.239 6  92509605.274 9
  88655042.963 9  22591790.23847
  22063237.305 6  22063246.379 9  22063248.176 9 115943084.056 6  90345306.105 9
  86580927.519 9  22063246.35248
  23522791.914 5  23522798.117 8                 123612899.492 5  96321927.886 8
                  23522798.15246
  22881885.930 6  22881893.875 9  22881894.711 9 120245075.644 6  93697499.190 9
  89793441.252 9  22881893.85547
 16 04 20 00 13 35.0000000  0 11G10G12G14G15G18G20G21G24G25G31G32   
  21234932.406 7  21234939.379 9  21234939.805 9 111590348.619 7  86953511.585 9
  83330446.857 9  21234939.92249
  21978136.688 7  21978143.074 9                 115495815.339 7  89996805.808 9
                  21978142.97748
  22895275.500 6                                 120315432.360 6  93752312.19947
                  22895280.66847
  24227467.648 5  24227475.461 8                 127316319.339 5  99207459.933 8
                  24227476.12547
  20227969.586 7                                 106298698.698 7  82830162.25549
                  20227973.88349
  23349070.922 6                                 122700187.140 6  95610586.78547
                  23349076.46947
  22080139.453 6                                 116031971.128 6  90414489.72948
                  22080145.47748
  22594660.172 6  22594668.160 9  22594670.125 9 118735733.576 6  92521389.678 9
  88666336.356 9  22594668.55948
  22060875.078 6  22060883.637 9  22060885.523 9 115930669.847 6  90335632.703 9
  86571657.169 9  22060883.87548
  23519854.070 5  23519859.742 8                 123597458.252 5  96309895.755 8
                  23519859.85946
  22880629.016 6  22880637.219 9  22880638.141 9 120238472.648 6  93692354.001 9
  89788510.443 9  22880637.05147
 16 04 20 00 13 40.0000000  0 11G10G12G14G15G18G20G21G24G25G31G32   
  21232822.344 8  21232829.809 9  21232829.926 9 111579260.538 8  86944871.522 9
  83322166.799 9  21232829.80949
  21977433.969 7  21977439.773 9                 115492122.250 7  89993928.074 9
                  21977439.98048
  22894273.188 6                                 120310167.323 6  93748209.57047
                  22894278.81647
  24229193.023 5  24229202.078 8                 127325391.157 5  99214528.847 8
                  24229202.00447
  20227459.938 7                                 106296021.216 7  82828075.89849
                  20227464.29349
  23351890.938 5                                 122715008.870 5  95622136.17747
                  23351896.77747
  22082271.336 6                                 116043170.630 6  90423216.60448
                  22082276.54348
  22597538.352 6  22597546.598 9  22597548.316 9 118750860.459 6  92533176.858 9
  88677632.402 9  22597546.69147
  22058514.133 6  22058522.941 9  22058524.746 9 115918263.830 6  90325965.673 9
  86562392.926 9  22058522.74648
  23516916.172 5  23516922.742 8                 123582024.510 5  96297869.452 8
                  23516922.40246
  22879373.008 6  22879380.922 9  22879381.684 9 120231870.004 6  93687209.081 9
  89783579.895 9  22879380.77047
 16 04 20 00 13 45.0000000  0 11G10G12G14G15G18G20G21G24G25G31G32   
  21230713.867 8  21230721.051 9  21230721.105 9 111568180.162 8  86936237.458 9
  83313892.489 9  21230721.21949
  21976734.078 6  21976740.539 9                 115488443.918 6  89991061.845 9
                  21976740.02048
  22893271.820 6                                 120304902.935 6  93744107.44547
                  22893277.05547
  24230920.305 5  24230927.770 8                 127334463.066 5  99221597.859 8
                  24230927.96147
  20226952.836 7                                 106293355.737 7  82825998.89949
                  20226957.02749
  23354711.508 5                                 122729837.369 5  95633690.84746
                  23354718.42246
  22084403.742 6                                 116054377.817 6  90431949.46748
                  22084409.10248
  22600417.594 6  22600426.031 9  22600428.148 9 118765991.150 6  92544966.990 9
  88688931.283 9  22600426.05547
  22056155.016 6  22056163.910 9  22056166.164 9 115905866.192 6  90316305.174 9
  86553134.949 9  22056163.46148
  23513980.938 5  23513987.301 8                 123566598.528 5  96285849.204 8
                  23513987.12946
  22878116.781 6  22878124.941 9  22878125.629 9 120225267.900 6  93682064.581 9
  89778649.755 9  22878124.71547
 16 04 20 00 13 50.0000000  0 11G10G12G14G15G18G20G21G24G25G31G32   
  21228606.758 7  21228614.176 9  21228614.211 9 111557107.460 7  86927609.379 9
  83305623.909 9  21228614.38349
  21976036.750 7  21976042.594 9                 115484780.174 7  89988206.981 9
                  21976042.58648
  22892269.867 6                                 120299639.071 6  93740005.73547
                  22892275.68047
  24232646.391 5  24232653.734 8                 127343534.965 5  99228666.869 8
                  24232654.21946
  20226447.898 7                                 106290702.210 7  82823931.21649
                  20226452.13349
  23357534.852 5                                 122744672.642 5  95645250.78846
                  23357541.44546
  22086537.570 6                                 116065592.529 6  90440688.19048
                  22086543.02348
  22603297.375 6  22603306.020 9  22603308.410 9 118781125.393 6  92556759.924 9
  88700232.830 9  22603306.02347
  22053797.523 6  22053806.457 9  22053808.563 9 115893476.934 6  90306651.202 9
  86543883.232 9  22053805.74248
  23511047.336 5  23511053.277 8                 123551180.235 5  96273834.952 8
                  23511052.90246
  22876860.109 6  22876868.617 9  22876869.301 9 120218666.305 6  93676920.485 9
  89773719.990 9  22876868.44547
 16 04 20 00 13 55.0000000  0 11G10G12G14G15G18G20G21G24G25G31G32   
  21226501.117 7  21226508.555 9  21226508.957 9 111546042.424 7  86918987.275 9
  83297361.062 9  21226509.24649
  21975342.688 7  21975348.531 9                 115481130.874 7  89985363.366 9
                  21975348.30548
  22891268.047 6                                 120294375.747 6  93735904.44047
                  22891274.10247
  24234372.664 5  24234379.918 8                 127352606.857 5  99235735.862 8
                  24234380.54347
  20225945.266 7                                 106288060.603 7  82821872.82349
                  20225949.42249
  23360358.688 5                                 122759514.517 5  95656815.84946
                  23360365.66046
  22088673.414 6                                 116076814.767 6  90449432.78848
                  22088678.60548
  22606178.258 6  22606186.824 9  22606188.957 9 118796263.288 6  92568555.656 9
  88711537.081 9  22606186.45347
  22051441.203 6  22051450.297 9  22051452.582 9 115881096.022 6  90297003.735 9
  86534637.746 9  22051449.99248
  23508114.555 5  23508120.730 8                 123535769.656 5  96261826.708 8
                  23508120.38346
  22875603.758 6  22875612.070 9  22875613.047 9 120212065.166 6  93671776.743 9
  89768790.572 9  22875612.07447
 16 04 20 00 14 00.0000000  0 11G10G12G14G15G18G20G21G24G25G31G32   
  21224396.992 7  21224404.375 9  21224404.492 9 111534984.847 7  86910370.978 9
  83289103.777 9  21224404.72349
  21974651.242 7  21974656.836 9                 115477495.851 7  89982530.878 9
                  21974656.81348
  22890266.828 6                                 120289112.745 6  93731803.39847
                  22890272.36347
  24236099.242 5  24236105.777 8                 127361678.635 5  99242804.770 8
                  24236106.38746
  20225444.625 7                                 106285430.762 7  82819823.58949
                  20225449.13349
  23363184.508 5                                 122774362.845 5  95668385.95847
                  23363191.44947
  22090810.477 6                                 116088044.339 6  90458183.09348
                  22090815.72348
  22609059.172 6  22609067.984 9  22609069.914 9 118811404.576 6  92580354.067 9
  88722843.878 9  22609067.87947
  22049086.734 6  22049095.941 9  22049097.672 9 115868723.294 6  90287362.644 9
  86525398.367 9  22049095.55148
  23505183.578 5  23505189.680 8                 123520366.568 5  96249824.294 8
                  23505189.30546
  22874348.102 6  22874356.629 9  22874357.234 9 120205464.305 6  93666633.214 9
  89763861.352 9  22874356.32047
 16 04 20 00 14 05.0000000  0 11G10G12G14G15G18G20G21G24G25G31G32   
  21222294.258 7  21222301.473 9  21222301.855 9 111523935.046 7  86901760.739 9
  83280852.298 9  21222301.91449
  21973961.867 7  21973968.262 9                 115473875.408 7  89979709.754 9
                  21973967.95348
  22889265.219 6                                 120283850.372 6  93727702.84547
                  22889270.97347
  24237826.227 5  24237832.035 8                 127370750.470 5  99249873.732 8
                  24237832.21147
  20224946.766 7                                 106282812.987 7  82817783.76049
                  20224951.02049
  23366011.703 5                                 122789217.948 5  95679961.34847
                  23366018.17647
  22092948.664 6                                 116099281.453 6  90466939.27648
                  22092954.01648
  22611941.531 6  22611949.754 9  22611951.906 9 118826549.559 6  92592155.342 9
  88734153.433 9  22611949.87547
  22046733.766 6  22046743.086 9  22046744.934 9 115856359.027 6  90277728.150 9
  86516165.308 9  22046742.98848
  23502253.555 5  23502260.281 8                 123504971.265 5  96237827.953 8
                  23502260.07846
  22873092.164 6  22873100.352 9  22873101.230 9 120198863.978 6  93661490.102 9
  89758932.535 9  22873100.19947
 16 04 20 00 14 10.0000000  0 11G10G12G14G15G18G20G21G24G25G31G32   
  21220192.859 7  21220200.422 9  21220200.543 9 111512893.185 7  86893156.691 9
  83272606.756 9  21220200.65649
  21973275.789 7  21973282.020 9                 115470269.733 7  89976900.137 9
                  21973281.68448
  22888264.391 6                                 120278588.753 6  93723602.89447
                  22888270.02047
  24239552.039 5  24239558.109 8                 127379822.553 5  99256942.914 8
                  24239557.80546
  20224450.906 7                                 106280207.422 7  82815753.45149
                  20224455.51649
  23368839.633 5                                 122804079.867 5  95691542.02547
                  23368847.02347
  22095088.508 6                                 116110526.294 6  90475701.47848
                  22095093.84048
  22614824.117 6  22614832.910 9  22614835.160 9 118841698.279 6  92603959.534 9
  88745465.792 9  22614833.30147
  22044382.945 7  22044391.867 9  22044393.762 9 115844003.415 7  90268100.403 9
  86506938.709 9  22044391.93848
  23499326.125 5  23499332.332 8                 123489583.884 5  96225837.779 8
                  23499332.03546
  22871836.148 6  22871844.141 9  22871845.297 9 120192264.363 6  93656347.542 9
  89754004.250 9  22871844.32447
 16 04 20 00 14 15.0000000  0 11G10G12G14G15G18G20G21G24G25G31G32   
  21218093.266 8  21218100.836 9  21218101.059 9 111501858.966 8  86884558.599 9
  83264366.914 9  21218101.17649
  21972591.930 7  21972598.270 9                 115466678.521 7  89974101.790 9
                  21972598.19548
  22887263.305 6                                 120273327.570 6  93719503.26247
                  22887268.51647
  24241278.516 5  24241284.496 8                 127388894.620 5  99264012.060 8
                  24241283.78946
  20223957.219 7                                 106277613.776 7  82813732.42849
                  20223961.89849
  23371669.461 5                                 122818948.331 5  95703127.82446
                  23371676.22346
  22097229.531 6                                 116121778.531 6  90484469.45148
                  22097235.09048
  22617707.938 6  22617715.902 9  22617718.121 9 118856850.539 6  92615766.482 9
  88756780.772 9  22617716.14547
  22042033.617 6  22042042.117 9  22042043.934 9 115831656.145 6  90258479.160 9
  86497718.350 9  22042041.98848
  23496398.891 5  23496405.434 8                 123474204.137 5  96213853.561 8
                  23496405.06646
  22870580.234 6  22870588.094 9  22870589.391 9 120185665.119 6  93651205.267 9
  89749076.243 9  22870588.53547
 16 04 20 00 14 20.0000000  0 11G10G12G14G15G18G20G21G24G25G31G32   
  21215994.984 7  21216002.125 9  21216002.316 9 111490832.685 7  86875966.695 9
  83256133.003 9  21216002.60949
  21971911.805 7  21971917.410 9                 115463102.132 7  89971315.000 9
                  21971917.37548
  22886262.094 6                                 120268067.145 6  93715404.23047
                  22886267.70747
  24243004.172 5  24243010.332 8                 127397966.934 5  99271081.377 8
                  24243010.02746
  20223465.945 7                                 106275032.361 7  82811720.92749
                  20223470.50449
  23374499.336 5                                 122833823.626 5  95714718.95346
                  23374507.03546
  22099372.570 6                                 116133038.467 6  90493243.42148
                  22099377.69548
  22620591.641 6  22620600.434 9  22620602.258 9 118872006.501 6  92627576.304 9
  88768098.522 9  22620599.99247
  22039685.266 6  22039694.406 9  22039696.113 9 115819317.540 6  90248864.657 9
  86488504.454 9  22039693.93848
  23493473.781 5  23493479.887 8                 123458832.374 5  96201875.550 8
                  23493479.98847
  22869325.023 6  22869333.082 9  22869334.004 9 120179066.576 6  93646063.541 9
  89744148.756 9  22869332.79747
 16 04 20 00 14 25.0000000  0 11G10G12G14G15G18G20G21G24G25G31G32   
  21213898.203 8  21213905.320 9  21213905.625 9 111479813.966 8  86867380.678 9
  83247904.734 9  21213905.79749
  21971233.906 6  21971239.961 9                 115459540.126 6  89968539.412 9
                  21971240.13748
  22885260.961 6                                 120262807.082 6  93711305.47847
                  22885266.73447
  24244730.828 5  24244736.594 8                 127407039.101 5  99278150.595 8
                  24244736.52346
  20222977.344 7                                 106272462.730 7  82809718.61849
                  20222981.46549
  23377331.469 5                                 122848705.370 5  95726315.09946
                  23377338.47346
  22101516.539 6                                 116144305.689 6  90502023.06548
                  22101522.08248
  22623476.180 6  22623485.020 9  22623486.828 9 118887165.871 6  92639388.807 9
  88779418.825 9  22623484.91047
  22037339.148 6  22037348.035 9  22037349.582 9 115806987.207 6  90239256.596 9
  86479296.736 9  22037347.46148
  23490550.477 5  23490556.195 8                 123443468.147 5  96189903.430 8
                  23490556.25446
  22868069.000 6  22868077.305 9  22868078.254 9 120172468.280 6  93640922.017 9
  89739221.458 9  22868077.34047
 16 04 20 00 14 30.0000000  0 11G10G12G14G15G18G20G21G24G25G31G32   
  21211802.781 7  21211810.031 9  21211810.367 9 111468803.144 7  86858800.811 9
  83239682.370 9  21211810.42249
  21970559.281 6  21970565.004 9                 115455992.875 6  89965775.325 9
                  21970565.14548
  22884260.344 6                                 120257547.653 6  93707207.21047
                  22884265.81347
  24246456.867 5  24246463.645 8                 127416111.411 5  99285219.943 8
                  24246463.09846
  20222490.531 7                                 106269905.251 7  82807725.77449
                  20222494.60549
  23380165.141 5                                 122863593.884 5  95737916.51846
                  23380170.75846
  22103662.148 6                                 116155580.462 6  90510808.59348
                  22103667.03148
  22626361.750 6  22626370.336 9  22626372.094 9 118902328.904 6  92651204.147 9
  88790741.866 9  22626370.47347
  22034993.969 6  22035003.102 9  22035004.664 9 115794665.505 6  90229655.272 9
  86470095.459 9  22035002.95748
  23487628.078 5  23487634.137 8                 123428111.820 5  96177937.454 8
                  23487633.73846
  22866813.328 6  22866821.785 9  22866822.680 9 120165870.605 6  93635780.974 9
  89734294.620 9  22866821.59047
 16 04 20 00 14 35.0000000  0 11G10G12G14G15G18G20G21G24G25G31G32   
  21209708.906 7  21209716.500 9  21209716.711 9 111457799.987 7  86850226.919 9
  83231465.719 9  21209716.88349
  21969886.727 6  21969892.957 9                 115452460.111 6  89963022.525 9
                  21969892.82448
  22883259.391 6                                 120252288.629 6  93703109.27447
                  22883265.11747
  24248183.172 5  24248189.973 8                 127425183.683 5  99292289.247 8
                  24248189.52046
  20222006.289 7                                 106267359.676 7  82805742.20749
                  20222010.18049
  23382999.742 5                                 122878488.888 5  95749523.01646
                  23383005.10946
  22105809.188 6                                 116166862.571 6  90519599.84148
                  22105814.43448
  22629247.750 6  22629256.238 9  22629258.199 9 118917495.281 6  92663022.094 9
  88802067.400 9  22629256.39848
  22032651.289 6  22032660.133 9  22032661.914 9 115782352.128 6  90220060.432 9
  86460900.403 9  22032660.20748
  23484707.125 5  23484713.305 8                 123412763.131 5  96165977.437 8
                  23484713.45347
  22865558.047 6  22865566.164 9  22865566.836 9 120159273.280 6  93630640.200 9
  89729368.045 9  22865566.03947
 16 04 20 00 14 40.0000000  0 11G10G12G14G15G18G20G21G24G25G31G32   
  21207616.875 7  21207624.070 9  21207624.453 9 111446804.759 7  86841659.209 9
  83223254.996 9  21207624.39549
  21969217.172 6  21969223.355 9                 115448942.164 6  89960281.273 9
                  21969223.28548
  22882258.555 6                                 120247030.288 6  93699011.86047
                  22882264.10547
  24249909.625 5  24249917.133 8                 127434256.180 5  99299358.683 8
                  24249916.73846
  20221523.563 7                                 106264826.316 7  82803768.15349
                  20221528.41049
  23385835.320 5                                 122893390.659 5  95761134.76447
                  23385841.22347
  22107957.219 6                                 116178152.229 6  90528396.96748
                  22107963.07448
  22632134.805 6  22632143.086 9  22632145.305 9 118932665.337 6  92674842.905 9
  88813395.675 9  22632143.09448
  22030310.008 6  22030318.355 9  22030320.305 9 115770047.462 6  90210472.384 9
  86451711.853 9  22030318.30548
  23481788.031 5  23481794.148 8                 123397422.384 5  96154023.602 8
                  23481793.94546
  22864302.750 6  22864310.566 9  22864311.621 9 120152676.561 6  93625499.896 9
  89724441.924 9  22864310.88347
 16 04 20 00 14 45.0000000  0 11G10G12G14G15G18G20G21G24G25G31G32   
  21205525.781 7  21205533.121 9  21205533.438 9 111435817.268 7  86833097.527 9
  83215050.055 9  21205533.78549
  21968550.445 7  21968556.730 9                 115445438.797 7  89957551.377 9
                  21968556.40648
  22881258.727 6                                 120241772.368 6  93694914.78047
                  22881264.10547
  24251635.844 5  24251643.656 8                 127443328.645 5  99306428.124 8
                  24251643.90646
  20221044.273 7                                 106262304.932 7  82801803.44149
                  20221048.37549
  23388672.539 5                                 122908298.981 5  95772751.63247
                  23388677.77047
  22110106.805 6                                 116189449.228 6  90537199.81548
                  22110112.45748
  22635022.281 6  22635030.789 9  22635032.906 9 118947838.782 6  92686666.360 9
  88824726.492 9  22635030.63747
  22027969.703 7  22027978.578 9  22027980.848 9 115757751.245 7  90200890.908 9
  86442529.603 9  22027978.20348
  23478870.617 5  23478876.832 8                 123382089.288 5  96142075.740 8
                  23478876.75447
  22863047.984 6  22863055.648 9  22863056.477 9 120146080.251 6  93620359.909 9
  89719516.105 9  22863055.73847
 16 04 20 00 14 50.0000000  0 11G10G12G14G15G18G20G21G24G25G31G32   
  21203436.453 8  21203444.223 9  21203444.309 9 111424837.766 8  86824542.076 9
  83206851.076 9  21203444.48449
  21967886.672 7  21967892.254 9                 115441950.230 7  89954833.011 9
                  21967892.46148
  22880257.578 6                                 120236515.188 6  93690818.27147
                  22880263.14147
  24253363.117 5  24253370.508 8                 127452401.369 5  99313497.751 8
                  24253370.75046
  20220566.570 7                                 106259795.781 7  82799848.25349
                  20220571.13349
  23391511.117 5                                 122923214.096 5  95784373.78047
                  23391516.55147
  22112258.102 6                                 116200753.877 6  90546008.61948
                  22112263.63348
  22637910.195 6  22637919.230 9  22637920.813 9 118963015.990 6  92698492.760 9
  88836060.108 9  22637918.54347
  22025631.383 7  22025640.578 9  22025642.945 9 115745463.772 7  90191316.250 9
  86433353.893 9  22025640.23848
  23475954.281 5  23475960.094 8                 123366764.232 5  96130134.130 8
                  23475959.84047
  22861792.102 6  22861800.438 9  22861801.484 9 120139484.577 6  93615220.425 9
  89714590.766 9  22861800.33647
 16 04 20 00 14 55.0000000  0 11G10G12G14G15G18G20G21G24G25G31G32   
  21201348.563 7  21201356.289 9  21201356.563 9 111413865.706 7  86815992.416 9
  83198657.650 9  21201356.62149
  21967225.555 7  21967231.555 9                 115438475.978 7  89952125.803 9
                  21967231.35948
  22879257.180 6                                 120231258.126 6  93686721.86047
                  22879262.85947
  24255090.023 5  24255097.082 8                 127461473.766 5  99320567.134 8
                  24255097.15646
  20220091.398 7                                 106257298.297 7  82797902.15649
                  20220095.82849
  23394350.805 5                                 122938135.410 5  95796000.76547
                  23394357.47747
  22114410.742 6                                 116212065.479 6  90554822.84848
                  22114416.37548
  22640799.125 6  22640807.609 9  22640809.434 9 118978196.403 6  92710321.639 9
  88847396.128 9  22640807.75047
  22023294.906 7  22023303.965 9  22023306.160 9 115733184.443 7  90181747.942 9
  86424184.267 9  22023303.63348
  23473039.219 5  23473045.438 8                 123351446.543 5  96118198.271 8
                  23473045.23846
  22860537.367 6  22860545.449 9  22860546.215 9 120132888.983 6  93610080.996 9
  89709665.479 9  22860545.18447
 16 04 20 00 15 00.0000000  0 11G10G12G14G15G18G20G21G24G25G31G32   
  21199262.023 7  21199269.426 9  21199269.973 9 111402901.862 7  86807449.159 9
  83190470.361 9  21199269.96949
  21966567.570 7  21966573.207 9                 115435016.723 7  89949430.278 9
                  21966573.59048
  22878257.406 6                                 120226001.916 6  93682626.11547
                  22878262.96947
  24256816.781 5  24256823.887 8                 127470546.549 5  99327636.824 8
                  24256824.05947
  20219618.680 7                                 106254813.271 7  82795965.77349
                  20219622.58249
  23397190.211 5                                 122953063.637 5  95807633.13346
                  23397197.78146
  22116564.492 6                                 116223384.841 6  90563643.12148
                  22116570.11348
  22643688.703 6  22643697.074 9  22643698.949 9 118993380.637 6  92722153.501 9
  88858734.986 9  22643697.27047
  22020959.469 6  22020968.324 9  22020970.340 9 115720914.061 6  90172186.607 9
  86415021.322 9  22020967.75448
  23470126.383 5  23470132.219 8                 123336137.027 5  96106268.774 8
                  23470132.14847
  22859282.922 6  22859290.676 9  22859291.453 9 120126294.216 6  93604942.215 9
  89704740.816 9  22859290.71548
 16 04 20 00 15 05.0000000  0 11G10G12G14G15G18G20G21G24G25G31G32   
  21197177.078 7  21197184.324 9  21197184.758 9 111391945.632 7  86798911.839 9
  83182288.759 9  21197184.75449
  21965911.641 7  21965917.898 9                 115431571.880 7  89946745.985 9
                  21965918.09048
  22877256.594 6                                 120220746.036 6  93678530.62247
                  22877262.82447
  24258543.336 5  24258550.469 8                 127479619.226 5  99334706.426 8
                  24258551.12947
  20219147.898 7                                 106252340.104 7  82794038.62649
                  20219152.21549
  23400033.125 5                                 122967998.268 5  95819270.47447
                  23400039.23047
  22118720.039 6                                 116234711.373 6  90572468.97848
                  22118725.42248
  22646578.367 6  22646586.863 9  22646588.762 9 119008568.055 6  92733987.860 9
  88870076.247 9  22646586.96147
  22018626.313 6  22018635.234 9  22018637.129 9 115708652.060 6  90162631.801 9
  86405864.628 9  22018634.83648
  23467214.219 5  23467220.363 8                 123320835.094 5  96094345.199 8
                  23467219.93846
  22858027.492 6  22858035.223 9  22858036.090 9 120119699.688 6  93599803.621 9
  89699816.333 9  22858035.17647
 16 04 20 00 15 10.0000000  0 11G10G12G14G15G18G20G21G24G25G31G32   
  21195093.945 7  21195101.777 9  21195101.984 9 111380997.234 7  86790380.618 9
  83174113.010 9  21195102.21549
  21965258.945 7  21965265.168 9                 115428141.711 7  89944073.132 9
                  21965265.01648
  22876256.859 6                                 120215490.606 6  93674435.47847
                  22876262.69947
  24260269.492 5  24260276.754 8                 127488691.890 5  99341776.010 8
                  24260277.80147
  20218679.391 7                                 106249879.023 7  82792120.90049
                  20218683.88349
  23402875.680 5                                 122982939.425 5  95830912.91346
                  23402882.32846
  22120876.680 6                                 116246045.213 6  90581300.53448
                  22120882.45348
  22649469.227 6  22649477.816 9  22649480.117 9 119023758.916 6  92745824.880 9
  88881420.060 9  22649477.67247
  22016294.438 7  22016303.230 9  22016305.523 9 115696398.655 7  90153083.691 9
  86396714.354 9  22016302.99648
  23464303.734 5  23464310.406 8                 123305540.987 5  96082427.705 8
                  23464310.40247
  22856772.922 6  22856780.773 9  22856781.711 9 120113105.585 6  93594665.362 9
  89694892.155 9  22856780.79747
 16 04 20 00 15 15.0000000  0 11G10G12G14G15G18G20G21G24G25G31G32   
  21193011.898 7  21193019.230 9  21193019.707 9 111370056.754 7  86781855.569 9
  83165943.170 9  21193019.76249
  21964609.188 7  21964614.871 9                 115424726.199 7  89941411.701 9
                  21964615.31648
  22875256.836 6                                 120210235.692 6  93670340.74447
                  22875262.76647
  24261996.180 5  24262003.523 8                 127497764.647 5  99348845.680 8
                  24262004.25447
  20218213.578 7                                 106247430.004 7  82790212.56749
                  20218217.63349
  23405721.141 5                                 122997887.182 5  95842560.51146
                  23405726.88746
  22123035.102 6                                 116257386.405 6  90590137.81347
                  22123040.89547
  22652360.578 6  22652369.371 9  22652371.395 9 119038953.304 6  92757664.668 9
  88892766.509 9  22652369.06647
  22013964.406 6  22013973.668 9  22013975.707 9 115684153.838 6  90143542.269 9
  86387570.504 9  22013973.00448
  23461395.469 5  23461401.059 8                 123290254.752 5  96070516.349 8
                  23461401.23847
  22855518.047 6  22855526.551 9  22855527.223 9 120106511.939 6  93589527.445 9
  89689968.325 9  22855526.71947
 16 04 20 00 15 20.0000000  0 11G10G12G14G15G18G20G21G24G25G31G32   
  21190931.906 7  21190938.930 9  21190939.184 9 111359124.095 7  86773336.609 9
  83157779.169 9  21190939.41449
  21963961.719 6  21963968.145 9                 115421325.307 6  89938761.658 9
                  21963968.43848
  22874256.813 6                                 120204981.167 6  93666246.31447
                  22874263.10547
  24263723.352 5  24263729.293 8                 127506837.412 5  99355915.357 8
                  24263730.19147
  20217749.945 7                                 106244993.060 7  82788313.65049
                  20217753.88349
  23408566.188 5                                 123012841.476 5  95854213.19247
                  23408572.18847
  22125194.211 6                                 116268734.930 6  90598980.81148
                  22125199.83248
  22655252.625 6  22655261.465 9  22655263.551 9 119054151.016 6  92769507.012 9
  88904115.423 9  22655261.45747
  22011635.977 6  22011645.047 9  22011647.313 9 115671917.629 6  90134007.558 9
  86378433.072 9  22011644.48848
  23458488.383 5  23458493.625 8                 123274976.265 5  96058611.043 8
                  23458493.81347
  22854263.234 6  22854271.020 9  22854272.094 9 120099918.705 6  93584389.864 9
  89685044.811 9  22854271.29747
 16 04 20 00 15 25.0000000  0 11G10G12G14G15G18G20G21G24G25G31G32   
  21188852.813 7  21188860.090 9  21188860.270 9 111348199.328 7  86764823.801 9
  83149621.058 9  21188860.44549
  21963317.438 6  21963323.078 9                 115417939.142 6  89936123.086 9
                  21963323.41448
  22873257.531 6                                 120199727.198 6  93662152.30647
                  22873262.98047
  24265448.930 6  24265455.742 8                 127515910.261 6  99362985.106 8
                  24265456.07846
  20217288.430 7                                 106242568.224 7  82786424.16649
                  20217292.49249
  23411413.883 6                                 123027802.293 6  95865870.96147
                  23411419.16047
  22127355.297 6                                 116280090.762 6  90607829.50248
                  22127361.01248
  22658145.500 6  22658154.051 9  22658155.590 9 119069352.165 6  92781352.065 9
  88915466.931 9  22658153.90647
  22009309.383 6  22009317.941 9  22009320.035 9 115659690.077 6  90124479.591 9
  86369302.107 9  22009317.68448
  23455581.523 5  23455588.336 8                 123259705.673 5  96046711.869 8
                  23455588.16847
  22853008.883 6  22853017.105 9  22853018.098 9 120093325.891 6  93579252.608 9
  89680121.601 9  22853017.00847
 16 04 20 00 15 30.0000000  0 11G10G12G14G15G18G20G21G24G25G31G32   
  21186775.422 7  21186782.648 9  21186783.176 9 111337282.645 7  86756317.300 9
  83141468.990 9  21186783.23049
  21962675.898 6  21962681.844 9                 115414567.858 6  89933496.111 9
                  21962681.91448
  22872257.609 6                                 120194473.888 6  93658058.81547
                  22872263.29347
  24267175.586 6  24267181.906 8                 127524983.367 6  99370055.048 8
                  24267182.56346
  20216829.313 7                                 106240155.712 7  82784544.28249
                  20216833.41849
  23414261.234 6                                 123042769.828 6  95877533.96947
                  23414268.02347
  22129517.758 6                                 116291454.086 6  90616684.02848
                  22129523.14848
  22661038.344 6  22661047.102 9  22661048.926 9 119084556.822 6  92793199.836 9
  88926821.050 9  22661047.12947
  22006984.273 6  22006993.180 9  22006995.172 9 115647471.355 6  90114958.510 9
  86360177.734 9  22006992.93848
  23452677.297 5  23452683.758 8                 123244443.067 5  96034818.939 8
                  23452683.59847
  22851754.406 6  22851761.988 9  22851763.063 9 120086733.719 6  93574115.847 9
  89675198.874 9  22851762.14847
 16 04 20 00 15 35.0000000  0 11G10G12G14G15G18G20G21G24G25G31G32   
  21184699.586 8  21184706.977 9  21184707.223 9 111326373.665 8  86747816.788 9
  83133322.673 9  21184707.21949
  21962037.203 7  21962043.336 9                 115411211.060 7  89930880.418 9
                  21962043.23048
  22871257.664 6                                 120189220.792 6  93653965.50147
                  22871264.11347
  24268901.641 5  24268908.906 8                 127534056.333 5  99377124.884 8
                  24268909.06646
  20216372.547 7                                 106237755.098 7  82782673.66449
                  20216376.68449
  23417110.891 5                                 123057743.722 5  95889201.91047
                  23417118.65647
  22131681.828 6                                 116302824.457 6  90625544.05248
                  22131687.27048
  22663932.430 6  22663941.516 9  22663943.574 9 119099764.735 6  92805050.154 9
  88938177.613 9  22663941.77347
  22004660.664 7  22004669.238 9  22004671.359 9 115635261.090 7  90105444.014 9
  86351059.679 9  22004669.30148
  23449774.445 5  23449780.969 8                 123229188.066 5  96022931.922 8
                  23449780.77047
  22850499.563 6  22850508.160 9  22850509.090 9 120080141.749 6  93568979.249 9
  89670276.297 9  22850508.17647
 16 04 20 00 15 40.0000000  0 11G10G12G14G15G18G20G21G24G25G31G32   
  21182624.852 7  21182632.375 9  21182632.754 9 111315472.660 7  86739322.500 9
  83125182.315 9  21182632.86749
  21961401.336 7  21961407.234 9                 115407869.073 7  89928276.273 9
                  21961407.22348
  22870258.141 6                                 120183968.250 6  93649872.60247
                  22870264.20747
  24270628.078 5  24270634.316 8                 127543129.419 5  99384194.832 8
                  24270634.57446
  20215918.320 7                                 106235366.669 7  82780812.55749
                  20215922.20749
  23419960.977 5                                 123072724.218 5  95900874.99547
                  23419969.02047
  22133847.234 6                                 116314202.148 6  90634409.77148
                  22133852.19548
  22666827.438 6  22666836.285 9  22666838.398 9 119114976.106 6  92816903.167 9
  88949536.730 9  22666836.18847
  22002338.711 6  22002347.652 9  22002349.492 9 115623059.580 6  90095936.340 9
  86341948.157 9  22002347.25848
  23446872.930 5  23446879.297 8                 123213941.034 5  96011051.122 8
                  23446879.29747
  22849245.523 6  22849253.863 9  22849254.816 9 120073550.277 6  93563843.036 9
  89665354.092 9  22849253.78547
 16 04 20 00 15 45.0000000  0 11G10G12G14G15G18G20G21G24G25G31G32   
  21180552.258 7  21180559.594 9  21180559.891 9 111304579.623 7  86730834.419 9
  83117047.898 9  21180560.06349
  21960768.133 7  21960774.281 9                 115404541.804 7  89925683.596 9
                  21960774.05548
  22869258.859 6                                 120178716.194 6  93645780.09847
                  22869264.71947
  24272354.656 5  24272360.793 8                 127552202.656 5  99391264.888 8
                  24272360.71946
  20215465.539 7                                 106232990.401 7  82778960.91349
                  20215470.25449
  23422813.242 5                                 123087711.283 5  95912553.18647
                  23422821.23847
  22136012.977 6                                 116325587.144 6  90643281.18847
                  22136018.41047
  22669722.586 6  22669731.305 9  22669733.465 9 119130190.906 6  92828758.829 9
  88960898.419 9  22669731.13747
  22000018.820 6  22000027.680 9  22000029.617 9 115610866.786 6  90086435.470 9
  86332843.152 9  22000027.32448
  23443972.523 5  23443979.066 8                 123198701.865 5  95999176.445 8
                  23443978.91847
  22847991.031 6  22847999.313 9  22848000.336 9 120066959.245 6  93558707.168 9
  89660432.218 9  22847999.24647
 16 04 20 00 15 50.0000000  0 11G10G12G14G15G18G20G21G24G25G31G32   
  21178480.914 7  21178488.391 9  21178488.582 9 111293694.400 7  86722352.430 9
  83108919.324 9  21178488.75849
  21960137.688 7  21960143.691 9                 115401229.137 7  89923102.294 9
                  21960143.39548
  22868259.109 6                                 120173464.488 6  93641687.85347
                  22868265.38347
  24274081.039 5  24274087.559 8                 127561275.808 5  99398334.864 8
                  24274087.34446
  20215015.500 7                                 106230626.114 7  82777118.60749
                  20215020.06649
  23425666.461 5                                 123102704.727 5  95924236.36047
                  23425674.38747
  22138180.688 6                                 116336979.240 6  90652158.13948
                  22138186.59048
  22672618.797 6  22672627.160 9  22672629.332 9 119145408.988 6  92840617.070 9
  88972262.561 9  22672627.41447
  21997700.289 7  21997708.816 9  21997710.785 9 115598682.595 7  90076941.291 9
  86323744.567 9  21997708.84448
  23441074.328 5  23441081.301 8                 123183470.465 5  95987307.820 8
                  23441080.73847
  22846737.758 6  22846745.664 9  22846746.621 9 120060368.501 6  93553571.525 9
  89655510.562 9  22846745.70747
 16 04 20 00 15 55.0000000  0 11G10G12G14G15G18G20G21G24G25G31G32   
  21176410.914 7  21176417.953 9  21176418.395 9 111282817.436 7  86713876.871 9
  83100796.906 9  21176418.45349
  21959510.133 7  21959516.520 9                 115397931.488 7  89920532.710 9
                  21959516.16848
  22867260.109 6                                 120168213.477 6  93637596.16147
                  22867265.82447
  24275808.250 5  24275813.941 8                 127570349.362 5  99405405.151 8
                  24275813.87146
  20214568.266 7                                 106228274.225 7  82775285.96649
                  20214572.77749
  23428521.031 5                                 123117704.924 5  95935924.79846
                  23428528.34046
  22140350.070 6                                 116348378.824 6  90661040.91948
                  22140356.02748
  22675515.313 6  22675523.750 9  22675525.594 9 119160630.637 6  92852478.090 9
  88983629.373 9  22675523.73447
  21995383.008 6  21995391.695 9  21995393.633 9 115586507.383 6  90067454.118 9
  86314652.683 9  21995391.86748
  23438177.422 5  23438184.289 8                 123168247.250 5  95975445.576 8
                  23438183.67647
  22845482.953 6  22845491.102 9  22845492.023 9 120053778.489 6  93548436.456 9
  89650589.449 9  22845491.05147
 16 04 20 00 16 00.0000000  0 11G10G12G14G15G18G20G21G24G25G31G32   
  21174342.875 8  21174350.066 9  21174350.398 9 111271948.536 8  86705407.593 9
  83092680.523 9  21174350.51249
  21958885.352 7  21958891.129 9                 115394648.718 7  89917974.705 9
                  21958891.10548
  22866261.172 6                                 120162963.076 6  93633504.93547
                  22866267.25847
  24277534.594 5  24277541.266 8                 127579423.141 5  99412475.624 8
                  24277540.84446
  20214123.000 7                                 106225934.614 7  82773462.88449
                  20214127.54349
  23431377.109 5                                 123132711.764 5  95947618.42846
                  23431382.94146
  22142521.156 6                                 116359785.771 6  90669929.43748
                  22142526.04748
  22678412.297 6  22678420.852 9  22678422.863 9 119175855.771 6  92864341.822 9
  88994998.780 9  22678420.71547
  21993067.797 6  21993076.859 9  21993078.766 9 115574341.052 6  90057973.854 9
  86305567.431 9  21993076.88348
  23435282.141 5  23435288.691 8                 123153032.045 5  95963589.568 8
                  23435288.32047
  22844228.891 6  22844237.313 9  22844238.520 9 120047189.016 6  93543301.797 9
  89645668.738 9  22844237.43047
 16 04 20 00 16 05.0000000  0 11G10G12G14G15G18G20G21G24G25G31G32   
  21172275.828 7  21172283.266 9  21172283.680 9 111261087.422 7  86696944.388 9
  83084569.944 9  21172283.79349
  21958263.836 7  21958269.383 9                 115391380.495 7  89915428.042 9
                  21958269.28548
  22865262.250 6                                 120157712.941 6  93629413.92347
                  22865267.92247
  24279261.359 5  24279267.957 8                 127588496.763 5  99419545.981 8
                  24279267.07846
  20213680.195 7                                 106223606.982 7  82771649.14249
                  20213684.41049
  23434233.492 5                                 123147724.912 5  95959316.98846
                  23434240.12146
  22144693.047 6                                 116371199.692 6  90678823.39348
                  22144698.62948
  22681310.250 6  22681318.547 9  22681320.855 9 119191083.995 6  92876207.980 9
  89006370.503 9  22681318.35247
  21990754.563 7  21990763.590 9  21990765.195 9 115562183.317 7  90048500.296 9
  86296488.601 9  21990763.43048
  23432388.000 5  23432394.512 8                 123137824.533 5  95951739.562 8
                  23432394.32047
  22842975.203 6  22842982.852 9  22842983.910 9 120040599.735 6  93538167.290 9
  89640748.168 9  22842983.05547
 16 04 20 00 16 10.0000000  0 11G10G12G14G15G18G20G21G24G25G31G32   
  21170210.414 7  21170218.137 9  21170218.367 9 111250234.239 7  86688487.350 9
  83076465.295 9  21170218.36749
  21957644.656 6  21957650.238 9                 115388126.951 6  89912892.814 9
                  21957650.37948
  22864263.250 6                                 120152463.216 6  93625323.23447
                  22864268.64547
  24280987.859 5  24280994.469 8                 127597570.403 5  99426616.340 8
                  24280994.28946
  20213239.211 7                                 106221291.437 7  82769844.81949
                  20213243.84449
  23437091.945 5                                 123162744.455 5  95971020.53146
                  23437097.60546
  22146866.078 6                                 116382620.734 6  90687722.90347
                  22146871.60547
  22684209.086 6  22684216.691 9  22684219.402 9 119206315.374 6  92888076.573 9
  89017744.571 9  22684216.95747
  21988442.586 7  21988451.574 9  21988453.426 9 115550034.240 7  90039033.477 9
  86287416.238 9  21988451.13348
  23429496.227 5  23429502.621 8                 123122624.861 5  95939895.665 8
                  23429502.44147
  22841721.633 6  22841729.605 9  22841730.328 9 120034010.829 6  93533033.077 9
  89635827.880 9  22841729.59047
 16 04 20 00 16 15.0000000  0 11G10G12G14G15G18G20G21G24G25G31G32   
  21168146.953 7  21168154.492 9  21168154.699 9 111239389.136 7  86680036.626 9
  83068366.672 9  21168154.75449
  21957027.922 6  21957034.117 9                 115384888.245 6  89910369.143 9
                  21957034.24248
  22863263.953 6                                 120147214.011 6  93621232.93747
                  22863270.54747
  24282714.625 5  24282721.750 8                 127606644.203 5  99433686.814 8
                  24282721.67646
  20212801.164 7                                 106218988.151 7  82768050.05149
                  20212805.58649
  23439951.594 5                                 123177770.517 5  95982729.13746
                  23439956.66846
  22149041.148 6                                 116394049.016 6  90696628.04448
                  22149046.32048
  22687107.938 6  22687116.391 9  22687118.945 9 119221550.156 6  92899947.831 9
  89029121.186 9  22687116.50047
  21986132.156 7  21986141.152 9  21986142.676 9 115537894.058 7  90029573.590 9
  86278350.519 9  21986140.55548
  23426604.766 5  23426611.512 8                 123107433.131 5  95928057.955 8
                  23426611.46147
  22840467.992 6  22840476.152 9  22840476.809 9 120027422.365 6  93527899.208 9
  89630907.922 9  22840476.07047
 16 04 20 00 16 20.0000000  0 11G10G12G14G15G18G20G21G24G25G31G32   
  21166084.828 7  21166092.207 9  21166092.332 9 111228552.201 7  86671592.258 9
  83060274.158 9  21166092.38749
  21956414.828 7  21956420.371 9                 115381664.485 7  89907857.132 9
                  21956420.74248
  22862265.484 6                                 120141965.396 6  93617143.10647
                  22862271.89847
  24284441.922 5  24284448.531 8                 127615718.298 5  99440757.530 8
                  24284448.71546
  20212365.156 7                                 106216697.178 7  82766264.87249
                  20212369.74649
  23442812.117 5                                 123192803.240 5  95994442.93347
                  23442818.05147
  22151217.484 6                                 116405484.590 6  90705538.87848
                  22151222.46148
  22690007.992 6  22690016.109 9  22690018.043 9 119236788.347 6  92911821.716 9
  89040500.342 9  22690016.06647
  21983823.492 7  21983833.121 9  21983834.727 9 115525762.803 7  90020120.657 9
  86269291.458 9  21983832.66848
  23423715.773 5  23423722.215 8                 123092249.462 5  95916226.531 8
                  23423722.00447
  22839213.945 6  22839222.113 9  22839222.969 9 120020834.499 6  93522765.806 9
  89625988.413 9  22839222.23047
 16 04 20 00 16 25.0000000  0 11G10G12G14G15G18G20G21G24G25G31G32   
  21164024.117 7  21164031.219 9  21164031.637 9 111217723.350 7  86663154.187 9
  83052187.675 9  21164031.63349
  21955804.023 7  21955810.137 9                 115378455.458 7  89905356.590 9
                  21955810.17248
  22861266.609 6                                 120136717.233 6  93613053.63147
                  22861273.00047
  24286168.672 5  24286175.816 8                 127624792.427 5  99447828.265 8
                  24286175.85947
  20211931.719 7                                 106214418.334 7  82764489.15049
                  20211935.72749
  23445673.258 5                                 123207842.390 5  96006161.71547
                  23445680.03547
  22153394.516 6                                 116416927.311 6  90714455.27247
                  22153400.00447
  22692908.102 6  22692916.402 9  22692918.738 9 119252029.842 6  92923698.201 9
  89051881.972 9  22692916.41047
  21981516.773 7  21981525.742 9  21981527.820 9 115513640.346 7  90010674.597 9
  86260238.974 9  21981525.52748
  23420827.695 5  23420834.012 8                 123077073.746 5  95904401.292 8
                  23420833.68447
  22837960.227 6  22837968.605 9  22837969.336 9 120014246.990 6  93517632.684 9
  89621069.165 9  22837968.48047
 16 04 20 00 16 30.0000000  0 11G10G12G14G15G18G20G21G24G25G31G32   
  21161964.711 7  21161972.383 9  21161972.660 9 111206902.486 7  86654722.347 9
  83044107.160 9  21161972.65649
  21955196.273 7  21955201.887 9                 115375261.294 7  89902867.629 9
                  21955202.02348
  22860268.492 6                                 120131469.469 6  93608964.45747
                  22860273.80947
  24287895.836 6  24287902.262 8                 127633866.708 6  99454899.134 8
                  24287902.37947
  20211500.289 7                                 106212151.695 7  82762722.93249
                  20211504.90249
  23448536.805 5                                 123222888.027 5  96017885.57647
                  23448543.74647
  22155573.563 6                                 116428377.180 6  90723377.24047
                  22155578.75847
  22695809.148 6  22695817.371 9  22695819.840 9 119267274.603 6  92935577.241 9
  89063266.041 9  22695817.27747
  21979211.891 7  21979220.621 9  21979222.922 9 115501526.750 7  90001235.428 9
  86251193.106 9  21979220.57048
  23417941.008 5  23417948.059 8                 123061905.967 5  95892582.248 8
                  23417947.90247
  22836706.945 6  22836715.262 9  22836715.965 9 120007659.910 6  93512499.888 9
  89616150.239 9  22836715.10947
 16 04 20 00 16 35.0000000  0 11G10G12G14G15G18G20G21G24G25G31G32   
  21159907.297 7  21159914.750 9  21159915.125 9 111196089.577 7  86646296.704 9
  83036032.580 9  21159915.12149
  21954591.344 7  21954597.262 9                 115372081.841 7  89900390.133 9
                  21954596.77748
  22859269.922 6                                 120126222.071 6  93604875.56947
                  22859275.34847
  24289622.141 5  24289629.828 8                 127642941.000 5  99461970.001 8
                  24289629.96547
  20211071.680 7                                 106209897.166 7  82760966.15649
                  20211075.91449
  23451402.031 5                                 123237940.042 5  96029614.38047
                  23451408.57847
  22157753.648 6                                 116439834.098 6  90732304.69248
                  22157759.30948
  22698710.383 6  22698719.102 9  22698721.477 9 119282522.509 6  92947458.715 9
  89074652.451 9  22698718.85547
  21976908.422 7  21976917.004 9  21976919.152 9 115489421.928 7  89991803.104 9
  86242153.793 9  21976916.97748
  23415057.055 5  23415062.742 8                 123046746.069 5  95880769.336 8
                  23415062.60947
  22835453.625 6  22835461.594 9  22835462.527 9 120001073.165 6  93507367.358 9
  89611231.567 9  22835461.84847
 16 04 20 00 16 40.0000000  0 11G10G12G14G15G18G20G21G24G25G31G32   
  21157851.109 7  21157858.273 9  21157858.555 9 111185284.601 7  86637877.242 9
  83027963.927 9  21157858.66849
  21953989.234 7  21953994.789 9                 115368917.015 7  89897924.033 9
                  21953994.51648
  22858271.203 6                                 120120974.943 6  93600786.90047
                  22858276.73047
  24291349.797 5  24291356.902 8                 127652015.233 5  99469040.818 8
                  24291357.02347
  20210644.617 7                                 106207654.744 7  82759218.81149
                  20210648.91449
  23454267.516 5                                 123252998.306 5  96041348.08347
                  23454273.99247
  22159935.148 6                                 116451297.948 6  90741237.56148
                  22159940.37148
  22701612.391 6  22701621.199 9  22701623.387 9 119297773.544 6  92959342.641 9
  89086041.199 9  22701620.88347
  21974606.234 6  21974615.586 9  21974617.598 9 115477325.807 6  89982377.542 9
  86233120.970 9  21974615.41848
  23412172.992 5  23412179.934 8                 123031593.909 5  95868962.468 8
                  23412179.49247
  22834200.469 6  22834208.355 9  22834209.328 9 119994486.662 6  93502235.013 9
  89606313.068 9  22834208.47347
 16 04 20 00 16 45.0000000  0 11G10G12G14G15G18G20G21G24G25G31G32   
  21155796.727 7  21155803.977 9  21155804.328 9 111174488.034 7  86629464.333 9
  83019901.561 9  21155804.55949
  21953389.680 7  21953395.184 9                 115365767.378 7  89895469.777 9
                  21953395.14548
  22857272.859 6                                 120115728.505 6  93596698.77047
                  22857278.85247
  24293075.930 5  24293083.223 8                 127661089.891 5  99476111.964 8
                  24293083.86747
  20210220.094 7                                 106205424.911 7  82757481.27549
                  20210224.59049
  23457134.047 5                                 123268063.364 5  96053087.07547
                  23457140.09847
  22162118.336 6                                 116462769.279 6  90750176.24948
                  22162123.54348
  22704515.813 6  22704524.414 9  22704526.016 9 119313028.059 6  92971229.242 9
  89097432.538 9  22704524.21547
  21972306.586 7  21972315.379 9  21972317.348 9 115465238.909 7  89972959.189 9
  86224095.041 9  21972315.05548
  23409291.828 5  23409298.465 8                 123016450.061 5  95857162.072 8
                  23409297.93447
  22832947.398 6  22832955.441 9  22832955.898 9 119987900.874 6  93497103.231 9
  89601395.112 9  22832955.16047
 16 04 20 00 16 50.0000000  0 11G10G12G14G15G18G20G21G24G25G31G32   
  21153743.766 7  21153751.082 9  21153751.563 9 111163699.514 7  86621057.692 9
  83011845.196 9  21153751.61749
  21952792.977 7  21952798.906 9                 115362632.556 7  89893027.054 9
                  21952798.77748
  22856274.563 6                                 120110482.486 6  93592610.95947
                  22856280.18847
  24294803.258 5  24294810.637 8                 127670164.631 5  99483183.174 8
                  24294810.98847
  20209798.133 7                                 106203207.229 7  82755753.20449
                  20209802.50449
  23460001.523 5                                 123283134.837 5  96064831.05546
                  23460008.38346
  22164302.203 6                                 116474247.670 6  90759120.43747
                  22164307.85547
  22707419.664 6  22707427.613 9  22707429.379 9 119328285.780 6  92983118.371 9
  89108826.287 9  22707427.98847
  21970008.063 6  21970016.691 9  21970018.691 9 115453160.903 6  89963547.752 9
  86215075.751 9  21970016.45748
  23406411.391 5  23406417.234 8                 123001314.146 5  95845367.858 8
                  23406416.80147
  22831694.047 6  22831702.188 9  22831702.953 9 119981315.468 6  93491971.748 9
  89596477.436 9  22831702.03947
 16 04 20 00 16 55.0000000  0 11G10G12G14G15G18G20G21G24G25G31G32   
  21151692.047 7  21151699.773 9  21151700.121 9 111152919.052 7  86612657.331 9
  83003794.846 9  21151700.06349
  21952199.414 7  21952205.215 9                 115359512.538 7  89890595.872 9
                  21952205.06348
  22855276.156 6                                 120105236.894 6  93588523.48147
                  22855282.02747
  24296529.750 5  24296537.199 8                 127679239.428 5  99490254.430 8
                  24296537.48446
  20209378.313 7                                 106201001.725 7  82754034.63149
                  20209382.70349
  23462870.648 5                                 123298212.669 5  96076580.00746
                  23462876.14546
  22166488.305 6                                 116485733.048 6  90768070.07748
                  22166493.41848
  22710322.859 6  22710331.090 9  22710333.387 9 119343546.747 6  92995010.029 9
  89120222.464 9  22710331.52747
  21967711.445 6  21967720.441 9  21967722.203 9 115441091.707 6  89954143.181 9
  86206063.035 9  21967720.37948
  23403532.391 5  23403538.340 8                 122986186.119 5  95833579.792 8
                  23403538.44547
  22830440.219 6  22830448.723 9  22830449.945 9 119974730.418 6  93486840.539 9
  89591560.030 9  22830449.03147
 16 04 20 00 17 00.0000000  0 11G10G12G14G15G18G20G21G24G25G31G32   
  21149642.203 7  21149649.445 9  21149649.922 9 111142146.664 7  86604263.258 9
  82995750.527 9  21149650.09449
  21951608.477 7  21951613.832 9                 115356407.366 7  89888176.253 9
                  21951613.44148
  22854278.219 6                                 120099991.671 6  93584436.29447
                  22854284.46947
  24298255.805 5  24298263.809 8                 127688314.367 5  99497325.785 8
                  24298264.28547
  20208960.883 7                                 106198808.439 7  82752325.57149
                  20208965.44549
  23465740.953 5                                 123313296.957 5  96088333.98446
                  23465747.36746
  22168675.258 6                                 116497225.466 6  90777025.20048
                  22168680.47348
  22713227.648 5  22713236.141 9  22713238.797 9 119358810.895 5  93006904.163 9
  89131621.006 9  22713236.00447
  21965416.266 7  21965424.969 9  21965427.137 9 115429031.433 7  89944745.566 9
  86197056.984 9  21965425.07848
  23400655.523 5  23400661.680 8                 122971066.051 5  95821797.925 8
                  23400661.27047
  22829188.063 6  22829196.273 9  22829196.965 9 119968145.701 6  93481709.589 9
  89586642.869 9  22829195.99247
 16 04 20 00 17 05.0000000  0 11G10G12G14G15G18G20G21G24G25G31G32   
  21147593.953 7  21147601.176 9  21147601.387 9 111131382.164 7  86595875.341 9
  82987712.103 9  21147601.44149
  21951020.828 7  21951026.285 9                 115353316.813 7  89885768.030 9
                  21951026.12948
  22853280.063 6                                 120094746.642 6  93580349.25247
                  22853286.23047
  24299982.344 5  24299990.055 8                 127697389.188 5  99504397.061 8
                  24299990.80146
  20208546.313 7                                 106196627.176 7  82750625.88049
                  20208550.41449
  23468612.703 5                                 123328387.413 5  96100092.75046
                  23468618.13346
  22170863.398 6                                 116508724.684 6  90785985.62147
                  22170868.97747
  22716132.727 5  22716141.453 9  22716143.859 9 119374078.001 5  93018800.614 9
  89143021.744 9  22716141.12147
  21963122.859 7  21963131.598 9  21963133.789 9 115416979.863 7  89935354.723 9
  86188057.433 9  21963131.55148
  23397779.477 5  23397785.617 8                 122955953.834 5  95810022.175 8
                  23397785.50447
  22827934.688 6  22827942.664 9  22827943.551 9 119961561.161 6  93476578.783 9
  89581725.844 9  22827942.75447
 16 04 20 00 17 10.0000000  0 11G10G12G14G15G18G20G21G24G25G31G32   
  21145547.008 7  21145554.352 9  21145554.508 9 111120625.824 7  86587493.774 9
  82979679.768 9  21145554.62149
  21950435.023 7  21950440.934 9                 115350241.070 7  89883371.348 9
                  21950440.85248
  22852282.063 6                                 120089502.027 6  93576262.54747
                  22852288.14147
  24301709.305 4  24301717.090 8                 127706464.105 4  99511468.404 8
                  24301717.44946
  20208133.359 7                                 106194458.176 7  82748935.74849
                  20208137.57449
  23471485.867 5                                 123343484.288 5  96111856.54346
                  23471491.41446
  22173053.023 6                                 116520230.896 6  90794951.49048
                  22173057.82048
  22719039.305 6  22719047.336 9  22719049.301 9 119389348.322 6  93030699.544 9
  89154424.896 9  22719047.03147
  21960831.539 6  21960840.055 9  21960842.211 9 115404937.258 6  89925970.885 9
  86179064.580 9  21960840.09048
  23394905.500 5  23394911.449 8                 122940849.590 5  95798252.631 8
                  23394911.07047
  22826682.055 6  22826689.727 9  22826690.395 9 119954977.035 6  93471448.287 9
  89576809.118 9  22826689.53947
 16 04 20 00 17 15.0000000  0 11G10G12G14G15G18G20G21G24G25G31G32   
  21143501.758 7  21143509.113 9  21143509.297 9 111109877.563 7  86579118.501 9
  82971653.467 9  21143509.35549
  21949852.555 7  21949858.156 9                 115347180.147 7  89880986.210 9
                  21949858.30948
  22851284.258 6                                 120084257.755 6  93572176.10247
                  22851290.26247
  24303436.141 4  24303443.965 8                 127715539.109 4  99518539.813 8
                  24303443.95346
  20207722.969 7                                 106192301.385 7  82747255.13049
                  20207727.37149
  23474360.250 5                                 123358587.443 5  96123625.20346
                  23474366.16846
  22175244.156 6                                 116531744.089 6  90803922.80648
                  22175249.22348
  22721945.656 6  22721953.629 9  22721955.609 9 119404621.809 6  93042600.949 9
  89165830.413 9  22721953.98447
  21958541.352 6  21958550.465 9  21958552.500 9 115392903.536 6  89916593.952 9
  86170078.358 9  21958550.20748
  23392032.250 5  23392038.895 8                 122925753.335 5  95786489.322 8
                  23392038.50447
  22825428.789 6  22825436.922 9  22825437.887 9 119948393.181 6  93466318.010 9
  89571892.602 9  22825436.85547
 16 04 20 00 17 20.0000000  0 11G10G12G14G15G18G20G21G24G25G31G32   
  21141458.336 7  21141465.594 9  21141465.793 9 111099137.918 7  86570749.947 9
  82963633.606 9  21141465.84849
  21949273.250 7  21949278.813 9                 115344134.497 7  89878612.976 9
                  21949278.86748
  22850286.633 6                                 120079014.357 6  93568090.33247
                  22850292.23447
  24305163.305 5  24305170.789 8                 127724614.692 5  99525611.679 8
                  24305170.55546
  20207314.852 7                                 106190157.307 7  82745584.41449
                  20207319.25049
  23477235.516 5                                 123373697.433 5  96135399.20546
                  23477241.79346
  22177436.234 6                                 116543264.745 6  90812899.92547
                  22177441.24647
  22724852.383 6  22724860.781 9  22724862.402 9 119419898.818 6  93054505.110 9
  89177238.565 9  22724861.18847
  21956253.352 6  21956262.434 9  21956264.582 9 115380879.264 6  89907224.387 9
  86161099.187 9  21956262.46548
  23389161.297 5  23389167.762 8                 122910665.553 5  95774732.611 8
                  23389166.98447
  22824176.281 6  22824184.504 9  22824185.504 9 119941810.198 6  93461188.409 9
  89566976.740 9  22824184.59047
 16 04 20 00 17 25.0000000  0 11G10G12G14G15G18G20G21G24G25G31G32   
  21139415.695 7  21139423.211 9  21139423.445 9 111088406.255 7  86562387.608 9
  82955619.695 9  21139423.61749
  21948696.016 7  21948701.773 9                 115341103.590 7  89876251.234 9
                  21948701.72348
  22849288.695 6                                 120073771.194 6  93564004.74847
                  22849294.26247
  24306891.188 5  24306897.371 8                 127733690.202 5  99532683.509 8
                  24306897.36346
  20206909.102 7                                 106188025.331 7  82743923.13049
                  20206913.74649
  23480111.992 5                                 123388813.591 5  96147177.99447
                  23480118.88747
  22179629.766 6                                 116554792.207 6  90821882.35648
                  22179635.34848
  22727759.719 6  22727768.539 9  22727770.242 9 119435178.765 6  93066411.542 9
  89188648.906 9  22727768.55947
  21953966.727 6  21953975.605 9  21953977.824 9 115368863.816 6  89897861.699 9
  86152126.613 9  21953975.59048
  23386291.922 5  23386298.254 8                 122895585.571 5  95762981.979 8
                  23386298.01247
  22822923.508 6  22822931.992 9  22822932.703 9 119935227.387 6  93456058.952 9
  89562061.004 9  22822931.73047
 16 04 20 00 17 30.0000000  0 11G10G12G14G15G18G20G21G24G25G31G32   
  21137375.055 7  21137382.254 9  21137382.672 9 111077682.662 7  86554031.562 9
  82947611.816 9  21137382.55149
  21948122.469 7  21948128.066 9                 115338087.440 7  89873900.988 9
                  21948127.88748
  22848291.305 6                                 120068528.286 6  93559919.36747
                  22848296.68447
  24308617.844 5  24308624.328 8                 127742765.763 5  99539755.367 8
                  24308624.30546
  20206505.797 7                                 106185905.522 7  82742271.32649
                  20206510.18449
  23482988.688 5                                 123403936.020 5  96158961.67846
                  23482996.65246
  22181824.359 6                                 116566326.512 6  90830870.12448
                  22181829.92248
  22730668.008 6  22730676.918 9  22730678.977 9 119450461.730 6  93078320.349 9
  89200061.508 9  22730676.82847
  21951682.578 7  21951690.934 9  21951693.094 9 115356857.258 7  89888505.938 9
  86143160.675 9  21951690.74248
  23383423.891 5  23383429.793 8                 122880513.516 5  95751237.524 8
                  23383429.51647
  22821671.000 6  22821679.250 9  22821680.117 9 119928644.844 6  93450929.693 9
  89557145.465 9  22821679.08647
 16 04 20 00 17 35.0000000  0 11G10G12G14G15G18G20G21G24G25G31G32   
  21135336.227 8  21135343.402 9  21135343.895 9 111066967.189 8  86545681.840 9
  82939610.004 9  21135343.83249
  21947551.047 7  21947556.766 9                 115335086.120 7  89871562.300 9
                  21947556.74648
  22847293.391 6                                 120063285.697 6  93555834.23247
                  22847299.42247
  24310345.453 5  24310351.895 8                 127751841.362 5  99546827.266 8
                  24310351.10546
  20206104.719 7                                 106183797.918 7  82740629.03749
                  20206108.91449
  23485867.656 5                                 123419064.775 5  96170750.29746
                  23485875.10246
  22184021.391 6                                 116577867.714 6  90839863.25848
                  22184026.20348
  22733577.273 6  22733585.656 9  22733588.023 9 119465747.811 6  93090231.563 9
  89211476.416 9  22733585.69547
  21949398.758 6  21949408.043 9  21949410.070 9 115344859.675 6  89879157.170 9
  86134201.443 9  21949407.54348
  23380557.469 5  23380563.215 8                 122865449.389 5  95739499.252 8
                  23380562.87947
  22820418.336 6  22820426.898 9  22820427.758 9 119922062.600 6  93445800.671 9
  89552230.149 9  22820426.60947
 16 04 20 00 17 40.0000000  0 11G10G12G14G15G18G20G21G24G25G31G32   
  21133298.547 7  21133305.637 9  21133306.141 9 111056259.994 7  86537338.571 9
  82931614.372 9  21133306.08249
  21946982.766 7  21946988.766 9                 115332099.771 7  89869235.276 9
                  21946988.51248
  22846295.742 6                                 120058043.541 6  93551749.43247
                  22846301.45747
  24312072.094 5  24312078.594 8                 127760917.184 5  99553899.341 8
                  24312078.15246
  20205706.063 7                                 106181702.681 7  82738996.38249
                  20205710.32849
  23488748.156 5                                 123434199.920 5  96182543.89246
                  23488755.16846
  22186218.883 6                                 116589415.931 6  90848861.85748
                  22186223.98848
  22736486.563 6  22736495.020 9  22736497.281 9 119481037.017 6  93102145.223 9
  89222893.674 9  22736495.42247
  21947117.836 6  21947126.359 9  21947128.891 9 115332871.163 6  89869815.476 9
  86125248.983 9  21947126.30548
  23377692.289 5  23377698.426 8                 122850393.350 5  95727767.274 8
                  23377698.22747
  22819166.188 6  22819174.086 9  22819174.789 9 119915480.807 6  93440671.996 9
  89547315.176 9  22819173.69947
 16 04 20 00 17 45.0000000  0 11G10G12G14G15G18G20G21G24G25G31G32   
  21131262.617 7  21131270.020 9  21131270.445 9 111045561.169 7  86529001.826 9
  82923624.987 9  21131270.26649
  21946417.375 7  21946423.328 9                 115329128.542 7  89866920.027 9
                  21946423.26648
  22845297.969 6                                 120052801.960 6  93547665.08147
                  22845303.83247
  24313799.883 5  24313805.809 8                 127769993.319 5  99560971.659 8
                  24313805.57446
  20205309.797 7                                 106179619.951 7  82737373.46149
                  20205314.03549
  23491629.938 5                                 123449341.596 5  96194342.56746
                  23491635.98846
  22188417.344 6                                 116600971.277 6  90857866.01548
                  22188423.08648
  22739396.711 6  22739405.141 9  22739406.723 9 119496329.473 6  93114061.413 9
  89234313.350 9  22739405.16047
  21944838.336 6  21944847.355 9  21944849.727 9 115320891.898 6  89860480.973 9
  86116303.423 9  21944847.19948
  23374828.688 5  23374834.961 8                 122835345.549 5  95716041.721 8
                  23374834.30947
  22817913.492 6  22817921.781 9  22817922.590 9 119908899.541 6  93435543.737 9
  89542400.595 9  22817921.61747
 16 04 20 00 17 50.0000000  0 11G10G12G14G15G18G20G21G24G25G31G32   
  21129228.414 7  21129236.129 9  21129236.320 9 111034870.483 7  86520671.422 9
  82915641.677 9  21129236.25849
  21945854.688 7  21945861.039 9                 115326172.112 7  89864616.316 9
                  21945860.82048
  22844300.984 6                                 120047560.628 6  93543580.92147
                  22844307.10947
  24315526.422 5  24315532.383 8                 127779069.466 5  99568043.957 8
                  24315532.85946
  20204915.781 7                                 106177549.396 7  82735760.04449
                  20204920.09449
  23494512.227 5                                 123464489.477 5  96206146.11846
                  23494518.32846
  22190617.414 6                                 116612533.429 6  90866875.47548
                  22190622.93448
  22742307.469 6  22742315.797 9  22742317.148 9 119511624.859 6  93125979.893 9
  89245735.230 9  22742315.64547
  21942560.156 6  21942569.508 9  21942571.477 9 115308921.599 6  89851153.477 9
  86107364.565 9  21942569.18448
  23371965.672 5  23371972.754 8                 122820305.706 5  95704322.362 8
                  23371972.85947
  22816661.414 6  22816669.453 9  22816670.191 9 119902318.533 6  93430415.682 9
  89537486.200 9  22816668.98447
 16 04 20 00 17 55.0000000  0 11G10G12G14G15G18G20G21G24G25G31G32   
  21127195.266 7  21127202.766 9  21127203.191 9 111024187.860 7  86512347.300 9
  82907664.395 9  21127203.25049
  21945295.102 7  21945300.555 9                 115323230.436 7  89862324.099 9
                  21945300.70748
  22843303.383 6                                 120042319.475 6  93539496.90647
                  22843308.97747
  24317254.797 5  24317260.094 8                 127788145.613 5  99575116.272 8
                  24317260.16447
  20204523.914 7                                 106175491.009 7  82734156.10249
                  20204528.41449
  23497396.719 5                                 123479643.536 5  96217954.45946
                  23497402.33246
  22192819.016 6                                 116624102.312 6  90875890.17847
                  22192824.63347
  22745219.125 6  22745227.285 9  22745228.594 9 119526923.121 6  93137900.620 9
  89257159.247 9  22745226.91047
  21940284.156 7  21940293.094 9  21940295.027 9 115296960.222 7  89841832.918 9
  86098432.363 9  21940292.73048
  23369106.172 5  23369112.070 8                 122805273.761 5  95692609.167 8
                  23369112.26247
  22815408.992 6  22815416.801 9  22815417.523 9 119895737.731 6  93425287.784 9
  89532571.971 9  22815416.60947
 16 04 20 00 18 00.0000000  0 11G10G12G14G15G18G20G21G24G25G31G32   
  21125164.313 7  21125171.750 9  21125172.184 9 111013513.573 7  86504029.669 9
  82899693.339 9  21125172.12149
  21944737.938 7  21944743.813 9                 115320303.766 7  89860043.575 9
                  21944743.85548
  22842306.516 6                                 120037078.763 6  93535413.24047
                  22842311.88747
  24318981.313 5  24318987.230 8                 127797221.965 5  99582188.762 8
                  24318987.62546
  20204134.758 7                                 106173444.990 7  82732561.79549
                  20204139.06649
  23500281.625 5                                 123494803.998 5  96229767.80446
                  23500286.61346
  22195021.961 6                                 116635678.151 6  90884910.30047
                  22195027.35247
  22748130.328 6  22748138.961 9  22748140.750 9 119542224.621 6  93149823.858 9
  89268585.691 9  22748138.94947
  21938010.016 7  21938018.328 9  21938020.383 9 115285007.999 7  89832519.499 9
  86089507.002 9  21938017.97348
  23366246.930 5  23366253.691 8                 122790249.952 5  95680902.307 8
                  23366253.50447
  22814156.445 6  22814165.027 9  22814165.875 9 119889157.338 6  93420160.202 9
  89527658.038 9  22814164.90247
 16 04 20 00 18 05.0000000  0 11G10G12G14G15G18G20G21G24G25G31G32   
  21123134.609 7  21123142.133 9  21123142.363 9 111002847.862 7  86495718.727 9
  82891728.684 9  21123142.35949
  21944183.922 7  21944190.184 9                 115317392.328 7  89857774.922 9
                  21944189.96548
  22841309.070 6                                 120031838.723 6  93531330.09447
                  22841314.94147
  24320708.703 5  24320715.156 8                 127806298.767 5  99589261.577 8
                  24320714.59046
  20203748.055 7                                 106171411.637 7  82730977.36849
                  20203752.03549
  23503167.469 5                                 123509971.110 5  96241586.33147
                  23503173.46147
  22197225.906 6                                 116647261.187 6  90893936.03848
                  22197231.28148
  22751042.891 6  22751051.438 9  22751053.512 9 119557529.428 6  93161749.662 9
  89280014.592 9  22751051.30147
  21935737.117 6  21935746.426 9  21935748.211 9 115273065.219 6  89823213.428 9
  86080588.693 9  21935745.68448
  23363390.008 5  23363395.734 8                 122775234.551 5  95669201.997 8
                  23363396.24247
  22812905.070 6  22812912.805 9  22812913.715 9 119882577.632 6  93415033.163 9
  89522744.620 9  22812912.97747
 16 04 20 00 18 10.0000000  0 11G10G12G14G15G18G20G21G24G25G31G32   
  21121106.180 7  21121113.699 9  21121114.195 9 110992190.179 7  86487414.041 9
  82883770.023 9  21121114.19149
  21943632.852 7  21943638.371 9                 115314495.614 7  89855517.747 9
                  21943638.35248
  22840312.109 6                                 120026598.811 6  93527247.04147
                  22840317.97747
  24322435.414 5  24322441.941 8                 127815375.567 5  99596334.395 8
                  24322442.13746
  20203363.266 7                                 106169390.395 7  82729402.36249
                  20203367.56649
  23506054.391 5                                 123525144.328 5  96253409.58146
                  23506061.16046
  22199431.180 6                                 116658850.874 6  90902966.95648
                  22199436.91848
  22753955.859 6  22753964.340 9  22753966.617 9 119572837.042 6  93173677.663 9
  89291445.588 9  22753964.28947
  21933465.906 7  21933474.770 9  21933476.969 9 115261131.328 7  89813914.299 9
  86071677.017 9  21933474.38348
  23360534.023 5  23360540.070 8                 122760226.990 5  95657507.803 8
                  23360540.30147
  22811652.758 6  22811661.316 9  22811661.770 9 119875998.047 6  93409906.210 9
  89517831.296 9  22811660.73847
