     2.10           OBSERVATION DATA    G                   RINEX VERSION / TYPE
NetR9 5.43          SMO                 20200421 010343 UTC PGM / RUN BY / DATE 
gfzrnx-2.1.12       FILE PROCESSING     20250424 025058 UTC COMMENT             
INITIAL_RINEX_VERSION: 2.11                                 COMMENT             
HKTK                                                        MARKER NAME         
23018M001                                                   MARKER NUMBER       
SMO                 Lands Department HKSAR                  OBSERVER / AGENCY   
5337K45547          TRIMBLE NETR9       5.43                REC # / TYPE / VERS 
5338354860          TRM59800.00     SCIS                    ANT # / TYPE        
        0.0083        0.0000        0.0000                  ANTENNA: DELTA H/E/N
 -2418092.3728  5374658.3417  2430429.1904                  APPROX POSITION XYZ 
    10    C1    C2    C5    L1    L2    L5    P2    S1    S2# / TYPES OF OBSERV 
          S5                                                # / TYPES OF OBSERV 
     1     1                                                WAVELENGTH FACT L1/2
L2C CARRIER PHASE MEASUREMENTS: PHASE SHIFTS REMOVED        COMMENT             
L2C PHASE MATCHES L2 P PHASE                                COMMENT             
GLONASS C/A & P PHASE MATCH: PHASE SHIFTS REMOVED           COMMENT             
    18                                                      LEAP SECONDS        
                                                            COMMENT             
EPOCH COUNT     m00  m10  m20  m30  m40  m50                COMMENT             
               ---- ---- ---- ---- ---- ----                COMMENT             
          A     120  120  120  120  120  120                COMMENT             
GFZRNX.NUM_EPOCHS: 720                                      COMMENT
    11                                                      # OF SATELLITES     
   G03   720   720   720   720   720   720   720   720   720PRN / # OF OBS      
         720                                                PRN / # OF OBS      
   G04   195   195   195   193   195   195   195   195   195PRN / # OF OBS      
         195                                                PRN / # OF OBS      
   G10   324   324   324   313   324   324   319   324   324PRN / # OF OBS      
         324                                                PRN / # OF OBS      
   G14   720               720   720         720   720   720PRN / # OF OBS      
                                                            PRN / # OF OBS      
   G16   720               720   720         720   720   720PRN / # OF OBS      
                                                            PRN / # OF OBS      
   G22   720               720   720         720   720   720PRN / # OF OBS      
                                                            PRN / # OF OBS      
   G26   720   720   720   720   720   720   720   720   720PRN / # OF OBS      
         720                                                PRN / # OF OBS      
   G27   704   704   704   683   704   704   704   704   704PRN / # OF OBS      
         704                                                PRN / # OF OBS      
   G29   720   720         716   720         720   720   720PRN / # OF OBS      
                                                            PRN / # OF OBS      
   G31   720   720         720   720         720   720   720PRN / # OF OBS      
                                                            PRN / # OF OBS      
   G32   720   720   720   720   720   720   720   720   720PRN / # OF OBS      
         720                                                PRN / # OF OBS      
     5.000                                                  INTERVAL            
  2020     4    21     0     0    0.0000000     GPS         TIME OF FIRST OBS   
  2020     4    21     0    59   55.0000000     GPS         TIME OF LAST OBS    
                                                            END OF HEADER      
 20 04 21 00 00 00.0000000  0  9G03G10G14G16G22G26G29G31G32          0.000000000
  23737912.11705  23737920.27706  23737921.61708 124743545.18305  97202808.77348
  93152695.70708  23737919.84048        36.800          31.600          45.500  
  24387257.89105  24387267.35505  24387266.54307 128155959.01205  99861756.67245
  95700844.65707  24387266.85245        37.100          19.900          42.500  
  20609387.59408                                 108303073.19708  84391997.32449
                  20609391.57849        47.000          38.500                  
  21698089.13307                                 114024254.11507  88850067.45348
                  21698093.36748        44.900          31.900                  
  22974615.79707                                 120732403.85307  94077205.51847
                  22974617.66447        43.200          27.900                  
  20187864.54709  20187872.00009  20187871.47709 106087914.21709  82665947.38849
  79221524.93909  20187872.25849        49.400          54.000          54.400  
  23517612.50006  23517618.10206                 123585869.99606  96300706.55546
                  23517618.38346        39.000          22.900                  
  21410230.10208  21410234.48008                 112511510.11508  87671320.74249
                  21410234.33249        46.400          47.200                  
  20973311.42209  20973318.70709  20973317.86709 110215549.38609  85882249.54149
  82303819.79709  20973318.27749        50.300          52.900          51.700  
 20 04 21 00 00 05.0000000  0  9G03G10G14G16G22G26G29G31G32          0.000000000
  23736177.92205  23736185.87106  23736187.60208 124734432.10905  97195707.68048
  93145890.48308  23736185.52348        37.200          32.400          45.400  
  24390624.48405  24390632.91805  24390632.27707 128173647.64805  99875540.04646
  95714053.66107  24390633.48446        37.600          20.100          42.200  
  20608951.72708                                 108300780.68508  84390210.95249
                  20608955.23849        46.800          38.600                  
  21695488.50807                                 114010587.03807  88839417.79348
                  21695492.64148        44.600          32.100                  
  22974100.11707                                 120729696.05407  94075095.53247
                  22974102.44147        43.200          29.400                  
  20187364.86709  20187372.10909  20187371.66809 106085287.31909  82663900.45149
  79219563.28509  20187372.38749        49.400          53.900          54.400  
  23517984.94506  23517991.59006                 123587829.12606  96302233.16046
                  23517990.73446        39.300          23.000                  
  21410743.34408  21410747.88708                 112514207.01008  87673422.21649
                  21410747.54349        46.300          47.200                  
  20974473.57809  20974480.68409  20974479.88309 110221655.46309  85887007.51849
  82308379.51909  20974480.35549        50.300          52.900          51.800  
 20 04 21 00 00 10.0000000  0  9G03G10G14G16G22G26G29G31G32          0.000000000
  23734446.27305  23734454.23806  23734455.97308 124725331.92505  97188616.61748
  93139094.87708  23734454.08648        36.500          32.600          45.300  
  24393990.23405  24393998.48405  24393997.91807 128191334.60305  99889322.07646
  95727261.47407  24393999.16046        37.500          20.100          42.100  
  20608517.10208                                 108298498.53508  84388432.65049
                  20608521.06649        47.000          38.700                  
  21692890.07008                                 113996931.67108  88828777.24948
                  21692894.14148        45.200          32.100                  
  22973587.36707                                 120727001.46707  94072995.85047
                  22973589.76247        43.100          28.100                  
  20186867.67209  20186874.90209  20186874.47709 106082674.69609  82661864.63849
  79217612.31309  20186875.15649        49.400          53.800          54.400  
  23518361.16406  23518366.92206                 123589802.41606  96303770.77146
                  23518366.57046        39.400          22.500                  
  21411257.34408  21411261.29708                 112516905.48208  87675524.91949
                  21411261.10949        47.000          47.200                  
  20975637.66409  20975644.72709  20975644.03909 110227773.61509  85891774.91349
  82312948.26609  20975644.74249        49.800          52.800          51.500  
 20 04 21 00 00 15.0000000  0  9G03G10G14G16G22G26G29G31G32          0.000000000
  23732717.28105  23732725.11706  23732726.47308 124716244.46505  97181535.48048
  93132308.76808  23732724.40648        36.800          31.800          45.700  
  24397356.35206  24397364.24605  24397363.47307 128209019.78406  99903102.68145
  95740467.89707  24397364.80145        38.100          19.900          42.100  
  20608084.96108                                 108296226.60608  84386662.31349
                  20608088.63349        47.600          38.600                  
  21690293.47708                                 113983287.79408  88818145.64748
                  21690297.76648        45.000          32.800                  
  22973076.65607                                 120724319.98107  94070906.38247
                  22973079.43847        42.800          27.700                  
  20186373.37509  20186380.45309  20186380.01209 106080076.19809  82659839.83749
  79215671.87309  20186380.62149        49.500          53.900          54.500  
  23518739.17206  23518745.00006                 123591789.74306  96305319.34346
                  23518744.94146        39.500          22.800                  
  21411770.55508  21411775.27308                 112519605.27908  87677628.66049
                  21411774.89849        46.700          47.300                  
  20976803.87509  20976811.31609  20976810.60909 110233903.68809  85896551.58449
  82317525.91709  20976811.04749        50.200          52.800          51.600  
 20 04 21 00 00 20.0000000  0  9G03G10G14G16G22G26G29G31G32          0.000000000
  23730990.71105  23730998.11306  23730999.67208 124707169.73205  97174464.26648
  93125532.22308  23730997.63748        36.800          32.600          45.600  
  24400720.78905  24400729.14105  24400728.53907 128226703.18705  99916881.95245
  95753673.02207  24400729.52045        37.900          19.300          41.500  
  20607654.28108                                 108293964.91508  84384899.95149
                  20607658.10549        47.900          38.900                  
  21687699.77307                                 113969655.48407  88807523.06548
                  21687703.78548        44.900          32.300                  
  22972569.16407                                 120721651.64707  94068827.16247
                  22972571.57847        43.000          28.900                  
  20185881.53109  20185888.76209  20185888.18809 106077491.86309  82657826.06649
  79213742.01209  20185888.83249        49.400          53.800          54.600  
  23519119.77306  23519125.89106                 123593791.18106  96306878.89546
                  23519126.02746        39.500          22.600                  
  21412284.66408  21412289.07808                 112522306.48608  87679733.49249
                  21412288.85549        46.400          47.100                  
  20977973.02309  20977980.38709  20977979.37509 110240045.74909  85901337.60249
  82322112.51409  20977979.72349        50.000          52.800          52.100  
 20 04 21 00 00 25.0000000  0  9G03G10G14G16G22G26G29G31G32          0.000000000
  23729266.30505  23729273.70306  23729275.20308 124698107.85105  97167403.05848
  93118765.22508  23729273.19948        36.800          31.700          45.700  
  24404085.89805  24404093.87505  24404093.19507 128244384.80805  99930659.85746
  95766876.82007  24404094.01246        37.900          20.600          41.400  
  20607225.87508                                 108291713.54308  84383145.64349
                  20607229.79749        47.700          39.000                  
  21685107.19507                                 113956034.77107  88796909.51948
                  21685111.66048        44.900          32.800                  
  22972064.33607                                 120718996.52907  94066758.24347
                  22972066.32447        43.200          29.300                  
  20185392.17209  20185399.58209  20185399.17609 106074921.71509  82655823.35849
  79211822.74809  20185399.68449        49.500          53.800          54.800  
  23519503.35206  23519508.89806                 123595806.69406  96308449.42746
                  23519509.23046        39.600          23.600                  
  21412798.92208  21412803.24208                 112525009.10508  87681839.43049
                  21412803.12949        46.300          47.300                  
  20979144.33609  20979151.51209  20979150.46109 110246199.81209  85906132.97649
  82326708.07709  20979150.80949        50.500          52.900          52.000  
 20 04 21 00 00 30.0000000  0  9G03G10G14G16G22G26G29G31G32          0.000000000
  23727543.60905  23727551.92206  23727553.31308 124689058.80605  97160351.84448
  93112007.80508  23727551.61748        36.900          32.800          45.400  
  24407450.39806  24407458.61705  24407457.60207 128262064.66806  99944436.31546
  95780079.26607  24407458.35946        38.100          20.600          41.600  
  20606799.34408                                 108289472.47208  84381399.34949
                  20606803.31349        47.000          38.600                  
  21682518.08607                                 113942425.64407  88786305.01048
                  21682521.87148        44.500          32.700                  
  22971561.50007                                 120716354.56407  94064699.55547
                  22971563.88747        42.700          28.900                  
  20184905.91409  20184913.63309  20184912.74209 106072365.75709  82653831.69849
  79209914.07009  20184913.39149        49.200          53.800          54.500  
  23519889.05506  23519895.73006                 123597836.31906  96310030.97346
                  23519895.32446        39.500          23.000                  
  21413313.89808  21413318.18008                 112527713.14908  87683946.47249
                  21413317.80949        46.600          47.200                  
  20980317.50809  20980324.59809  20980323.84009 110252365.84709  85910937.67749
  82331312.58509  20980324.20349        50.400          52.800          52.000  
 20 04 21 00 00 35.0000000  0  9G03G10G14G16G22G26G29G31G32          0.000000000
  23725823.61705  23725832.26206  23725833.74208 124680022.55305  97153310.61548
  93105259.96708  23725831.76648        36.900          32.000          45.300  
  24410813.39806  24410822.55505  24410821.50007 128279742.70506  99958211.40746
  95793280.41207  24410822.21146        38.100          20.900          42.000  
  20606375.01608                                 108287241.68108  84379661.07149
                  20606378.79749        47.700          38.700                  
  21679930.41407                                 113928828.12807  88775709.54448
                  21679934.53148        44.700          33.000                  
  22971060.98407                                 120713725.76707  94062651.12847
                  22971063.43047        42.800          29.500                  
  20184422.10909  20184429.38709  20184429.10209 106069823.95209  82651851.07149
  79208015.97409  20184429.70749        49.300          53.900          54.500  
  23520278.58606  23520284.29705                 123599880.03806  96311623.46646
                  23520284.42646        39.400          22.200                  
  21413828.18808  21413832.94507                 112530418.60308  87686054.61549
                  21413832.59449        46.600          47.100                  
  20981492.97709  20981500.32009  20981499.50409 110258543.91109  85915751.75049
  82335926.07509  20981499.86749        49.900          52.800          51.800  
 20 04 21 00 00 40.0000000  0  9G03G10G14G16G22G26G29G31G32          0.000000000
  23724107.76605  23724115.26206  23724116.35508 124670999.26405  97146279.47848
  93098521.78308  23724114.45348        36.800          32.700          45.200  
  24414177.44505  24414186.05505  24414185.58207 128297419.00705  99971985.12646
  95806480.23307  24414186.02046        37.900          20.400          41.700  
  20605952.36708                                 108285021.26708  84377930.87449
                  20605956.09449        47.000          38.800                  
  21677345.06307                                 113915242.35107  88765123.22348
                  21677349.04748        44.900          32.300                  
  22970563.20307                                 120711110.21007  94060613.04547
                  22970565.91447        43.300          27.600                  
  20183941.23409  20183948.61309  20183948.06609 106067296.40009  82649881.54949
  79206128.51609  20183948.74649        49.500          53.900          54.600  
  23520670.45306  23520676.56606                 123601937.96406  96313227.03546
                  23520675.96146        39.400          24.300                  
  21414343.48408  21414348.11707                 112533125.55608  87688163.93049
                  21414347.73849        46.800          47.200                  
  20982670.98409  20982678.25409  20982677.42609 110264734.04409  85920575.22849
  82340548.56309  20982677.73049        50.800          52.800          51.600  
 20 04 21 00 00 45.0000000  0  9G03G10G14G16G22G26G29G31G32          0.000000000
  23722393.09405  23722400.05106  23722401.77008 124661988.67105  97139258.23048
  93091793.07708  23722399.81648        36.200          32.400          45.500  
  24417540.43805  24417548.94105  24417548.64807 128315093.43705  99985757.40446
  95819678.60507  24417549.69946        37.400          20.100          42.100  
  20605531.86708                                 108282811.05008  84376208.62849
                  20605535.79749        47.200          38.400                  
  21674762.09407                                 113901668.06307  88754545.85848
                  21674765.98448        44.500          31.800                  
  22970068.41407                                 120708507.73207  94058585.13447
                  22970070.51647        43.200          28.900                  
  20183463.10909  20183470.27709  20183469.78109 106064782.92709  82647923.00349
  79204251.56109  20183470.40649        49.200          53.700          54.500  
  23521063.66406  23521070.11305                 123604009.89006  96314841.53646
                  23521070.39146        39.400          22.600                  
  21414859.05508  21414863.66007                 112535833.77608  87690274.23149
                  21414863.04749        46.600          47.300                  
  20983851.35909  20983858.02009  20983857.69509 110270936.05709  85925407.96349
  82345179.93009  20983858.16449        49.900          52.600          51.600  
 20 04 21 00 00 50.0000000  0  9G03G10G14G16G22G26G29G31G32          0.000000000
  23720680.75005  23720688.57806  23720689.63308 124652990.87105  97132246.95748
  93085073.96508  23720687.70348        36.700          32.700          45.500  
  24420903.78105  24420912.25005  24420911.66807 128332765.95005  99999528.15845
  95832875.60507  24420912.58645        37.200          19.900          41.700  
  20605113.06308                                 108280611.12708  84374494.39049
                  20605117.08249        47.600          38.700                  
  21672180.83607                                 113888105.37907  88743977.53248
                  21672185.18048        44.700          32.400                  
  22969576.01607                                 120705918.39407  94056567.46347
                  22969577.68047        43.400          28.700                  
  20182987.19509  20182994.66009  20182994.17609 106062283.56909  82645975.44749
  79202385.16809  20182994.76649        49.300          53.900          54.500  
  23521461.53906  23521466.98805                 123606095.91706  96316466.99446
                  23521467.58246        39.900          22.600                  
  21415374.41408  21415378.81307                 112538543.37408  87692385.60449
                  21415378.75449        46.700          47.200                  
  20985033.75009  20985040.96109  20985040.16409 110277150.04809  85930250.02549
  82349820.24909  20985040.60549        50.500          52.800          51.700  
 20 04 21 00 00 55.0000000  0  9G03G10G14G16G22G26G29G31G32          0.000000000
  23718970.95305  23718978.10506  23718979.90208 124644005.96605  97125245.74448
  93078364.46208  23718978.18448        37.000          32.500          45.600  
  24424266.82005  24424274.71905  24424274.22707 128350436.62405 100013297.50046
  95846071.26507  24424275.37946        37.600          20.600          41.400  
  20604696.50008                                 108278421.61408  84372788.27549
                  20604700.24649        47.200          38.400                  
  21669602.43007                                 113874554.39507  88733418.33248
                  21669606.43448        44.900          32.100                  
  22969084.91407                                 120703342.25707  94054560.06947
                  22969087.64547        42.900          29.300                  
  20182514.35909  20182521.72709  20182521.27309 106059798.45109  82644038.99349
  79200529.38909  20182521.96949        49.700          53.800          54.700  
  23521861.00006  23521866.53105                 123608196.12106  96318103.52346
                  23521866.89846        39.800          23.300                  
  21415890.79708  21415894.92207                 112541254.42608  87694498.11249
                  21415894.70749        46.700          47.500                  
  20986218.59409  20986225.63709  20986224.92209 110283376.07309  85935101.47449
  82354469.55909  20986225.18449        50.000          52.700          51.500  
 20 04 21 00 01 00.0000000  0  9G03G10G14G16G22G26G29G31G32          0.000000000
  23717263.52305  23717271.05906  23717272.60208 124635033.89205  97118254.50948
  93071664.53308  23717270.58648        37.000          31.900          45.600  
  24427627.99205  24427636.78505  24427636.70707 128368105.48905 100027065.46545
  95859265.48707  24427637.66445        37.200          19.000          41.900  
  20604281.92208                                 108276242.40908  84371090.19749
                  20604285.70349        47.900          38.500                  
  21667025.88307                                 113861014.97707  88722868.13448
                  21667030.18848        44.700          32.400                  
  22968597.67207                                 120700779.22907  94052562.92547
                  22968599.71147        43.100          28.200                  
  20182044.18809  20182051.51609  20182051.10209 106057327.42609  82642113.51949
  79198684.15009  20182051.73049        49.400          53.900          54.700  
  23522263.21906  23522269.10506                 123610310.41406  96319751.02846
                  23522269.24646        39.700          23.800                  
  21416406.69508  21416411.02007                 112543966.83908  87696611.68249
                  21416410.82449        46.500          47.300                  
  20987405.58609  20987412.74209  20987411.98809 110289614.06009  85939962.23749
  82359127.79209  20987412.28949        50.600          52.800          51.700  
 20 04 21 00 01 05.0000000  0  9G03G10G14G16G22G26G29G31G32          0.000000000
  23715557.79705  23715566.84806  23715567.76608 124626074.71805  97111273.32948
  93064974.22008  23715565.70748        37.200          32.500          45.300  
  24430990.24205  24430999.02705  24430998.50007 128385772.47505 100040831.90445
  95872458.34607  24430999.49645        37.100          19.000          41.300  
  20603869.15608                                 108274073.53808  84369400.16249
                  20603872.94549        47.700          38.700                  
  21664451.25007                                 113847487.24307  88712327.04248
                  21664455.93048        44.900          32.700                  
  22968112.65607                                 120698229.37807  94050576.01547
                  22968114.70347        43.400          28.600                  
  20181576.82809  20181584.32009  20181583.48809 106054870.58609  82640199.09749
  79196849.49909  20181584.09049        50.000          53.900          54.600  
  23522668.63306  23522673.87105                 123612438.81106  96321409.50846
                  23522674.25846        39.900          23.900                  
  21416923.00008  21416927.28908                 112546680.69608  87698726.36749
                  21416927.34849        46.700          47.300                  
  20988595.11709  20988602.14108  20988601.44509 110295864.06609  85944832.36849
  82363794.98809  20988601.71949        50.000          52.900          51.400  
 20 04 21 00 01 10.0000000  0  9G03G10G14G16G22G26G29G31G32          0.000000000
  23713855.93005  23713863.98806  23713865.17608 124617128.34405  97104302.13048
  93058293.51008  23713863.58648        37.100          31.800          45.300  
  24434352.18005  24434360.53905  24434360.43407 128403437.59505 100054596.93845
  95885649.78807  24434360.87545        36.900          18.600          41.600  
  20603458.37508                                 108271914.99908  84367718.18549
                  20603462.18449        47.300          38.500                  
  21661879.81307                                 113833971.15107  88701795.02248
                  21661883.79748        44.800          32.600                  
  22967629.99207                                 120695692.68707  94048599.37247
                  22967631.85947        43.200          26.800                  
  20181112.14809  20181119.50809  20181118.69509 106052427.89409  82638295.69349
  79195025.40409  20181119.25049        49.900          53.600          54.500  
  23523076.30506  23523081.54306                 123614581.32606  96323079.00546
                  23523081.54746        39.900          24.800                  
  21417439.11708  21417444.33207                 112549395.91708  87700842.12249
                  21417443.93049        46.400          46.900                  
  20989786.50809  20989793.79309  20989793.02309 110302126.06509  85949711.84749
  82368471.15409  20989793.28149        50.400          52.400          51.600  
 20 04 21 00 01 15.0000000  0  9G03G10G14G16G22G26G29G31G32          0.000000000
  23712155.53905  23712163.84406  23712165.07408 124608194.93305  97097341.02848
  93051622.42608  23712163.64148        37.400          32.000          45.600  
  24437712.90605  24437721.53105  24437721.03107 128421100.78005 100068360.41745
  95898839.82807  24437722.25445        36.900          19.000          41.400  
  20603049.65608                                 108269766.87708  84366044.32149
                  20603053.43849        46.700          38.700                  
  21659309.77307                                 113820466.77907  88691272.12948
                  21659314.10248        44.800          32.400                  
  22967149.71907                                 120693169.15507  94046632.97647
                  22967151.80547        43.300          27.700                  
  20180649.78109  20180657.14509  20180656.64509 106049999.38809  82636403.35249
  79193211.91309  20180657.16449        49.300          53.800          54.400  
  23523486.60206  23523492.07805                 123616738.08606  96324759.60046
                  23523492.21146        40.000          23.000                  
  21417956.39108  21417961.12907                 112552112.56708  87702958.99149
                  21417960.88349        46.300          47.200                  
  20990980.55509  20990987.66809  20990986.93009 110308400.11309  85954600.71149
  82373156.31309  20990987.24649        50.300          52.700          51.800  
 20 04 21 00 01 20.0000000  0 10G03G10G14G16G22G26G27G29G31G32       0.000000000
  23710458.60205  23710466.19106  23710467.80108 124599274.30705  97090389.88848
  93044960.93308  23710466.15648        37.500          32.400          45.700  
  24441073.93005  24441082.60905  24441081.92606 128438761.99105 100082122.38546
  95912028.36106  24441083.18046        37.200          20.100          40.900  
  20602642.65608                                 108267629.05808  84364378.49249
                  20602646.63349        46.900          38.900                  
  21656742.01607                                 113806974.01007  88680758.29148
                  21656746.48448        44.900          33.100                  
  22966671.67207                                 120690658.72807  94044676.79947
                  22966674.07847        43.000          29.100                  
  20180190.16409  20180197.95309  20180197.12109 106047584.98009  82634522.00349
  79191408.94009  20180197.77749        49.300          53.900          54.500  
  25343026.71905  25343036.63304  25343036.03906 133178513.48805 103775495.99447
  99451512.55106  25343035.75447        35.300          27.200          40.500  
  23523899.76606  23523905.74606                 123618908.92006  96326451.15646
                  23523905.18846        40.100          22.800                  
  21418473.54708  21418478.22308                 112554830.53608  87705076.88049
                  21418478.07449        46.300          47.300                  
  20992176.84409  20992184.02009  20992183.11709 110314686.09609  85959498.87849
  82377850.38809  20992183.26649        50.800          52.800          51.500  
 20 04 21 00 01 25.0000000  0 10G03G10G14G16G22G26G27G29G31G32       0.000000000
  23708762.57805  23708771.37906  23708772.83608 124590366.59805  97083448.81748
  93038309.08408  23708770.69148        36.400          32.200          45.400  
  24444435.25005  24444443.41805  24444442.07807 128456421.32405 100095882.89846
  95925215.53307  24444443.64146        37.000          20.600          41.100  
  20602237.84408                                 108265501.62608  84362720.74849
                  20602241.87149        46.800          38.500                  
  21654177.10207                                 113793492.98807  88670253.60148
                  21654181.07848        44.600          32.300                  
  22966196.71907                                 120688161.48807  94042730.89047
                  22966198.97347        43.100          28.700                  
  20179733.78909  20179740.87909  20179740.39809 106045184.71909  82632651.66049
  79189616.53709  20179741.01649        49.300          53.900          54.400  
  25339866.66404  25339875.40604  25339875.42607 133161903.97504 103762553.51347
  99439109.35207  25339874.93847        34.700          26.900          41.100  
  23524315.29706  23524321.21105                 123621093.86306  96328153.70546
                  23524320.85246        40.100          22.900                  
  21418991.37508  21418995.71508                 112557549.92808  87707195.88549
                  21418995.71949        46.600          47.500                  
  20993375.10209  20993382.11309  20993381.61309 110320984.10409  85964406.41049
  82382553.44709  20993381.75449        50.200          52.700          51.400  
 20 04 21 00 01 30.0000000  0 10G03G10G14G16G22G26G27G29G31G32       0.000000000
  23707070.45305  23707077.89506  23707080.13708 124581471.78405  97076517.79048
  93031666.82808  23707078.21548        37.600          33.000          45.500  
  24447794.91405  24447803.75805  24447802.39807 128474078.75805 100109641.89845
  95938401.24707  24447803.67645        37.700          19.900          41.100  
  20601834.77308                                 108263384.57708  84361071.10249
                  20601838.94949        46.800          38.700                  
  21651613.60907                                 113780023.64607  88659758.00948
                  21651617.68848        44.700          32.400                  
  22965723.32007                                 120685677.35207  94040795.19147
                  22965726.20347        43.000          28.800                  
  20179279.66409  20179286.99609  20179286.37509 106042798.59509  82630792.34349
  79187834.68809  20179287.03149        49.400          53.900          54.500  
  25336704.31304  25336714.01605  25336713.50007 133145288.75704 103749606.58747
  99426701.86907  25336713.26647        34.300          26.500          41.100  
  23524734.00006  23524739.89805                 123623292.89006  96329867.21846
                  23524739.03546        40.000          24.800                  
  21419509.21108  21419513.77008                 112560270.64308  87709315.91849
                  21419513.42649        46.400          47.300                  
  20994576.00809  20994583.02009  20994582.40609 110327294.09609  85969323.28649
  82387265.45309  20994582.69549        50.000          52.800          51.800  
 20 04 21 00 01 35.0000000  0 10G03G10G14G16G22G26G27G29G31G32       0.000000000
  23705380.63305  23705388.52006  23705389.78908 124572589.81105  97069596.76548
  93025034.19608  23705387.86748        37.200          32.100          46.000  
  24451154.16406  24451163.73005  24451162.28907 128491734.24806 100123399.40446
  95951585.51007  24451163.55146        38.100          20.100          41.300  
  20601434.07808                                 108261277.90908  84359429.53349
                  20601438.10549        46.700          38.900                  
  21649053.00807                                 113766566.02007  88649271.54648
                  21649057.05548        44.700          32.100                  
  22965253.37507                                 120683206.37707  94038869.76347
                  22965255.96947        43.300          28.700                  
  20178828.12509  20178835.60209  20178834.84009 106040426.56409  82628944.00949
  79186063.37509  20178835.60249        49.500          53.900          54.700  
  25333542.38303  25333550.73404  25333550.83606                 103736646.10104
  99414290.10006  25333550.37546        32.500          23.900          40.800  
  23525155.03106  23525160.92205                 123625506.04606  96331591.75946
                  23525160.57046        39.900          23.000                  
  21420026.82808  21420031.57808                 112562992.71508  87711437.01749
                  21420031.45349        46.600          47.200                  
  20995778.91409  20995785.99609  20995785.45309 110333616.07109  85974249.48949
  82391986.40409  20995785.64549        50.000          52.700          51.600  
 20 04 21 00 01 40.0000000  0 10G03G10G14G16G22G26G27G29G31G32       0.000000000
  23703692.58605  23703700.12506  23703702.00408 124563720.78005  97062685.82548
  93018411.22308  23703700.29748        37.400          32.900          45.700  
  24454513.81305  24454522.49605  24454521.37107 128509387.74805 100137155.36146
  95964768.31807  24454523.01246        37.900          21.100          41.200  
  20601034.68808                                 108259181.67208  84357796.10749
                  20601039.17649        46.800          38.900                  
  21646494.05507                                 113753120.06507  88638794.17948
                  21646498.50448        44.900          31.900                  
  22964785.70307                                 120680748.57807  94036954.59347
                  22964788.30947        43.400          28.900                  
  20178379.57009  20178386.96509  20178386.15609 106038068.73409  82627106.73949
  79184302.65409  20178386.88749        49.300          53.900          54.400  
  25330377.71903  25330386.41004  25330386.93006 133112041.07503 103723699.29546
  99401874.06806  25330386.40246        32.400          22.900          40.700  
  23525578.82806  23525584.48806                 123627733.34306  96333327.30346
                  23525584.31646        39.700          22.800                  
  21420545.36708  21420549.66408                 112565716.19108  87713559.20449
                  21420549.72349        46.700          47.300                  
  20996984.07809  20996991.37909  20996990.66809 110339950.08009  85979185.08149
  82396716.33909  20996991.07449        50.500          52.600          51.700  
 20 04 21 00 01 45.0000000  0 10G03G10G14G16G22G26G27G29G31G32       0.000000000
  23702008.50005  23702015.13706  23702016.81308 124554864.60405  97055784.92048
  93011797.83408  23702014.89548        37.700          32.100          45.300  
  24457873.50805  24457881.36705  24457880.97707 128527039.24805 100150909.74445
  95977949.62107  24457881.74245        37.800          19.900          41.400  
  20600638.16408                                 108257095.81308  84356170.75749
                  20600642.35949        47.300          38.700                  
  21643937.46907                                 113739685.79607  88628325.92348
                  21643941.95348        44.700          33.200                  
  22964320.88307                                 120678303.83307  94035049.58347
                  22964323.06347        43.000          28.200                  
  20177933.55509  20177940.94909  20177940.13309 106035724.97009  82625280.42749
  79182552.43909  20177940.92249        49.400          53.800          54.400  
  25327212.28102  25327221.64804  25327221.84406 133095408.63002 103710738.97046
  99389453.77506  25327221.25446        31.500          22.500          40.000  
  23526005.78906  23526011.35505                 123629974.77106  96335073.89646
                  23526011.04346        39.800          22.600                  
  21421063.83608  21421068.23808                 112568440.99008  87715682.41849
                  21421068.16849        46.700          47.200                  
  20998191.63309  20998198.84009  20998198.32409 110346296.03109  85984129.97749
  82401455.19509  20998198.57049        50.200          52.500          51.500  
 20 04 21 00 01 50.0000000  0 10G03G10G14G16G22G26G27G29G31G32       0.000000000
  23700324.48405  23700332.27706  23700334.25408 124546021.38705  97048894.10348
  93005194.13508  23700332.27348        36.800          31.800          45.800  
  24461231.45306  24461239.48805  24461239.50007 128544688.82806 100164662.69345
  95991129.49007  24461240.00445        38.200          19.900          41.400  
  20600243.39108                                 108255020.41208  84354553.56149
                  20600247.30949        46.900          38.400                  
  21641383.46907                                 113726263.31207  88617866.85048
                  21641387.69548        44.700          33.300                  
  22963857.87507                                 120675872.30007  94033154.88747
                  22963860.10547        43.000          28.200                  
  20177490.11709  20177497.26209  20177496.89109 106033395.38309  82623465.16149
  79180812.81409  20177497.55949        49.600          53.800          54.300  
  25324045.96101  25324055.35903  25324055.54706 133078770.57801 103697774.26546
  99377029.25606  25324054.89846        29.400          20.900          39.500  
  23526434.12506  23526440.41005                 123632230.41206  96336831.52746
                  23526440.08246        39.200          22.300                  
  21421582.50008  21421586.91408                 112571167.22808  87717806.75549
                  21421586.94949        46.500          47.200                  
  20999401.64109  20999408.70709  20999408.23409 110352654.05209  85989084.27349
  82406203.06809  20999408.54749        49.700          52.600          51.700  
 20 04 21 00 01 55.0000000  0 10G03G10G14G16G22G26G27G29G31G32       0.000000000
  23698644.82005  23698652.37906  23698653.79308 124537191.06905  97042013.33948
  92998600.05608  23698651.96948        37.300          32.400          46.100  
  24464589.10205  24464598.08205  24464598.06307 128562336.37605 100178414.02245
  96004307.83707  24464598.10245        37.900          19.000          41.600  
  20599849.98408                                 108252955.41808  84352944.46949
                  20599854.34449        46.900          38.700                  
  21638831.45307                                 113712852.55507  88607416.90148
                  21638835.54348        44.800          33.100                  
  22963397.66407                                 120673453.85007  94031270.36447
                  22963400.08647        43.000          27.900                  
  20177049.78909  20177056.94509  20177056.27709 106031079.87509  82621660.87449
  79179083.70709  20177056.99249        49.400          53.800          54.300  
  25320878.02301  25320888.00403  25320888.57406 133062126.77601 103684805.05245
  99364600.48506  25320887.32445        30.100          19.900          38.100  
  23526866.85206  23526872.65605                 123634500.13706  96338600.12646
                  23526871.86746        39.800          22.600                  
  21422101.57008  21422106.22708                 112573894.78808  87719932.13149
                  21422105.96949        46.900          47.300                  
  21000613.38309  21000621.02309  21000620.37109 110359024.05709  85994047.90849
  82410959.87809  21000620.55949        49.800          52.500          51.500  
 20 04 21 00 02 00.0000000  0 10G03G10G14G16G22G26G27G29G31G32       0.000000000
  23696965.71905  23696974.14806  23696975.87108 124528373.71105  97035142.65848
  92992015.66308  23696974.06348        36.900          32.200          45.600  
  24467947.21105  24467956.01605  24467956.05107 128579981.96005 100192163.79945
  96017484.69307  24467955.99245        37.900          19.900          41.300  
  20599459.29708                                 108250900.91108  84351343.55549
                  20599463.46549        47.000          38.700                  
  21636281.93007                                 113699453.57007  88596976.13648
                  21636285.78948        44.700          32.600                  
  22962939.98407                                 120671048.57207  94029396.12347
                  22962942.24647        42.800          28.100                  
  20176611.73409  20176618.85909  20176618.28109 106028778.53409  82619867.62049
  79177365.16409  20176619.07049        49.400          53.800          54.600  
  25317711.07001  25317719.07003  25317719.72305                 103671822.51803
  99352167.45605  25317719.35245        30.500          19.600          37.500  
  23527301.66406  23527306.75806                 123636783.98406  96340379.75346
                  23527306.88346        39.600          22.800                  
  21422620.99208  21422625.55507                 112576623.71508  87722058.56949
                  21422625.30149        47.000          47.200                  
  21001828.39109  21001835.46909  21001834.90209 110365406.07709  85999020.90749
  82415725.66609  21001835.12149        50.200          52.600          51.600  
 20 04 21 00 02 05.0000000  0 10G03G10G14G16G22G26G27G29G31G32       0.000000000
  23695291.17205  23695298.57406  23695300.19508 124519569.28105  97028282.06448
  92985440.92808  23695298.16448        37.100          31.000          45.700  
  24471304.74205  24471313.77705  24471313.28507 128597625.49005 100205912.00045
  96030660.05907  24471313.39145        37.900          19.300          41.600  
  20599070.25008                                 108248856.82808  84349750.76049
                  20599074.55149        46.900          38.800                  
  21633734.15607                                 113686066.35107  88586544.53348
                  21633738.36748        44.700          32.200                  
  22962484.79707                                 120668656.47407  94027532.14147
                  22962487.23847        42.800          28.100                  
  20176176.30509  20176183.88309  20176182.98009 106026491.29809  82618085.35249
  79175657.16609  20176183.87549        49.300          53.800          54.400  
  25314541.17201  25314550.35903  25314550.64105 133028822.36601 103658853.53146
  99339730.22505  25314550.17646        30.500          21.300          37.600  
  23527738.69506  23527744.17605                 123639081.94006  96342170.37246
                  23527744.09046        39.600          22.600                  
  21423140.63308  21423145.07407                 112579354.02208  87724186.07749
                  21423144.91849        46.700          47.200                  
  21003044.81309  21003052.37509  21003051.47309 110371800.10009  86004003.25949
  82420500.42009  21003051.88349        50.200          52.500          51.300  
 20 04 21 00 02 10.0000000  0 10G03G10G14G16G22G26G27G29G31G32       0.000000000
  23693618.52305  23693626.46906  23693627.43008 124510777.74105  97021431.51948
  92978875.81708  23693625.39548        37.000          32.300          45.700  
  24474661.69505  24474670.47305  24474669.88307 128615267.02605 100219658.64145
  96043833.88507  24474670.56345        37.900          19.900          41.600  
  20598683.48408                                 108246823.15108  84348166.07749
                  20598687.62149        47.000          38.700                  
  21631188.67207                                 113672690.86407  88576122.07848
                  21631193.28548        44.700          32.600                  
  22962031.96907                                 120666277.47907  94025678.38147
                  22962034.58647        42.900          28.200                  
  20175743.89809  20175751.18809  20175750.46109 106024218.14909  82616314.07349
  79173959.67909  20175751.28949        49.300          53.800          54.300  
  25311370.73401  25311380.13703  25311380.36706 133012161.62101 103645871.12556
  99327288.77006  25311379.71146        30.800          22.000          38.400  
  23528177.64806  23528184.67205                 123641394.01506  96343971.99646
                  23528184.14146        39.700          22.300                  
  21423660.50008  21423664.58608                 112582085.65908  87726314.62249
                  21423664.69149        46.700          47.300                  
  21004264.04709  21004271.11709  21004270.50009 110378206.09409  86008994.94149
  82425284.11909  21004270.90649        49.900          52.500          51.600  
 20 04 21 00 02 15.0000000  0 10G03G10G14G16G22G26G27G29G31G32       0.000000000
  23691947.83605  23691955.37506  23691956.85908 124501999.19305  97014591.09148
  92972320.41808  23691954.78948        37.700          32.200          45.800  
  24478018.03105  24478027.14105  24478026.16007 128632906.48605 100233403.64645
  96057006.23807  24478027.08245        37.200          19.300          41.200  
  20598298.53108                                 108244800.00008  84346589.59549
                  20598302.39549        47.000          38.700                  
  21628646.21108                                 113659327.18408  88565708.82348
                  21628650.07448        45.100          32.400                  
  22961582.05507                                 120663911.65307  94023834.87647
                  22961584.45747        42.700          27.400                  
  20175313.88309  20175321.34809  20175320.50809 106021959.19209  82614553.84149
  79172272.79409  20175321.38749        50.100          53.900          54.200  
  25308198.51601  25308209.01203  25308209.25406 132995495.37101 103632884.43556
  99314843.18206  25308208.12146        28.600          20.900          39.400  
  23528620.79706  23528627.03506                 123643720.29006  96345784.66846
                  23528626.92646        39.800          23.600                  
  21424180.24208  21424184.89108                 112584818.68208  87728444.25149
                  21424184.78149        46.500          47.300                  
  21005485.34409  21005492.60209  21005491.87909 110384624.17709  86013996.04549
  82430076.83309  21005492.20749        50.000          52.500          51.500  
 20 04 21 00 02 20.0000000  0 10G03G10G14G16G22G26G27G29G31G32       0.000000000
  23690279.43805  23690287.26606  23690288.99608 124493233.57105  97007760.72148
  92965774.65008  23690287.10548        37.500          32.900          45.800  
  24481375.35905  24481383.03105  24481383.03507 128650543.88705 100247147.06745
  96070176.99707  24481383.52045        37.400          19.900          41.200  
  20597915.54708                                 108242787.27808  84345021.23149
                  20597919.52349        47.000          39.200                  
  21626105.39808                                 113645975.23108  88555304.70448
                  21626109.44148        45.200          32.400                  
  22961134.17207                                 120661558.93307  94022001.59747
                  22961136.52047        42.700          28.700                  
  20174886.60209  20174894.12509  20174893.30909 106019714.27709  82612804.55749
  79170596.39409  20174894.12549        49.800          53.700          54.400  
  25305027.48401  25305036.36703  25305036.56306                 103619884.29913
  99302393.33606  25305035.86745        28.900          19.900          39.600  
  23529066.18006  23529072.51206                 123646060.66006  96347608.34146
                  23529072.13346        39.900          22.900                  
  21424700.70308  21424705.34007                 112587553.03608  87730574.91249
                  21424705.11749        46.700          47.300                  
  21006708.82809  21006716.36709  21006715.44509 110391054.21109  86019006.45049
  82434878.47609  21006715.78549        49.700          52.500          51.500  
 20 04 21 00 02 25.0000000  0 10G03G10G14G16G22G26G27G29G31G32       0.000000000
  23688613.75005  23688622.42606  23688623.34008 124484480.94205  97000940.49748
  92959238.57108  23688621.55148        37.700          32.400          45.200  
  24484731.44505  24484739.75005  24484738.76207 128668179.21905 100260888.88845
  96083346.22007  24484739.86745        37.100          19.300          41.100  
  20597534.43808                                 108240785.07608  84343461.08049
                  20597538.54749        46.800          38.600                  
  21623566.72708                                 113632635.05708  88544909.77048
                  21623570.87148        45.300          32.900                  
  22960688.89807                                 120659219.32107  94020178.51547
                  22960691.45347        42.900          28.500                  
  20174462.18009  20174469.66409  20174468.77309 106017483.48009  82611066.27449
  79168930.53809  20174469.66049        49.800          53.800          54.200  
  25301853.78901  25301861.70703  25301862.87906                 103606888.78703
  99289939.33406  25301862.00445        28.600          18.600          38.800  
  23529514.17206  23529520.12106                 123648415.21506  96349443.06746
                  23529520.41046        39.400          22.600                  
  21425221.36708  21425225.80908                 112590288.73108  87732706.62649
                  21425225.59049        46.300          47.300                  
  21007934.93809  21007942.17609  21007941.23009 110397496.24709  86024026.21649
  82439689.09009  21007941.77749        50.300          52.500          51.400  
 20 04 21 00 02 30.0000000  0 10G03G10G14G16G22G26G27G29G31G32       0.000000000
  23686950.63305  23686958.53906  23686960.04308 124475741.22705  96994130.32548
  92952712.18908  23686958.37548        37.100          32.800          45.700  
  24488086.38305  24488095.33205  24488094.71907 128685812.48605 100274629.04845
  96096513.92707  24488095.37945        36.800          19.000          41.800  
  20597155.89108                                 108238793.40008  84341909.12549
                  20597159.54749        47.000          38.800                  
  21621030.42207                                 113619306.67607  88534524.00748
                  21621034.47348        44.900          32.300                  
  22960245.58607                                 120656892.85007  94018365.66447
                  22960248.55147        42.300          27.000                  
  20174040.38309  20174047.78909  20174047.03109 106015266.80009  82609338.98749
  79167275.22309  20174047.75449        49.200          53.800          54.400  
  25298678.50801  25298687.42604  25298688.27306 132945462.58101 103593897.91646
  99277481.13106  25298687.14546        29.400          20.100          38.900  
  23529965.14806  23529970.88306                 123650783.93506  96351288.81446
                  23529971.43046        39.500          23.500                  
  21425742.21908  21425746.86307                 112593025.77208  87734839.37749
                  21425746.48449        46.600          47.300                  
  21009162.90609  21009170.15209  21009169.39109 110403950.30609  86029055.34849
  82444508.67409  21009170.02749        50.000          52.500          51.200  
 20 04 21 00 02 35.0000000  0 10G03G10G14G16G22G26G27G29G31G32       0.000000000
  23685290.80505  23685298.16006  23685299.19108 124467014.44505  96987330.24348
  92946195.41908  23685297.90248        37.900          32.400          45.300  
  24491441.43805  24491450.18005  24491449.63307 128703443.62805 100288367.60145
  96109679.99907  24491450.41045        37.200          19.900          42.200  
  20596778.41408                                 108236812.10308  84340365.24949
                  20596782.34849        47.000          38.600                  
  21618496.03107                                 113605990.05107  88524147.41948
                  21618500.28948        44.900          31.900                  
  22959806.09407                                 120654579.45607  94016563.02147
                  22959808.39147        42.800          28.500                  
  20173621.39109  20173628.61309  20173627.77709 106013064.15609  82607622.64149
  79165630.38609  20173628.68049        49.100          53.400          54.300  
  25295502.89801  25295511.75003  25295512.48806                 103580884.67703
  99265018.71206  25295511.59846        30.700          21.800          39.000  
  23530418.96106  23530424.57806                 123653166.77106  96353145.56246
                  23530424.65246        39.600          22.300                  
  21426263.05508  21426267.60907                 112595764.09008  87736973.12949
                  21426267.56649        46.200          46.800                  
  21010393.33609  21010400.80108  21010399.93409 110410416.31709  86034093.79749
  82449337.17909  21010400.17249        50.200          52.100          51.200  
 20 04 21 00 02 40.0000000  0 10G03G10G14G16G22G26G27G29G31G32       0.000000000
  23683632.38305  23683639.68406  23683641.19108 124458300.69305  96980540.29448
  92939688.39608  23683639.60948        37.500          32.700          45.800  
  24494796.74205  24494805.24206  24494804.66007 128721072.72905 100302104.55545
  96122844.54707  24494805.01245        37.400          19.600          41.700  
  20596403.31308                                 108234841.39408  84338829.63249
                  20596407.52349        46.900          38.800                  
  21615964.68008                                 113592685.29608  88513780.07848
                  21615968.39148        45.400          33.000                  
  22959368.16407                                 120652279.28607  94014770.66947
                  22959370.84447        42.800          26.800                  
  20173204.71909  20173212.27309  20173211.38309 106010875.69409  82605917.34749
  79163996.14309  20173212.31349        49.100          53.700          54.500  
  25292325.50801  25292334.99205  25292335.93406 132912079.47101 103567885.09146
  99252552.16306  25292334.71146        29.400          22.300          39.700  
  23530874.25006  23530881.00406                 123655563.83806  96355013.41546
                  23530880.92246        40.000          23.900                  
  21426784.70308  21426789.01608                 112598503.82808  87739107.98749
                  21426789.00049        46.400          47.300                  
  21011625.98409  21011633.38709  21011632.53109 110416894.39809  86039141.65049
  82454174.71109  21011633.09449        49.600          52.500          51.300  
 20 04 21 00 02 45.0000000  0 10G03G10G14G16G22G26G27G29G31G32       0.000000000
  23681976.66405  23681984.36306  23681985.58208 124449599.93605  96973760.49048
  92933191.09908  23681983.77348        37.800          32.400          45.600  
  24498150.41405  24498158.91405  24498158.82007 128738699.69005 100315839.81245
  96136007.54007  24498159.32045        36.300          17.800          41.700  
  20596030.21908                                 108232881.23308  84337302.24049
                  20596034.39149        47.200          38.800                  
  21613434.89808                                 113579392.40808  88503421.98548
                  21613438.75848        45.100          32.700                  
  22958932.89107                                 120649992.23307  94012988.56347
                  22958935.37547        42.600          27.900                  
  20172790.95309  20172798.51209  20172797.60509 106008701.31909  82604223.02949
  79162372.43109  20172798.41449        49.100          53.700          54.300  
  25289147.40601  25289157.33604  25289158.25406 132895379.62601 103554872.22756
  99240081.45206  25289157.05546        30.300          22.500          40.300  
  23531333.27306  23531339.80906                 123657975.09706  96356892.32646
                  23531339.49646        39.500          23.000                  
  21427305.80508  21427310.79307                 112601244.89208  87741243.87949
                  21427310.70349        47.000          47.300                  
  21012861.32009  21012868.76209  21012867.66809 110423384.52509  86044198.88549
  82459021.22609  21012868.12949        50.200          52.500          51.200  
 20 04 21 00 02 50.0000000  0 10G03G10G14G16G22G26G27G29G31G32       0.000000000
  23680322.90605  23680331.16006  23680332.47308 124440912.17105  96966990.80448
  92926703.47408  23680330.87548        37.500          32.100          45.600  
  24501504.95305  24501513.03505  24501512.39507 128756324.52305 100329573.43545
  96149168.93507  24501512.94545        36.600          19.300          42.100  
  20595659.51608                                 108230931.55708  84335783.00949
                  20595663.48849        47.000          38.900                  
  21610907.81308                                 113566111.33808  88493073.09648
                  21610911.66448        45.000          32.700                  
  22958500.35907                                 120647718.31707  94011216.67547
                  22958502.67247        42.700          28.000                  
  20172379.80509  20172387.38309  20172386.50809 106006541.04109  82602539.70249
  79160759.23609  20172387.29349        49.100          53.700          54.200  
  25285969.05501  25285978.14505  25285979.06606 132878674.16701 103541854.99946
  99227606.63106  25285977.98446        30.700          22.500          40.400  
  23531795.13306  23531801.17206                 123660400.49906  96358782.24246
                  23531801.10546        39.500          24.800                  
  21427828.06308  21427832.49208                 112603987.28408  87743380.80349
                  21427832.59849        46.500          47.300                  
  21014098.46909  21014105.78109  21014104.98009 110429886.65609  86049265.47949
  82463876.70809  21014105.46549        50.100          52.500          51.500  
 20 04 21 00 02 55.0000000  0 10G03G10G14G16G22G26G27G29G31G32       0.000000000
  23678672.83606  23678680.04306  23678681.64808 124432237.35706  96960231.20348
  92920225.54308  23678680.07448        38.100          33.600          45.200  
  24504857.88305  24504866.75005  24504866.41407 128773947.27005 100343305.43646
  96162328.72207  24504866.49646        37.400          21.300          41.300  
  20595290.19508                                 108228992.35308  84334271.94249
                  20595294.47749        47.000          38.500                  
  21608382.61707                                 113552842.05207  88482733.40648
                  21608386.63748        44.900          32.400                  
  22958069.49207                                 120645457.47207  94009454.97347
                  22958072.44147        42.600          28.400                  
  20171971.35209  20171979.05109  20171978.15209 106004394.83509  82600867.32749
  79159156.54209  20171979.02349        49.100          53.800          54.500  
  25282789.24201  25282798.42605  25282798.97706 132861963.13001 103528833.42846
  99215127.61706  25282797.96546        30.700          24.600          40.600  
  23532259.46906  23532265.33606                 123662840.06906  96360683.21746
                  23532265.77746        39.600          24.100                  
  21428350.39108  21428354.86708                 112606731.00608  87745518.76249
                  21428354.46949        46.600          47.400                  
  21015338.01609  21015345.42609  21015344.50409 110436400.76509  86054341.40149
  82468741.13409  21015345.13349        49.800          52.600          51.500  
 20 04 21 00 03 00.0000000  0 10G03G10G14G16G22G26G27G29G31G32       0.000000000
  23677024.32805  23677032.52706  23677033.44508 124423575.55405  96953481.74348
  92913757.30308  23677031.28948        37.700          33.100          45.600  
  24508210.50805  24508219.20705  24508218.94907 128791567.74805 100357035.67545
  96175486.86307  24508219.73845        36.900          18.300          41.600  
  20594923.57008                                 108227063.68108  84332769.07649
                  20594927.32849        47.000          38.700                  
  21605859.41408                                 113539584.60208  88472402.91648
                  21605864.05548        45.100          32.400                  
  22957642.53907                                 120643209.74807  94007703.48547
                  22957644.80147        42.600          27.600                  
  20171565.76609  20171573.19909  20171572.41809 106002262.67009  82599205.90149
  79157564.35809  20171573.27049        49.200          53.700          54.400  
  25279607.45302  25279616.93804  25279617.89106                 103515798.47704
  99202644.45806  25279616.98046        31.600          23.900          40.000  
  23532726.03906  23532732.40206                 123665293.72806  96362595.15046
                  23532732.52346        39.400          24.400                  
  21428872.18008  21428877.06307                 112609476.05208  87747657.76049
                  21428876.85549        46.400          47.300                  
  21016579.91409  21016587.50009  21016586.37509 110442926.85809  86059426.66349
  82473614.51209  21016586.99649        49.900          52.500          51.200  
 20 04 21 00 03 05.0000000  0 10G03G10G14G16G22G26G27G29G31G32       0.000000000
  23675378.76605  23675385.80106  23675387.36708 124414926.77205  96946742.43448
  92907298.78608  23675385.75048        37.900          33.600          45.100  
  24511563.59405  24511571.94905  24511571.71507 128809186.16805 100370764.28145
  96188643.42307  24511572.22345        36.900          19.000          41.600  
  20594558.25008                                 108225145.53708  84331274.42149
                  20594562.34449        47.300          38.700                  
  21603338.76607                                 113526339.01407  88462081.68648
                  21603343.27048        44.600          33.100                  
  22957216.90607                                 120640975.17407  94005962.26447
                  22957219.58247        42.700          28.700                  
  20171162.76609  20171169.96909  20171169.39109 106000144.63209  82597555.48649
  79155982.69109  20171170.21949        49.000          53.700          54.200  
  25276425.39801  25276435.31603  25276436.19506 132828524.42501 103502777.26746
  99190157.16906  25276434.73846        30.100          22.000          39.700  
  23533195.78106  23533201.84006                 123667761.57006  96364518.15846
                  23533201.98046        39.400          24.700                  
  21429395.06308  21429399.86308                 112612222.44608  87749797.80949
                  21429399.46949        46.800          47.500                  
  21017824.00809  21017831.21508  21017830.61709 110449464.99209  86064521.31249
  82478496.87409  21017831.21949        49.900          52.500          51.100  
 20 04 21 00 03 10.0000000  0 10G03G10G14G16G22G26G27G29G31G32       0.000000000
  23673735.54706  23673743.12106  23673744.04708 124406290.90906  96940013.19248
  92900849.91108  23673742.65248        38.700          33.700          45.100  
  24514915.92205  24514924.36305  24514923.93007 128826802.24405 100384491.09246
  96201798.30507  24514924.01246        37.400          20.400          41.600  
  20594195.28108                                 108223237.85408  84329787.91049
                  20594199.27049        47.000          38.900                  
  21600821.05508                                 113513105.19208  88451769.61548
                  21600825.06348        45.100          32.400                  
  22956794.57807                                 120638753.67807  94004231.22847
                  22956796.89547        42.400          28.200                  
  20170762.16409  20170769.55109  20170769.02709 105998040.57609  82595915.96549
  79154411.48509  20170769.75049        49.500          53.800          54.400  
  25273242.74202  25273251.93405  25273252.83206                 103489733.67615
  99177665.68106  25273251.84846        31.500          24.700          39.900  
  23533668.21106  23533674.33205                 123670243.51506  96366452.13046
                  23533674.28946        38.900          24.400                  
  21429917.91408  21429922.67608                 112614970.07208  87751938.82149
                  21429922.32849        46.600          47.500                  
  21019070.68809  21019077.74209  21019077.03909 110456015.06309  86069625.25449
  82483388.17009  21019077.55949        50.200          52.500          51.100  
 20 04 21 00 03 15.0000000  0 10G03G10G14G16G22G26G27G29G31G32       0.000000000
  23672094.23406  23672101.94906  23672102.99208 124397668.06206  96933294.07248
  92894410.78108  23672101.75448        38.200          33.900          45.700  
  24518267.93805  24518276.34005  24518275.85206 128844416.16005 100398216.20846
  96214951.54106  24518276.13746        37.500          21.100          40.900  
  20593834.11708                                 108221340.77608  84328309.66649
                  20593838.33649        47.000          38.800                  
  21598304.41408                                 113499883.25408  88441466.81048
                  21598308.75448        45.100          32.800                  
  22956373.91407                                 120636545.28207  94002510.39147
                  22956376.71547        42.600          28.700                  
  20170364.44509  20170372.08209  20170371.30109 105995950.62209  82594287.42449
  79152850.79709  20170372.07049        49.100          53.700          54.200  
  25270059.28103  25270067.87104  25270068.91006 132795063.50203 103476703.87346
  99165170.07906  25270067.48046        32.400          23.300          40.200  
  23534143.08606  23534149.25806                 123672739.63206  96368397.15346
                  23534149.21946        39.200          23.200                  
  21430441.04708  21430445.49608                 112617719.04108  87754080.86649
                  21430445.50849        46.600          47.300                  
  21020319.46909  21020326.71109  21020325.68409 110462577.15509  86074738.57349
  82488288.42609  21020326.31349        50.500          52.600          51.400  
 20 04 21 00 03 20.0000000  0 10G03G10G14G16G22G26G27G29G31G32       0.000000000
  23670456.57005  23670463.53106  23670464.67608 124389058.23805  96926585.13248
  92887981.35908  23670463.36748        37.900          33.400          45.300  
  24521618.95305  24521627.87106  24521627.29706 128862027.90005 100411939.61345
  96228103.13606  24521627.69545        37.300          19.900          40.700  
  20593475.40608                                 108219454.22908  84326839.62449
                  20593479.24249        47.000          38.600                  
  21595790.88307                                 113486673.18907  88431173.25048
                  21595795.06348        44.600          32.300                  
  22955956.51607                                 120634349.95307  94000799.74847
                  22955958.78147        42.600          26.200                  
  20169969.24209  20169977.05109  20169976.30109 105993874.72109  82592669.83549
  79151300.61809  20169977.05149        49.100          53.700          54.300  
  25266873.25003  25266882.28105  25266883.34806 132778324.73603 103463660.65946
  99152670.43106  25266882.37146        32.400          22.900          40.600  
  23534620.35906  23534626.69906                 123675249.85806  96370353.17546
                  23534626.98446        38.800          24.200                  
  21430964.35908  21430968.81307                 112620469.32408  87756223.94549
                  21430968.87949        46.600          47.300                  
  21021570.36709  21021577.64809  21021576.65209 110469151.23609  86079861.23449
  82493197.64109  21021577.26249        50.300          52.500          51.100  
 20 04 21 00 03 25.0000000  0 10G03G10G14G16G22G26G27G29G31G32       0.000000000
  23668820.21105  23668827.60906  23668828.87908 124380461.48605  96919886.35248
  92881561.69808  23668827.19148        37.600          32.700          45.400  
  24524970.28105  24524978.94506  24524978.07807 128879637.44605 100425661.33945
  96241253.11807  24524978.90645        37.600          19.600          41.100  
  20593117.95308                                 108217578.28008  84325377.84349
                  20593122.29749        47.000          38.600                  
  21593279.86708                                 113473475.05008  88420888.98648
                  21593283.72348        45.200          32.500                  
  22955541.05507                                 120632167.77907  93999099.33947
                  22955543.81647        42.600          28.900                  
  20169577.21909  20169584.61309  20169583.96909 105991812.90609  82591063.23149
  79149760.96309  20169584.77349        49.400          53.800          54.500  
  25263687.27302  25263695.45704  25263697.14506 132761580.56302 103450613.25846
  99140166.65206  25263696.41446        31.800          22.300          40.300  
  23535101.12506  23535107.32806                 123677774.37206  96372320.32546
                  23535107.37146        39.200          24.800                  
  21431488.07808  21431492.49208                 112623220.96708  87758368.08049
                  21431492.50449        47.200          47.300                  
  21022823.77309  21022831.00009  21022830.12109 110475737.40009  86084993.31049
  82498115.86809  21022830.52749        50.700          52.600          51.100  
 20 04 21 00 03 30.0000000  0 10G03G10G14G16G22G26G27G29G31G32       0.000000000
  23667186.61706  23667194.65206  23667195.34808 124371877.76106  96913197.73648
  92875151.78008  23667193.79748        38.200          33.100          45.100  
  24528320.73405  24528329.78906  24528328.74606 128897244.79305 100439381.33146
  96254401.42906  24528329.37546        37.400          20.900          40.800  
  20592763.74208                                 108215712.94908  84323924.34749
                  20592767.25049        47.500          38.500                  
  21590770.03908                                 113460288.83208  88410614.01448
                  21590774.28948        45.200          32.200                  
  22955128.71107                                 120629998.67107  93997409.12747
                  22955130.92247        42.600          28.000                  
  20169187.66409  20169195.03509  20169194.27009 105989765.21309  82589467.62649
  79148231.83009  20169194.98849        49.100          53.800          54.600  
  25260500.28903  25260509.21904  25260509.69106 132744830.93403 103437561.60546
  99127658.81106  25260508.83646        33.000          24.600          39.900  
  23535584.32006  23535590.34406                 123680313.00806  96374298.49647
                  23535590.33247        39.400          25.000                  
  21432011.91408  21432016.46908                 112625973.92208  87760513.23649
                  21432016.39849        46.500          47.300                  
  21024079.18809  21024086.60209  21024085.72709 110482335.59609  86090134.75149
  82503043.08909  21024086.27049        50.000          52.500          51.200  
 20 04 21 00 03 35.0000000  0 10G03G10G14G16G22G26G27G29G31G32       0.000000000
  23665555.64806  23665563.56606  23665564.29708 124363307.07906  96906519.28148
  92868751.60208  23665563.00848        38.100          32.500          45.200  
  24531670.79705  24531680.10505  24531678.89806 128914849.91305 100453099.59146
  96267548.08306  24531679.45746        37.900          20.600          40.400  
  20592410.65608                                 108213858.18308  84322479.07849
                  20592414.27349        46.800          38.700                  
  21588263.46907                                 113447114.50307  88400348.30448
                  21588267.38348        44.700          32.100                  
  22954717.80507                                 120627842.73807  93995729.16947
                  22954720.45747        42.700          28.500                  
  20168800.64109  20168808.05909  20168807.41409 105987731.56209  82587882.96849
  79146713.19709  20168808.11749        49.100          53.800          54.500  
  25257312.20303  25257320.52305  25257321.16006 132728075.83003 103424505.66947
  99115146.88706  25257320.28947        33.400          27.300          40.200  
  23536069.82806  23536076.31306                 123682865.84206  96376287.73046
                  23536076.15246        39.100          22.800                  
  21432536.23408  21432540.53907                 112628728.18708  87762659.41549
                  21432540.51649        46.500          47.300                  
  21025337.16409  21025344.60209  21025343.56309 110488945.78809  86095285.54649
  82507979.26809  21025344.08249        50.200          52.600          51.400  
 20 04 21 00 03 40.0000000  0 10G03G10G14G16G22G26G27G29G31G32       0.000000000
  23663927.25005  23663935.18806  23663935.90608 124354749.48605  96899851.02148
  92862361.18708  23663934.55148        37.900          32.700          45.700  
  24535020.91405  24535029.55506  24535028.48806 128932452.77005 100466816.08846
  96280693.09506  24535029.45346        37.300          20.900          40.200  
  20592059.59408                                 108212014.08308  84321042.10649
                  20592063.33649        46.800          38.700                  
  21585758.58608                                 113433952.08808  88390091.86548
                  21585762.64548        45.200          32.300                  
  22954310.54707                                 120625699.97007  93994059.47947
                  22954312.91447        42.800          27.900                  
  20168416.44509  20168423.75409  20168423.05509 105985711.99809  82586309.27449
  79145205.08409  20168423.76249        49.300          53.900          54.400  
  25254121.92203  25254131.44105  25254131.87507 132711315.32103 103411445.54347
  99102630.90507  25254130.70347        32.400          26.300          41.700  
  23536557.97706  23536564.56306                 123685432.91206  96378288.02746
                  23536564.67246        39.200          22.900                  
  21433060.26608  21433064.99207                 112631483.82008  87764806.65349
                  21433064.99249        46.500          47.400                  
  21026597.41409  21026604.67209  21026603.77009 110495568.03209  86100445.73849
  82512924.45309  21026604.24649        49.800          52.600          51.300  
 20 04 21 00 03 45.0000000  0 10G03G10G14G16G22G26G27G29G31G32       0.000000000
  23662301.00006  23662308.69906  23662309.94908 124346204.91206  96893192.91348
  92855980.47208  23662308.34848        38.200          33.400          45.600  
  24538369.90605  24538378.09806  24538377.87106 128950053.35705 100480530.83146
  96293836.37706  24538378.48846        37.400          20.600          40.200  
  20591710.75808                                 108210180.54108  84319613.37749
                  20591714.56349        46.800          38.700                  
  21583255.79708                                 113420801.56308  88379844.70548
                  21583260.03148        45.100          32.700                  
  22953905.21907                                 120623570.26607  93992399.96947
                  22953907.52747        42.700          26.800                  
  20168034.75809  20168041.98809  20168041.46509 105983706.44109  82584746.50449
  79143707.41909  20168042.23449        49.300          53.900          54.400  
  25250931.68803  25250940.50005  25250941.72307 132694549.25703 103398381.11147
  99090110.82407  25250940.53947        33.400          26.700          41.900  
  23537049.16406  23537055.71106                 123688014.02506  96380299.28746
                  23537056.18046        38.800          22.200                  
  21433585.17208  21433589.32008                 112634240.69308  87766954.87349
                  21433589.41849        46.600          47.500                  
  21027859.66409  21027867.38309  21027866.21509 110502202.24209  86105615.24849
  82517878.56809  21027866.66849        50.400          52.500          51.400  
 20 04 21 00 03 50.0000000  0 10G03G10G14G16G22G26G27G29G31G32       0.000000000
  23660678.05505  23660685.43406  23660686.32808 124337673.39305  96886544.96848
  92849609.55208  23660685.02748        37.600          33.200          45.300  
  24541718.54705  24541727.48005  24541726.58206 128967651.70105 100494243.79846
  96306977.98106  24541727.26246        37.600          20.100          40.100  
  20591363.38308                                 108208357.66208  84318192.94649
                  20591367.68849        46.700          38.500                  
  21580755.58607                                 113407662.95007  88369606.82848
                  21580759.85548        44.400          32.500                  
  22953502.66407                                 120621453.69407  93990750.70147
                  22953504.71147        42.700          28.600                  
  20167655.58609  20167662.89509  20167662.48009 105981714.97409  82583194.71549
  79142220.28809  20167663.22749        49.100          53.800          54.400  
  25247741.18003  25247748.92205  25247750.05107 132677777.89303 103385312.48547
  99077586.70607  25247749.07047        33.700          26.200          41.300  
  23537543.78106  23537549.71106                 123690609.37006  96382321.63246
                  23537549.82046        38.800          23.300                  
  21434109.83608  21434114.52708                 112636998.91208  87769104.12649
                  21434114.37949        46.400          47.400                  
  21029124.80509  21029131.48809  21029131.02009 110508848.50909  86110794.15849
  82522841.68009  21029131.27749        50.500          52.500          51.300  
 20 04 21 00 03 55.0000000  0 10G03G10G14G16G22G26G27G29G31G32       0.000000000
  23659057.03106  23659064.04306  23659065.25808 124329155.00506  96879907.27148
  92843248.43208  23659064.25048        38.600          33.700          45.200  
  24545067.08605  24545075.86306  24545075.03906 128985247.82805 100507955.04745
  96320117.90506  24545075.80945        37.100          19.300          40.100  
  20591018.91408                                 108206545.44908  84316780.83249
                  20591022.71549        46.600          38.200                  
  21578258.00008                                 113394536.35408  88359378.31148
                  21578261.81348        45.200          32.300                  
  22953101.87507                                 120619350.31107  93989111.69247
                  22953104.39547        43.000          27.900                  
  20167279.64109  20167286.95709  20167286.21909 105979737.62309  82581653.91849
  79140743.69609  20167286.80949        49.000          53.700          54.700  
  25244548.29703  25244556.17205  25244557.71106 132661001.02003 103372239.59057
  99065058.54606  25244556.57047        33.600          26.400          40.800  
  23538040.27306  23538046.31306                 123693218.99806  96384355.10946
                  23538046.48446        38.800          22.800                  
  21434635.01608  21434639.46907                 112639758.46408  87771254.43149
                  21434639.44949        46.300          47.300                  
  21030391.89109  21030398.82809  21030397.96509 110515506.82609  86115982.45049
  82527813.80609  21030398.39149        50.400          52.500          51.200  
 20 04 21 00 04 00.0000000  0 10G03G10G14G16G22G26G27G29G31G32       0.000000000
  23657438.11706  23657446.29306  23657446.93008 124320649.69706  96873279.75248
  92836897.04508  23657445.51248        38.000          33.500          45.600  
  24548414.36705  24548423.87905  24548423.05506 129002841.65005 100521664.51646
  96333256.14706  24548423.87946        36.300          20.100          40.300  
  20590675.93008                                 108204743.84808  84315376.98249
                  20590680.02049        46.600          38.400                  
  21575762.68007                                 113381421.71807  88349159.11648
                  21575766.47348        44.500          33.600                  
  22952704.48407                                 120617260.00707  93987482.88147
                  22952706.70747        42.800          27.700                  
  20166906.00809  20166913.01209  20166912.58609 105977774.31109  82580124.06049
  79139277.57909  20166913.35549        49.200          53.800          54.500  
  25241354.28103  25241363.20305  25241364.23007 132644218.77803 103359162.54047
  99052526.36507  25241363.17647        33.900          27.200          42.200  
  23538539.12506  23538545.44906                 123695842.76306  96386399.59446
                  23538545.73046        39.100          21.700                  
  21435160.59408  21435164.91407                 112642519.34908  87773405.76449
                  21435164.75449        46.700          47.300                  
  21031660.99209  21031667.89809  21031667.30109 110522177.18609  86121180.13249
  82532794.91409  21031667.73849        50.000          52.300          51.100  
 20 04 21 00 04 05.0000000  0 10G03G10G14G16G22G26G27G29G31G32       0.000000000
  23655822.57806  23655829.68806  23655831.15608 124312157.41006  96866662.38648
  92830555.42008  23655829.61748        38.000          33.500          45.400  
  24551762.66405  24551771.53505  24551770.89506 129020433.06705 100535372.08146
  96346392.61706  24551771.70346        36.700          20.900          39.900  
  20590335.14108                                 108202952.84408  84313981.38849
                  20590339.06649        46.400          38.400                  
  21573268.91408                                 113368318.98208  88338949.19548
                  21573273.11348        45.000          32.600                  
  22952308.97707                                 120615182.75807  93985864.23747
                  22952311.41447        42.600          28.100                  
  20166534.73409  20166542.33209  20166541.62909 105975824.99509  82578605.11849
  79137821.92609  20166542.43049        49.500          53.800          54.400  
  25238160.16404  25238167.62105  25238169.59407 132627431.09904 103346081.22747
  99039990.12007  25238168.48847        34.000          27.500          42.700  
  23539041.05506  23539047.35506                 123698480.71606  96388455.16946
                  23539047.68046        38.300          22.600                  
  21435685.75808  21435690.55508                 112645281.49708  87775558.08449
                  21435690.36349        46.300          47.300                  
  21032932.41409  21032939.71509  21032939.05509 110528859.51409  86126387.14149
  82537784.96809  21032939.39149        50.300          52.400          51.500  
 20 04 21 00 04 10.0000000  0 10G03G10G14G16G22G26G27G29G31G32       0.000000000
  23654208.54706  23654216.34406  23654217.44108 124303678.18806  96860055.20848
  92824223.52308  23654215.94948        38.000          33.300          45.700  
  24555109.73405  24555118.89105  24555117.88306 129038022.24005 100549077.90345
  96359527.33806  24555118.97345        36.300          18.600          40.200  
  20589996.45308                                 108201172.43808  84312594.06549
                  20590000.32449        46.500          38.100                  
  21570777.60207                                 113355228.18607  88328748.56948
                  21570781.92648        44.900          32.500                  
  22951916.40607                                 120613118.57507  93984255.76947
                  22951918.50047        42.600          27.200                  
  20166166.35209  20166173.91809  20166173.37509 105973889.69509  82577097.09149
  79136376.74009  20166174.16449        49.100          53.900          54.700  
  25234964.68003  25234973.06305  25234973.90207 132610638.04703 103332995.71747
  99027449.83007  25234973.05947        33.600          25.400          41.400  
  23539545.79706  23539552.15206                 123701132.83906  96390521.74146
                  23539552.15646        38.100          22.500                  
  21436211.93808  21436216.51608                 112648044.93808  87777711.41649
                  21436216.29749        47.100          47.300                  
  21034206.47709  21034213.62908  21034212.92209 110535553.84109  86131603.49549
  82542783.96309  21034213.29749        50.200          52.400          51.300  
 20 04 21 00 04 15.0000000  0 10G03G10G14G16G22G26G27G29G31G32       0.000000000
  23652597.90606  23652605.28106  23652606.28108 124295212.08506  96853458.23948
  92817901.40108  23652605.11348        38.300          33.100          45.200  
  24558457.28905  24558465.16805  24558464.94106 129055608.97405 100562781.86145
  96372660.29506  24558465.75845        36.200          17.800          40.600  
  20589659.41408                                 108199402.69408  84311215.03649
                  20589663.43449        46.600          38.600                  
  21568289.03908                                 113342149.33208  88318557.25548
                  21568293.11348        45.000          32.700                  
  22951525.52307                                 120611067.47807  93982657.53047
                  22951528.21547        42.400          29.100                  
  20165800.71109  20165808.45309  20165807.84809 105971968.42609  82575600.00349
  79134942.02309  20165808.54749        49.200          53.900          54.400  
  25231767.72704  25231775.63705  25231777.32007 132593839.51704 103319905.98247
  99014905.48707  25231776.44147        34.000          27.000          41.300  
  23540053.40606  23540060.28906                 123703799.09206  96392599.34546
                  23540059.75446        38.700          22.500                  
  21436737.91408  21436742.68808                 112650809.65108  87779865.73349
                  21436742.46149        46.600          47.400                  
  21035482.62509  21035489.67608  21035489.07009 110542260.17009  86136829.20149
  82547791.93409  21035489.44549        50.100          52.400          51.300  
 20 04 21 00 04 20.0000000  0 10G03G10G14G16G22G26G27G29G31G32       0.000000000
  23650989.13306  23650996.44106  23650997.74608 124286759.00606  96846871.41548
  92811589.05708  23650996.41848        38.100          33.800          45.400  
  24561802.62505  24561811.14805  24561810.89506 129073193.40705 100576483.98645
  96385791.50806  24561811.77345        36.800          19.000          40.600  
  20589324.89808                                 108197643.59308  84309844.31149
                  20589328.93849        46.800          38.200                  
  21565802.56307                                 113329082.43507  88308375.26148
                  21565806.64848        44.400          32.200                  
  22951138.51607                                 120609029.49407  93981069.48347
                  22951140.69147        42.300          28.900                  
  20165438.04709  20165445.52309  20165444.89509 105970061.18009  82574113.83449
  79133517.77709  20165445.63749        49.600          53.900          54.300  
  25228569.03904  25228578.15204  25228579.46106 132577035.66704 103306812.05547
  99002357.13206  25228578.59447        34.300          25.100          40.900  
  23540563.50806  23540569.53906                 123706479.59906  96394688.06646
                  23540569.53946        39.000          22.200                  
  21437264.50808  21437269.24608                 112653575.63808  87782021.04149
                  21437268.64549        46.500          47.300                  
  21036761.24209  21036768.28909  21036767.62909 110548978.50009  86142064.26249
  82552808.87309  21036767.90249        50.200          52.500          51.100  
 20 04 21 00 04 25.0000000  0 10G03G10G14G16G22G26G27G29G31G32       0.000000000
  23649383.04706  23649390.46506  23649391.71908 124278319.08706  96840294.85049
  92805286.52108  23649390.64849        38.100          34.100          45.400  
  24565147.85205  24565157.06305  24565156.71106 129090775.52405 100590184.36245
  96398920.96606  24565157.46945        36.800          19.000          40.500  
  20588992.25008                                 108195895.18808  84308481.91549
                  20588996.05149        46.800          38.100                  
  21563318.07807                                 113316027.55907  88298202.63148
                  21563322.42248        44.600          32.000                  
  22950752.87507                                 120607004.63507  93979491.67447
                  22950755.03947        42.600          28.100                  
  20165077.82009  20165085.10909  20165084.64109 105968168.00209  82572638.62649
  79132104.04209  20165085.32449        49.300          53.900          54.400  
  25225371.35203  25225380.11704  25225380.74606 132560226.46903 103293713.99646
  98989804.82806  25225380.02346        32.400          22.800          40.700  
  23541076.15606  23541082.54306                 123709174.31106  96396787.83646
                  23541082.42246        39.200          22.000                  
  21437791.30508  21437795.34408                 112656342.93808  87784177.38049
                  21437795.36749        46.600          47.400                  
  21038041.85209  21038049.14808  21038048.26209 110555708.90309  86147308.73149
  82557834.81009  21038048.68449        50.000          52.500          51.600  
 20 04 21 00 04 30.0000000  0 10G03G10G14G16G22G26G27G29G31G32       0.000000000
  23647779.53906  23647786.64506  23647788.25408 124269892.16906  96833728.43048
  92798993.68508  23647786.74248        38.600          33.200          45.100  
  24568493.89105  24568502.58605  24568501.77707 129108355.18105 100603882.74145
  96412048.63507  24568502.60945        36.400          19.300          41.100  
  20588661.52308                                 108194157.39108  84307127.78249
                  20588665.48849        46.500          38.400                  
  21560835.92207                                 113302984.57307  88288039.26848
                  21560840.50848        44.700          32.300                  
  22950369.94507                                 120604992.77407  93977923.97247
                  22950372.10247        42.400          26.700                  
  20164720.33609  20164727.55909  20164727.04309 105966288.75909  82571174.28049
  79130700.71609  20164727.74649        49.100          53.800          54.500  
  25222172.19503  25222180.28504  25222180.97306                 103280602.67604
  98977248.42106  25222180.24646        33.300          23.000          40.600  
  23541591.94506  23541597.87906                 123711883.18006  96398898.64946
                  23541598.01246        39.200          24.700                  
  21438317.88308  21438322.39807                 112659111.49608  87786334.69749
                  21438322.25849        46.700          47.300                  
  21039324.82009  21039332.18809  21039331.39809 110562451.23209  86152562.48549
  82562869.66509  21039331.64149        50.300          52.300          51.200  
 20 04 21 00 04 35.0000000  0 10G03G10G14G16G22G26G27G29G31G32       0.000000000
  23646178.96906  23646186.44906  23646186.94908 124261478.38906  96827172.23649
  92792710.66408  23646185.78549        38.700          34.000          45.000  
  24571838.87505  24571847.82405  24571846.69106 129125932.47505 100617579.34045
  96425174.52106  24571847.41845        36.800          19.600          40.600  
  20588332.89808                                 108192430.29408  84305781.99249
                  20588336.69149        46.600          38.300                  
  21558356.12507                                 113289953.58307  88277885.24848
                  21558360.56648        44.600          32.700                  
  22949989.61707                                 120602993.99707  93976366.49147
                  22949992.02747        42.500          27.600                  
  20164365.26609  20164372.75009  20164372.05109 105964423.56209  82569720.88349
  79129307.86509  20164372.68049        49.200          53.900          54.300  
  25218972.32803  25218979.25805  25218980.28907                 103267496.21205
  98964688.08007  25218979.51247        32.900          25.600          41.100  
  23542110.00006  23542115.97706                 123714606.23706  96401020.49646
                  23542116.01246        38.800          21.800                  
  21438844.39808  21438849.10207                 112661881.35008  87788493.01649
                  21438849.26649        46.600          47.300                  
  21040610.25009  21040617.64108  21040616.73809 110569205.61109  86157825.63249
  82567913.51909  21040617.02349        50.600          52.300          51.800  
 20 04 21 00 04 40.0000000  0 10G03G10G14G16G22G26G27G29G31G32       0.000000000
  23644579.50006  23644587.47306  23644588.46108 124253077.67006  96820626.20448
  92786437.39708  23644586.95348        38.600          33.600          45.300  
  24575183.86705  24575191.90205  24575191.46506 129143507.32105 100631274.01546
  96438298.57906  24575191.61746        37.100          20.100          40.400  
  20588006.03108                                 108190713.85808  84304444.50749
                  20588010.06649        46.700          38.400                  
  21555879.14107                                 113276934.55707  88267740.55348
                  21555883.02748        44.600          32.700                  
  22949611.62507                                 120601008.29207  93974819.18447
                  22949613.97747        42.700          27.100                  
  20164012.72709  20164020.38309  20164019.76209 105962572.33609  82568278.37149
  79127925.45209  20164020.50049        49.300          53.900          54.500  
  25215769.41403  25215776.96505  25215778.60207 132509766.54103 103254394.57247
  98952123.69507  25215777.46947        33.500          25.800          42.000  
  23542631.20306  23542636.53105                 123717343.42706  96403153.38446
                  23542637.04346        39.000          23.000                  
  21439372.26608  21439376.81607                 112664652.42108  87790652.29749
                  21439376.68449        46.800          47.500                  
  21041897.73409  21041904.96108  21041904.24209 110575971.95509  86163098.10549
  82572966.29409  21041904.61349        50.000          52.400          51.200  
 20 04 21 00 04 45.0000000  0 10G03G10G14G16G22G26G27G29G31G32       0.000000000
  23642983.71106  23642991.58206  23642992.17208 124244690.11806  96814090.45748
  92780173.95608  23642990.79748        38.600          33.200          45.000  
  24578527.39805  24578536.10905  24578535.07806 129161079.77005 100644966.82545
  96451420.89206  24578535.95745        37.200          19.900          40.900  
  20587681.78108                                 108189008.18008  84303115.40449
                  20587685.68849        46.600          38.400                  
  21553403.76607                                 113263927.56507  88257605.23348
                  21553408.09848        44.600          32.400                  
  22949236.48407                                 120599035.69907  93973282.08847
                  22949238.52347        42.400          26.600                  
  20163663.53109  20163670.75809  20163670.12509 105960735.16509  82566846.80349
  79126553.54009  20163670.99249        49.100          54.000          54.500  
  25212565.93003  25212574.71505  25212575.75007 132492935.86703 103241279.77347
  98939555.34607  25212574.71547        33.300          27.400          42.100  
  23543154.32006  23543160.23806                 123720094.87606  96405297.36946
                  23543160.68846        39.400          22.200                  
  21439899.80508  21439904.53507                 112667424.87508  87792812.65049
                  21439904.07849        47.300          47.400                  
  21043187.66409  21043194.61309  21043194.20309 110582750.35209  86168379.97349
  82578028.08509  21043194.44949        50.800          52.400          51.100  
 20 04 21 00 04 50.0000000  0 10G03G10G14G16G22G26G27G29G31G32       0.000000000
  23641389.88306  23641398.30506  23641398.72707 124236315.70106  96807564.93448
  92773920.33507  23641397.19948        38.100          33.900          44.900  
  24581871.18005  24581879.15605  24581879.16806 129178649.88505 100658657.79445
  96464541.35306  24581879.37545        37.100          19.900          40.600  
  20587358.85908                                 108187313.24908  84301794.67049
                  20587363.16449        46.700          38.200                  
  21550930.53107                                 113250932.61407  88247479.30748
                  21550935.22348        44.500          32.400                  
  22948863.67207                                 120597076.18207  93971755.18747
                  22948865.78147        42.400          27.600                  
  20163316.78109  20163323.85509  20163323.17609 105958912.02209  82565426.17049
  79125192.09909  20163323.94149        49.100          54.000          54.300  
  25209362.22703  25209370.68805  25209372.09807 132476099.93303 103228160.85847
  98926983.04807  25209371.01647        32.600          25.800          42.900  
  23543680.25806  23543687.02306                 123722860.50306  96407452.38746
                  23543686.99246        39.600          21.800                  
  21440427.61708  21440432.35208                 112670198.61508  87794974.00449
                  21440432.09049        47.000          47.400                  
  21044480.00809  21044487.18009  21044486.29309 110589540.78009  86173671.20949
  82583098.85209  21044486.67249        50.400          52.500          51.200  
 20 04 21 00 04 55.0000000  0 10G03G10G14G16G22G26G27G29G31G32       0.000000000
  23639799.45306  23639807.14506  23639807.57808 124227954.44806  96801049.66948
  92767676.55608  23639806.36348        38.500          33.700          45.200  
  24585213.14805  24585222.56305  24585221.53106 129196217.54005 100672346.89645
  96477660.07306  24585222.32045        37.100          19.600          40.400  
  20587038.22708                                 108185629.05708  84300482.31049
                  20587042.55949        46.900          38.600                  
  21548460.36707                                 113237949.72807  88237362.76148
                  21548464.70748        44.500          33.200                  
  22948492.98407                                 120595129.79107  93970238.53547
                  22948495.43047        42.500          28.100                  
  20162972.34409  20162979.78109  20162978.93009 105957102.89509  82564016.46149
  79123841.13309  20162979.67249        49.200          54.000          54.500  
  25206158.35203  25206166.43805  25206167.14107 132459258.68103 103215037.82547
  98914406.83707  25206166.35247        33.800          26.500          42.400  
  23544209.52306  23544215.77706                 123725640.37506  96409618.59446
                  23544216.25446        39.200          22.900                  
  21440955.85908  21440960.50808                 112672973.65908  87797136.37549
                  21440960.17249        46.900          47.500                  
  21045774.39109  21045781.80909  21045780.88309 110596343.25509  86178971.83949
  82588178.61709  21045781.41449        50.300          52.500          51.400  
 20 04 21 00 05 00.0000000  0 10G03G10G14G16G22G26G27G29G31G32       0.000000000
  23638210.67206  23638217.81606  23638218.81608 124219606.33106  96794544.63749
  92761442.56408  23638217.51249        38.700          34.200          45.100  
  24588556.40605  24588565.12105  24588564.48006 129213782.78205 100686034.10445
  96490776.95906  24588564.68445        37.200          19.900          40.500  
  20586719.84408                                 108183955.58708  84299178.31949
                  20586724.34849        46.800          38.700                  
  21545992.11707                                 113224978.87107  88227255.60148
                  21545996.18448        44.300          31.800                  
  22948125.35907                                 120593196.46107  93968732.03947
                  22948127.20347        42.300          27.400                  
  20162630.75809  20162637.95709  20162637.29309 105955307.77609  82562617.66649
  79122500.61909  20162638.01649        49.300          53.900          54.300  
  25202952.14803  25202960.51205  25202961.30107 132442412.15903 103201910.65747
  98901826.61507  25202960.66847        33.100          26.400          42.300  
  23544741.63306  23544747.60206                 123728434.41106  96411795.71646
                  23544747.62546        39.200          24.100                  
  21441484.15608  21441488.85207                 112675749.96408  87799299.73449
                  21441488.39849        47.000          47.600                  
  21047070.97709  21047078.44509  21047077.75409 110603157.73509  86184281.82049
  82593267.35109  21047077.87149        50.100          52.500          51.300  
 20 04 21 00 05 05.0000000  0 10G03G10G14G16G22G26G27G29G31G32       0.000000000
  23636624.08606  23636631.38306  23636632.84808 124211271.40006  96788049.87748
  92755218.41308  23636631.54748        38.300          33.300          45.100  
  24591898.51605  24591906.57405  24591906.26606 129231345.58305 100699719.37946
  96503892.02506  24591906.90246        36.700          20.900          40.400  
  20586403.69508                                 108182292.90308  84297882.71049
                  20586407.84049        46.800          38.800                  
  21543526.20307                                 113212020.11607  88217157.87948
                  21543530.58648        44.500          32.300                  
  22947759.61707                                 120591276.25007  93967235.76147
                  22947762.07047        42.500          27.700                  
  20162291.69509  20162299.09809  20162298.30909 105953526.70009  82561229.81649
  79121170.59309  20162299.20749        49.200          54.100          54.700  
  25199744.67203  25199753.48805  25199754.32407 132425560.37603 103188779.41347
  98889242.52607  25199753.70747        33.200          25.600          42.900  
  23545276.22706  23545281.83206                 123731242.69106  96413983.97347
                  23545282.19147        39.100          26.000                  
  21442012.87508  21442017.08608                 112678527.56408  87801464.09149
                  21442016.89149        47.000          47.500                  
  21048370.00809  21048377.11309  21048376.70309 110609984.28309  86189601.19949
  82598365.09009  21048377.22349        50.000          52.500          51.100  
 20 04 21 00 05 10.0000000  0 10G03G10G14G16G22G26G27G29G31G32       0.000000000
  23635041.14106  23635048.05506  23635049.30908 124202949.54306  96781565.31548
  92749004.03508  23635047.98448        38.400          33.100          45.400  
  24595239.34405  24595248.67205  24595247.73806 129248905.87105 100713402.68945
  96517005.21006  24595248.50845        36.600          19.600          40.300  
  20586089.07008                                 108180640.88308  84296595.42849
                  20586093.58249        46.900          38.400                  
  21541062.55507                                 113199073.38407  88207069.51848
                  21541066.83648        44.600          32.300                  
  22947397.18807                                 120589369.05707  93965749.63747
                  22947399.33247        43.000          28.300                  
  20161955.30509  20161962.78109  20161962.04709 105951759.55109  82559852.82349
  79119850.97509  20161963.05549        49.200          54.000          54.300  
  25196539.20303  25196546.10204  25196546.78107 132408703.25603 103175643.97946
  98876654.42807  25196545.87546        33.100          24.100          42.000  
  23545812.83606  23545818.96906                 123734065.11406  96416183.27946
                  23545819.02346        39.100          22.800                  
  21442541.41408  21442545.72308                 112681306.36508  87803629.39149
                  21442545.76249        46.700          47.300                  
  21049671.42209  21049678.72309  21049678.10509 110616822.81409  86194929.92449
  82603471.77609  21049678.44949        49.800          52.500          51.100  
 20 04 21 00 05 15.0000000  0 10G03G10G14G16G22G26G27G29G31G32       0.000000000
  23633459.06306  23633467.11306  23633468.24208 124194640.90406  96775091.05248
  92742799.53108  23633466.95348        38.200          32.500          45.100  
  24598580.64105  24598589.93405  24598589.32006 129266463.74205 100727084.15545
  96530116.59206  24598589.39845        36.500          19.300          40.600  
  20585776.93808                                 108178999.68008  84295316.55549
                  20585781.34449        46.800          38.400                  
  21538601.30507                                 113186138.74807  88196990.56648
                  21538605.26648        44.700          32.500                  
  22947035.99207                                 120587474.94607  93964273.69747
                  22947038.89147        42.300          27.700                  
  20161621.64809  20161629.53509  20161628.48809 105950006.45809  82558486.76749
  79118541.83909  20161629.30949        49.200          53.900          54.500  
  25193328.93802  25193336.83205  25193337.60907 132391840.94802 103162504.52946
  98864062.44607  25193336.78946        31.800          24.900          41.700  
  23546353.03106  23546358.73806                 123736901.79506  96418393.65846
                  23546359.09446        39.400          23.200                  
  21443070.68008  21443075.04308                 112684086.49008  87805795.71149
                  21443074.68449        46.600          47.500                  
  21050975.15609  21050982.40209  21050981.66009 110623673.38209  86200268.02049
  82608587.45709  21050982.05149        50.600          52.400          51.500  
 20 04 21 00 05 20.0000000  0 10G03G10G14G16G22G26G27G29G31G32       0.000000000
  23631880.53106  23631888.50006  23631889.61308 124186345.43706  96768627.04248
  92736604.85408  23631888.19148        38.300          32.800          45.200  
  24601921.58605  24601930.51605  24601930.10506 129284019.10705 100740763.62846
  96543226.09806  24601930.34846        36.200          20.400          40.800  
  20585466.81308                                 108177369.19208  84294046.04749
                  20585471.00449        46.900          39.000                  
  21536141.83607                                 113173216.08707  88186920.96848
                  21536146.21948        44.500          32.300                  
  22946678.72707                                 120585593.88307  93962807.93647
                  22946680.84847        42.200          27.600                  
  20161290.98409  20161298.23009  20161297.48409 105948267.35209  82557131.62349
  79117243.15509  20161298.34049        49.200          54.000          54.200  
  25190118.60202  25190127.27304  25190127.83607                 103149351.97414
  98851466.53107  25190127.08246        31.000          22.200          41.400  
  23546895.03106  23546901.51206                 123739752.67406  96420615.12946
                  23546901.44546        39.600          22.600                  
  21443599.59408  21443604.13708                 112686867.85408  87807963.01049
                  21443604.08649        46.800          47.800                  
  21052280.85209  21052288.03909  21052287.66009 110630535.99309  86205615.50849
  82613712.13409  21052287.81349        50.300          52.500          51.200  
 20 04 21 00 05 25.0000000  0 10G03G10G14G16G22G26G27G29G31G32       0.000000000
  23630304.88306  23630313.12106  23630313.36708 124178063.01306  96762173.20648
  92730419.95008  23630312.18448        38.000          33.100          45.000  
  24605261.57805  24605271.10205  24605270.01206 129301571.92705 100754441.12645
  96556333.69906  24605270.57445        35.900          18.600          40.500  
  20585158.39108                                 108175749.33408  84292783.81949
                  20585162.72349        46.800          38.400                  
  21533684.98407                                 113160305.43507  88176860.72048
                  21533689.50848        44.400          32.000                  
  22946323.40607                                 120583725.82107  93961352.29347
                  22946325.32047        42.500          28.300                  
  20160962.59409  20160969.79309  20160969.18409 105946542.16309  82555787.31649
  79115954.87109  20160970.03149        49.400          53.800          54.200  
  25186907.78903  25186915.90203  25186917.04707 132358100.45203 103136213.26656
  98838866.64207  25186916.25446        32.500          22.600          41.100  
  23547440.64806  23547447.00006                 123742617.69406  96422847.60746
                  23547446.57446        39.500          23.500                  
  21444129.14808  21444133.65208                 112689650.43108  87810131.25249
                  21444133.55149        46.700          47.500                  
  21053589.46909  21053596.60509  21053595.74209 110637410.54509  86210972.29849
  82618845.72409  21053596.19149        50.200          52.300          51.200  
 20 04 21 00 05 30.0000000  0 10G03G10G14G16G22G26G27G29G31G32       0.000000000
  23628731.38306  23628739.22306  23628739.71908 124169793.91806  96755729.75148
  92724244.96708  23628738.70348        38.500          33.400          45.300  
  24608601.50805  24608610.71105  24608610.31306 129319122.33105 100768116.74945
  96569439.51506  24608610.61345        36.000          18.600          40.600  
  20584852.52308                                 108174140.42408  84291530.11749
                  20584856.64849        47.000          38.700                  
  21531230.59407                                 113147407.00907  88166810.00048
                  21531235.00048        44.500          33.100                  
  22945970.18007                                 120581870.96707  93959906.95947
                  22945972.23047        42.500          27.100                  
  20160637.08609  20160644.31609  20160643.57009 105944831.07909  82554454.00949
  79114677.10909  20160644.37949        49.300          53.800          54.400  
  25183696.81302  25183704.55103  25183705.17606                 103123052.59203
  98826262.95806  25183704.56346        31.600          21.800          40.600  
  23547988.37506  23547994.95706                 123745497.07206  96425091.29446
                  23547994.39146        38.900          21.800                  
  21444659.00808  21444663.62107                 112692434.43308  87812300.59849
                  21444663.25849        46.800          47.500                  
  21054899.65609  21054907.00809  21054906.23809 110644297.24409  86216338.55449
  82623988.38809  21054906.71549        51.000          52.400          51.000  
 20 04 21 00 05 35.0000000  0 10G03G10G14G16G22G26G27G29G31G32       0.000000000
  23627160.65606  23627167.93406  23627168.76608 124161537.95106  96749296.52948
  92718079.78108  23627167.75848        38.300          33.100          45.400  
  24611941.30505  24611949.94905  24611948.69906 129336670.17405 100781790.36845
  96582543.41206  24611949.75445        35.200          18.600          40.400  
  20584548.44508                                 108172542.24308  84290284.77549
                  20584552.51649        47.100          39.000                  
  21528778.41407                                 113134520.58907  88156768.64448
                  21528782.73048        44.400          33.100                  
  22945619.64807                                 120580029.11607  93958471.74747
                  22945621.73047        42.300          27.900                  
  20160313.91409  20160321.46109  20160320.59009 105943133.90709  82553131.53349
  79113409.73609  20160321.46949        49.300          53.900          54.300  
  25180484.42202  25180491.88703  25180492.29706                 103109896.78803
  98813655.29406  25180491.94546        31.800          22.900          40.600  
  23548539.41406  23548545.34406                 123748390.58706  96427345.97746
                  23548545.25046        39.300          22.200                  
  21445188.78908  21445193.77008                 112695219.59208  87814470.84749
                  21445193.30949        46.600          47.400                  
  21056212.43809  21056219.41809  21056219.01209 110651195.89509  86221714.12249
  82629139.97409  21056219.62949        50.500          52.500          51.100  
 20 04 21 00 05 40.0000000  0 10G03G10G14G16G22G26G27G29G31G32       0.000000000
  23625591.28105  23625599.43006  23625600.45708 124153295.18905  96742873.59248
  92711924.44608  23625599.09848        37.900          33.000          45.400  
  24615279.00805  24615288.66405  24615288.01206 129354215.49205 100795462.04845
  96595645.41406  24615288.17645        35.700          19.000          40.500  
  20584246.18008                                 108170954.87608  84289047.87149
                  20584250.53149        47.000          38.700                  
  21526328.48407                                 113121646.32407  88146736.74448
                  21526333.11348        44.700          32.300                  
  22945271.44507                                 120578200.37607  93957046.74747
                  22945273.68047        42.500          27.700                  
  20159993.71109  20160001.24209  20160000.26209 105941450.73609  82551819.97049
  79112152.82609  20160001.25849        49.100          53.900          54.300  
  25177270.49201  25177278.30103  25177278.68807                 103096736.92903
  98801043.80207  25177277.87946        30.800          20.900          41.300  
  23549092.96106  23549098.57406                 123751298.32506  96429611.75546
                  23549098.74246        39.600          23.300                  
  21445719.47708  21445723.67208                 112698006.05508  87816642.11349
                  21445723.44149        46.400          47.400                  
  21057527.37509  21057534.69909  21057534.03909 110658106.58709  86227099.07349
  82634300.55509  21057534.46549        50.500          52.300          51.400  
 20 04 21 00 05 45.0000000  0 10G03G10G14G16G22G26G27G29G31G32       0.000000000
  23624026.25006  23624033.64506  23624034.32808 124145065.56906  96736460.90548
  92705778.96708  23624033.02348        38.700          33.100          45.200  
  24618618.21105  24618626.98805  24618626.19106 129371758.27205 100809131.73445
  96608745.50806  24618626.64845        35.800          19.300          40.100  
  20583946.14808                                 108169378.29208  84287819.35649
                  20583950.38349        47.000          38.600                  
  21523880.93007                                 113108784.14607  88136714.26748
                  21523885.29348        44.400          31.800                  
  22944925.70307                                 120576384.65607  93955631.90347
                  22944928.36747        42.200          27.700                  
  20159676.04709  20159683.39509  20159682.60209 105939781.50909  82550519.27749
  79110906.32209  20159683.52749        49.400          53.800          54.300  
  25174055.56301  25174063.41403  25174063.57006 132290557.01111 103083582.03156
  98788428.39306  25174063.46146        30.700          20.600          40.400  
  23549648.45306  23549654.61705                 123754220.23906  96431888.55646
                  23549654.69146        39.200          22.600                  
  21446249.62508  21446254.06608                 112700793.73808  87818814.33149
                  21446254.03149        46.500          47.500                  
  21058845.00809  21058852.12908  21058851.38709 110665029.30109  86232493.39949
  82639470.10609  21058851.82049        50.900          52.300          51.000  
 20 04 21 00 05 50.0000000  0 10G03G10G14G16G22G26G27G29G31G32       0.000000000
  23622461.75806  23622469.96906  23622470.82808 124136849.13606  96730058.48848
  92699643.32908  23622469.53948        38.300          32.700          45.600  
  24621955.73405  24621964.94905  24621964.07006 129389298.45005 100822799.37845
  96621843.67706  24621964.39845        36.300          19.000          40.900  
  20583648.29708                                 108167812.48508  84286599.24349
                  20583652.53949        47.000          38.800                  
  21521435.38307                                 113095934.07207  88126701.22048
                  21521440.05948        44.400          32.900                  
  22944582.81307                                 120574581.94807  93954227.19247
                  22944585.30147        42.600          28.200                  
  20159360.93809  20159368.41409  20159367.60509 105938126.25409  82549229.46649
  79109670.25509  20159368.49249        49.200          53.700          54.300  
  25170839.58602  25170847.10503  25170847.81306 132273658.13502 103070414.07146
  98775809.09406  25170847.78946        31.300          22.600          39.900  
  23550206.75006  23550213.68805                 123757156.34006  96434176.43746
                  23550212.77346        39.300          21.700                  
  21446780.02308  21446785.13707                 112703582.64408  87820987.50249
                  21446784.84049        46.400          47.400                  
  21060164.49209  21060171.69108  21060170.98409 110671963.99809  86237897.04849
  82644648.60209  21060171.62149        50.100          52.400          51.000  
 20 04 21 00 05 55.0000000  0 10G03G10G14G16G22G26G27G29G31G32       0.000000000
  23620901.45306  23620908.75406  23620909.98008 124128645.96806  96723666.40148
  92693517.57208  23620908.19548        38.100          33.200          45.400  
  24625293.10205  24625302.05505  24625301.82006 129406836.09105 100836465.07945
  96634939.95006  24625301.80545        36.400          19.600          40.500  
  20583352.58608                                 108166257.53308  84285387.59049
                  20583356.71949        47.200          38.900                  
  21518992.91407                                 113083096.20007  88116697.68348
                  21518997.28948        44.300          32.700                  
  22944241.83607                                 120572792.38607  93952832.72147
                  22944244.97747        42.100          26.500                  
  20159048.67209  20159055.88309  20159055.34009 105936485.01409  82547950.57549
  79108444.65709  20159056.21149        49.100          53.900          54.500  
  25167622.85202  25167630.98403  25167631.50006 132256754.13202 103057242.11156
  98763185.97406  25167630.73046        31.800          21.500          40.800  
  23550768.06306  23550774.41406                 123760106.73506  96436475.44846
                  23550774.77046        38.800          23.000                  
  21447311.40608  21447315.79308                 112706372.86808  87823161.70449
                  21447315.71149        46.600          47.500                  
  21061486.63309  21061493.54709  21061492.91809 110678910.78509  86243310.12749
  82649836.13809  21061493.35949        50.000          52.400          51.000  
 20 04 21 00 06 00.0000000  0 10G03G10G14G16G22G26G27G29G31G32       0.000000000
  23619342.88306  23619350.70306  23619351.31307 124120455.99906  96717284.60348
  92687401.66707  23619349.75048        38.600          33.100          44.900  
  24628629.82805  24628638.90205  24628637.77306 129424371.15705 100850128.72645
  96648034.30206  24628638.69145        35.900          17.800          39.300  
  20583058.77308                                 108164713.36608  84284184.33849
                  20583062.75849        46.900          38.700                  
  21516552.01607                                 113070270.42507  88106703.57648
                  21516556.39148        44.500          32.500                  
  22943904.48407                                 120571015.86007  93951448.41547
                  22943906.92647        42.400          26.500                  
  20158738.90609  20158746.58609  20158745.70709 105934857.70909  82546682.54549
  79107229.45109  20158746.43849        49.100          53.800          54.100  
  25164404.57003  25164412.91004  25164413.54306 132239844.97403 103044066.15446
  98750558.97406  25164412.94946        32.900          22.600          40.000  
  23551332.28906  23551339.41406                 123763071.37306  96438785.55646
                  23551339.07846        38.700          24.400                  
  21447842.56308  21447846.73808                 112709164.33208  87825336.86449
                  21447846.93449        46.600          47.500                  
  21062810.42209  21062817.64509  21062817.18809 110685869.58209  86248732.56249
  82655032.63809  21062817.61749        50.300          52.300          51.100  
 20 04 21 00 06 05.0000000  0 10G03G10G14G16G22G26G27G29G31G32       0.000000000
  23617786.62506  23617794.27706  23617795.25808 124112279.20306  96710913.07448
  92681295.61408  23617793.75048        38.000          33.500          45.100  
  24631966.14105  24631974.83605  24631974.40206 129441903.58705 100863790.34745
  96661126.69806  24631975.01645        35.500          17.400          39.500  
  20582767.06308                                 108163180.04308  84282989.54349
                  20582771.05549        47.000          38.600                  
  21514113.58607                                 113057456.77507  88096718.91648
                  21514118.06648        44.300          32.400                  
  22943568.03107                                 120569252.40507  93950074.28447
                  22943571.24247        42.000          27.100                  
  20158432.03909  20158439.52009  20158438.67209 105933244.35009  82545425.37649
  79106024.67509  20158439.43849        49.100          53.900          54.300  
  25161185.85203  25161194.54704  25161194.85206 132222930.59803 103030886.11146
  98737928.12106  25161194.09846        32.000          23.200          40.700  
  23551899.32806  23551905.80106                 123766050.21506  96441106.74646
                  23551905.88746        38.800          24.700                  
  21448374.01608  21448378.51208                 112711957.02408  87827512.98749
                  21448378.41449        46.900          47.600                  
  21064137.01609  21064144.28109  21064143.68009 110692840.37009  86254164.34049
  82660238.09009  21064144.05149        50.700          52.300          51.100  
 20 04 21 00 06 10.0000000  0 10G03G10G14G16G22G26G27G29G31G32       0.000000000
  23616234.10206  23616240.85906  23616241.71108 124104115.61906  96704551.83949
  92675199.44008  23616240.35249        38.900          34.200          45.800  
  24635301.55505  24635311.38706  24635309.73806 129459433.45905 100877449.96045
  96674217.15706  24635310.87545        35.200          18.300          39.900  
  20582477.03908                                 108161657.56708  84281803.18649
                  20582481.18449        46.900          38.700                  
  21511677.27307                                 113044655.26907  88086743.71648
                  21511682.05548        44.300          32.400                  
  22943235.75007                                 120567502.01807  93948710.35047
                  22943238.45347        42.300          27.200                  
  20158127.50009  20158135.13309  20158134.34409 105931644.95909  82544179.10649
  79104830.32209  20158135.03149        49.000          53.800          54.300  
  25157966.25004  25157974.47304  25157974.98806 132206011.08704 103017702.08447
  98725293.43906  25157974.28147        34.200          26.900          40.900  
  23552468.62506  23552475.02306                 123769043.23806  96443438.98146
                  23552475.43046        39.100          24.800                  
  21448905.99208  21448910.24608                 112714750.96408  87829690.08149
                  21448910.11349        46.900          47.500                  
  21065465.82009  21065473.18009  21065472.54309 110699823.19709  86259605.49449
  82665452.54109  21065472.96149        50.000          52.400          50.800  
 20 04 21 00 06 15.0000000  0 10G03G10G14G16G22G26G27G29G31G32       0.000000000
  23614681.73406  23614690.34406  23614691.00408 124095965.31606  96698200.93848
  92669113.15308  23614689.32048        38.600          33.600          45.700  
  24638637.21105  24638646.09405  24638645.41006 129476960.73905 100891107.57145
  96687305.71206  24638645.98445        35.800          19.000          39.600  
  20582189.47708                                 108160145.94708  84280625.30149
                  20582193.52349        46.800          38.200                  
  21509243.95307                                 113031865.93807  88076778.00748
                  21509248.14148        44.300          32.400                  
  22942905.18007                                 120565764.70007  93947356.59947
                  22942907.48047        42.000          26.000                  
  20157825.96109  20157833.18809  20157832.63309 105930059.55909  82542943.72849
  79103646.41209  20157833.46549        49.100          53.900          54.400  
  25154745.36704  25154754.39104  25154754.48006 132189086.47904 103004514.07247
  98712654.93306  25154753.83247        34.300          26.100          40.500  
  23553040.67206  23553047.82006                 123772050.57406  96445782.34946
                  23553047.25046        38.700          24.100                  
  21449437.77308  21449441.94108                 112717546.19008  87831868.17549
                  21449441.90249        47.000          47.900                  
  21066796.91409  21066803.91409  21066803.47709 110706818.07009  86265056.04449
  82670675.98209  21066803.85949        49.800          52.200          50.900  
 20 04 21 00 06 20.0000000  0 10G03G10G14G16G22G26G27G29G31G32       0.000000000
  23613133.58606  23613141.38706  23613142.43808 124087828.17706  96691860.30848
  92663036.72208  23613140.82048        39.100          33.300          45.700  
  24641972.28105  24641981.38306  24641980.69506 129494485.35705 100904763.12645
  96700392.24206  24641981.04745        36.400          19.600          40.000  
  20581903.87508                                 108158645.14308  84279455.84049
                  20581908.07449        47.000          38.800                  
  21506812.42207                                 113019088.72607  88066821.72948
                  21506816.90248        44.400          32.800                  
  22942577.08607                                 120564040.38507  93946012.97347
                  22942579.22347        41.900          27.400                  
  20157527.01609  20157534.41409  20157533.62509 105928488.03109  82541719.15049
  79102472.87109  20157534.37949        49.500          53.900          54.300  
  25151523.93004  25151532.98005  25151532.82006 132172156.72004 102991322.05247
  98700012.56106  25151532.34047        34.600          25.800          40.500  
  23553615.49206  23553622.80906                 123775072.03306  96448136.71846
                  23553622.20746        38.900          24.900                  
  21449969.80508  21449974.66408                 112720342.57908  87834047.18149
                  21449974.02349        46.900          47.800                  
  21068130.53109  21068137.52308  21068136.82809 110713824.92309  86270515.92649
  82675908.35509  21068137.34049        50.000          52.300          51.000  
 20 04 21 00 06 25.0000000  0 10G03G10G14G16G22G26G27G29G31G32       0.000000000
  23611587.73406  23611595.15606  23611596.50408 124079704.29506  96685530.00548
  92656970.19608  23611594.98848        38.700          33.200          45.200  
  24645306.57805  24645315.60505  24645315.02306 129512007.32805 100918416.60345
  96713476.81706  24645315.06345        36.500          19.600          40.400  
  20581620.42208                                 108157155.22008  84278294.86149
                  20581624.56649        46.800          38.800                  
  21504383.49207                                 113006323.75107  88056875.00548
                  21504387.37948        44.400          32.500                  
  22942251.21907                                 120562329.17507  93944679.56347
                  22942253.72747        42.000          27.900                  
  20157230.53109  20157237.68409  20157237.22709 105926930.49809  82540505.49049
  79101309.77709  20157238.01249        49.000          53.900          54.300  
  25148301.07805  25148310.17205  25148310.05106 132155221.85305 102978126.03747
  98687366.40506  25148309.71547        35.000          27.300          40.500  
  23554193.60206  23554200.42206                 123778107.76106  96450502.24046
                  23554200.41046        38.700          23.400                  
  21450502.38308  21450506.82808                 112723140.26308  87836227.19049
                  21450506.35549        46.700          47.600                  
  21069465.67209  21069472.98808  21069472.58609 110720843.83309  86275985.20049
  82681149.74909  21069472.84849        50.300          52.100          51.000  
 20 04 21 00 06 30.0000000  0 10G03G10G14G16G22G26G27G29G31G32       0.000000000
  23610044.59406  23610052.23406  23610053.34008 124071593.68606  96679210.04648
  92650913.56308  23610051.82048        38.200          33.500          45.700  
  24648640.32005  24648649.26205  24648648.53906 129529526.65905 100932068.00545
  96726559.41906  24648649.02045        36.300          19.300          40.300  
  20581338.96908                                 108155676.18608  84277142.36649
                  20581343.00849        47.000          38.400                  
  21501956.67207                                 112993570.95507  88046937.75048
                  21501960.69948        44.300          32.100                  
  22941928.19507                                 120560631.01707  93943356.32347
                  22941930.58247        42.200          26.800                  
  20156936.44509  20156944.13309  20156943.52009 105925386.91009  82539302.70049
  79100157.10309  20156944.30549        49.100          53.800          54.500  
  25145077.96904  25145085.89105  25145086.23406 132138281.87404 102964926.06147
  98674716.42306  25145086.41447        34.600          26.900          40.400  
  23554773.80506  23554781.05106                 123781157.68606  96452878.81347
                  23554780.53547        39.000          25.800                  
  21451035.10208  21451039.17208                 112725939.10608  87838408.10649
                  21451039.03149        46.800          47.700                  
  21070803.96109  21070811.17608  21070810.48409 110727874.75909  86281463.83749
  82686400.11309  21070810.89549        49.900          52.200          51.200  
 20 04 21 00 06 35.0000000  0 10G03G10G14G16G22G26G27G29G31G32       0.000000000
  23608503.39806  23608511.46906  23608512.54308 124063496.30306  96672900.40448
  92644866.80608  23608510.76248        38.300          33.600          45.400  
  24651973.22705  24651982.50805  24651982.14506 129547043.29905 100945717.30545
  96739640.04606  24651982.81645        35.900          19.300          40.200  
  20581059.57808                                 108154208.02208  84275998.33949
                  20581063.60549        47.100          38.800                  
  21499532.28907                                 112980830.29007  88037009.96948
                  21499536.33648        44.300          32.800                  
  22941607.41407                                 120558945.86007  93942043.20647
                  22941609.91847        42.400          26.500                  
  20156645.75809  20156652.85509  20156652.36709 105923857.25309  82538110.75549
  79099014.82009  20156653.14549        49.300          53.800          54.700  
  25141853.66404  25141861.39505  25141861.43006 132121336.78904 102951722.11147
  98662062.62306  25141861.76247        34.500          27.800          40.400  
  23555356.96106  23555363.53506                 123784221.84006  96455266.45346
                  23555364.00846        38.700          24.000                  
  21451567.67208  21451572.18808                 112728739.19808  87840589.99449
                  21451571.78949        47.000          47.300                  
  21072144.30509  21072151.44108  21072150.70309 110734917.71609  86286951.85949
  82691659.45909  21072151.15249        49.900          52.100          51.100  
 20 04 21 00 06 40.0000000  0 10G03G10G14G16G22G26G27G29G31G32       0.000000000
  23606964.75806  23606973.35206  23606974.05508 124055412.23306  96666601.12548
  92638830.01208  23606972.48048        38.800          33.100          45.500  
  24655306.96105  24655315.58205  24655314.76606 129564557.37705 100959364.62245
  96752718.69006  24655315.41845        35.600          18.600          39.600  
  20580782.29708                                 108152750.80008  84274862.83349
                  20580786.27349        47.200          39.200                  
  21497109.62507                                 112968101.89607  88027091.74348
                  21497114.31648        44.400          32.800                  
  22941289.78107                                 120557273.83607  93940740.32747
                  22941291.69147        42.700          27.400                  
  20156357.35909  20156364.68809  20156363.99609 105922341.60709  82536929.72949
  79097883.00009  20156364.69149        49.100          53.800          54.300  
  25138627.43004  25138636.54705  25138636.43406 132104386.73604 102938514.27247
  98649405.13506  25138636.43047        34.800          26.900          40.600  
  23555943.03106  23555949.57006                 123787300.28106  96457665.23546
                  23555949.78546        38.800          24.700                  
  21452101.00808  21452105.32808                 112731540.61408  87842772.91549
                  21452104.89549        46.900          47.500                  
  21073486.85209  21073493.94508  21073493.18409 110741972.77709  86292449.30349
  82696927.83809  21073493.64149        49.700          52.000          50.900  
 20 04 21 00 06 45.0000000  0 10G03G10G14G16G22G26G27G29G31G32       0.000000000
  23605429.42206  23605437.05506  23605438.22308 124047341.42806  96660312.18048
  92632803.09908  23605436.84448        38.700          33.100          45.400  
  24658638.78904  24658647.51605  24658647.27306 129582068.78704 100973009.89945
  96765795.36006  24658648.11345        34.900          19.300          39.900  
  20580506.99208                                 108151304.44508  84273735.80249
                  20580511.14149        46.800          39.000                  
  21494689.94507                                 112955385.69007  88017183.00648
                  21494694.37948        44.400          32.600                  
  22940973.60907                                 120555614.83307  93939447.59347
                  22940975.77347        42.200          27.900                  
  20156071.70309  20156078.72309  20156078.25809 105920839.87509  82535759.54749
  79096761.58009  20156079.01649        49.100          53.800          54.400  
  25135401.15604  25135409.91805  25135409.84806 132087431.58304 102925302.47947
  98636743.82106  25135409.98847        34.600          27.700          40.800  
  23556531.89806  23556538.38706                 123790392.96906  96460075.13246
                  23556538.28946        38.800          22.800                  
  21452634.26608  21452638.39508                 112734343.28608  87844956.81749
                  21452638.27749        46.800          47.300                  
  21074831.48409  21074838.87908  21074838.06309 110749039.84609  86297956.10249
  82702205.19309  21074838.39849        49.900          52.000          50.800  
 20 04 21 00 06 50.0000000  0 10G03G10G14G16G22G26G27G29G31G32       0.000000000
  23603896.71106  23603903.70306  23603905.03108 124039283.92306  96654033.60648
  92626786.12208  23603903.37548        38.400          33.800          45.600  
  24661970.72705  24661980.13305  24661978.73406 129599577.50005 100986653.01045
  96778870.06006  24661980.09445        35.200          19.900          38.800  
  20580233.85208                                 108149869.08508  84272617.32849
                  20580237.87549        47.700          38.400                  
  21492272.74207                                 112942681.74607  88007283.82448
                  21492276.86748        44.300          33.000                  
  22940660.08607                                 120553968.87707  93938165.03347
                  22940662.68847        42.200          27.000                  
  20155788.67209  20155795.70309  20155795.10509 105919352.10509  82534600.24049
  79095650.58009  20155796.02349        49.800          53.800          54.400  
  25132173.46104  25132182.61305  25132182.82406 132070471.40904 102912086.75747
  98624078.73706  25132182.37547        34.600          26.700          40.800  
  23557122.98406  23557129.56606                 123793499.91506  96462496.13146
                  23557129.41846        39.000          23.800                  
  21453167.47708  21453172.36707                 112737147.22208  87847141.69849
                  21453171.83649        46.800          47.500                  
  21076178.68009  21076185.82809  21076185.09009 110756118.96009  86303472.29949
  82707491.54509  21076185.55149        50.300          52.000          50.800  
 20 04 21 00 06 55.0000000  0 10G03G10G14G16G22G26G27G29G31G32       0.000000000
  23602366.05506  23602372.88306  23602374.24608 124031239.64106  96647765.33449
  92620779.03708  23602372.66049        38.100          34.000          45.500  
  24665301.99205  24665310.86305  24665309.67606 129617083.47205 101000294.06045
  96791942.66606  24665311.07845        35.900          17.800          38.900  
  20579962.68008                                 108148444.55408  84271507.30849
                  20579966.85949        47.800          38.000                  
  21489858.03107                                 112929990.00207  87997394.15548
                  21489861.57048        44.400          31.800                  
  22940349.89107                                 120552335.95307  93936892.61647
                  22940351.96547        42.300          27.900                  
  20155507.95309  20155515.27309  20155514.69109 105917878.21809  82533451.76349
  79094549.95409  20155515.44549        49.500          53.900          54.500  
  25128945.55503  25128954.23005  25128954.24207 132053506.18003 102898867.09047
  98611409.88607  25128954.07047        33.700          26.100          41.200  
  23557716.78906  23557723.66806                 123796621.03906  96464928.18846
                  23557723.16046        39.300          23.300                  
  21453701.52308  21453706.08608                 112739952.36908  87849327.52349
                  21453705.56649        47.100          47.500                  
  21077528.13309  21077535.31308  21077534.54709 110763210.08709  86308997.83649
  82712786.85609  21077534.93449        50.100          52.100          50.800  
 20 04 21 00 07 00.0000000  0 10G03G10G14G16G22G26G27G29G31G32       0.000000000
  23600836.98406  23600844.82806  23600846.01208 124023208.63306  96641507.40348
  92614781.85508  23600844.35548        38.100          33.600          45.300  
  24668633.09405  24668642.02705  24668640.34806 129634586.72305 101013932.91145
  96805013.28306  24668641.48845        36.200          19.300          38.800  
  20579693.35208                                 108147030.98708  84270405.82749
                  20579697.81649        47.900          39.000                  
  21487445.00007                                 112917310.50107  87987514.02248
                  21487448.80148        44.300          32.600                  
  22940041.37507                                 120550716.07907  93935630.37547
                  22940043.71947        41.700          27.100                  
  20155230.07009  20155237.43009  20155236.82809 105916418.26109  82532314.13549
  79093459.72209  20155237.61749        50.000          53.800          54.400  
  25125716.41403  25125724.01604  25125725.25807 132036535.88103 102885643.50147
  98598737.27907  25125724.55947        33.900          25.600          41.100  
  23558313.38306  23558319.70306                 123799756.41306  96467371.33546
                  23558320.02746        39.200          24.500                  
  21454235.27308  21454239.67207                 112742758.72008  87851514.28749
                  21454239.60249        46.900          47.500                  
  21078879.90609  21078886.87908  21078886.18809 110770313.22309  86314532.74749
  82718091.14509  21078886.54749        49.900          52.100          50.800  
 20 04 21 00 07 05.0000000  0 10G03G10G14G16G22G26G27G29G31G32       0.000000000
  23599311.12506  23599319.30506  23599320.26608 124015190.88306  96635259.80448
  92608794.57208  23599318.65248        38.400          33.000          45.600  
  24671963.41405  24671971.52305  24671970.85506 129652087.20705 101027569.64145
  96818081.82006  24671971.42645        35.400          18.300          38.900  
  20579426.68808                                 108145628.30908  84269312.82949
                  20579431.06349        46.900          38.300                  
  21485034.15607                                 112904643.17107  87977643.37948
                  21485038.41848        44.500          32.000                  
  22939735.57007                                 120549109.20407  93934378.25047
                  22939738.02047        42.400          27.700                  
  20154954.64809  20154962.44509  20154961.67209 105914972.21609  82531187.34349
  79092379.87509  20154962.49649        49.600          53.900          54.500  
  25122485.27303  25122494.09805  25122494.86707 132019560.51303 102872415.94947
  98586060.89107  25122494.15647        33.400          25.300          41.100  
  23558913.07006  23558919.19906                 123802906.00806  96469825.55146
                  23558919.20346        39.600          24.800                  
  21454770.05508  21454774.09408                 112745566.29608  87853702.00249
                  21454773.82449        46.600          47.500                  
  21080233.75009  21080240.80508  21080240.24209 110777428.38409  86320077.02749
  82723404.40309  21080240.61349        50.000          52.000          50.800  
 20 04 21 00 07 10.0000000  0 10G03G10G14G16G22G26G27G29G31G32       0.000000000
  23597788.76606  23597796.15206  23597796.90208 124007186.41506  96629022.55749
  92602817.20408  23597795.46549        38.800          34.100          45.000  
  24675292.84405  24675301.89505  24675300.62906 129669584.96905 101041204.22945
  96831148.28806  24675301.59045        35.400          19.000          38.700  
  20579161.73408                                 108144236.56908  84268228.35549
                  20579166.07049        46.700          38.400                  
  21482626.00807                                 112891988.04307  87967782.23748
                  21482630.12948        44.600          32.300                  
  22939432.43007                                 120547515.35507  93933136.30047
                  22939434.71547        41.800          27.500                  
  20154682.59409  20154690.06609  20154689.20709 105913540.04709  82530071.36549
  79091310.40509  20154689.92249        50.100          54.000          54.400  
  25119255.10203  25119262.79705  25119263.43407 132002580.13503 102859184.47147
  98573380.74907  25119262.79347        33.700          25.800          41.100  
  23559514.68006  23559521.09406                 123806069.77806  96472290.82546
                  23559521.60546        39.300          23.200                  
  21455304.00808  21455308.73007                 112748375.07408  87855890.65749
                  21455308.30149        46.700          47.300                  
  21081589.97709  21081597.19508  21081596.48809 110784555.55309  86325630.66049
  82728726.63709  21081596.79349        49.900          52.000          51.000  
 20 04 21 00 07 15.0000000  0 10G03G10G14G16G22G26G27G29G31G32       0.000000000
  23596267.45306  23596275.04706  23596276.31308 123999195.23706  96622795.65448
  92596849.75608  23596274.80148        38.600          33.500          45.000  
  24678621.50804  24678630.69505  24678630.22706 129687079.93304 101054836.68445
  96844212.74906  24678630.93045        34.800          18.600          38.800  
  20578899.13308                                 108142855.77308  84267152.40349
                  20578903.34849        46.800          38.400                  
  21480219.96107                                 112879345.14207  87957930.62948
                  21480224.26248        44.600          32.700                  
  22939131.78907                                 120545934.53707  93931904.49647
                  22939133.66047        42.100          27.400                  
  20154412.28109  20154420.02709  20154419.30109 105912121.80009  82528966.23249
  79090251.31709  20154420.05149        50.000          53.900          54.800  
  25116022.88303  25116031.02705  25116031.31307 131985594.81703 102845949.15847
  98560696.88507  25116030.59847        33.800          26.000          41.300  
  23560119.84406  23560125.80105                 123809247.79706  96474767.22446
                  23560126.01646        39.900          22.300                  
  21455838.85908  21455843.21507                 112751185.08408  87858080.26949
                  21455843.03549        46.400          47.400                  
  21082948.35909  21082955.92208  21082954.95309 110791694.73509  86331193.65549
  82734057.84709  21082955.48849        49.800          51.900          51.000  
 20 04 21 00 07 20.0000000  0 10G03G10G14G16G22G26G27G29G31G32       0.000000000
  23594749.31306  23594757.12906  23594758.21108 123991217.34406  96616579.11348
  92590892.24508  23594756.56648        38.300          33.800          45.600  
  24681950.10205  24681959.19905  24681959.19106 129704572.20105 101068466.96945
  96857275.09906  24681959.78545        35.000          18.300          39.100  
  20578638.35908                                 108141485.96308  84266085.01349
                  20578642.65249        46.700          38.700                  
  21477816.61707                                 112866714.50607  87948088.56748
                  21477820.56348        44.700          33.000                  
  22938833.00007                                 120544366.70207  93930682.81747
                  22938835.26247        42.200          26.500                  
  20154145.43809  20154152.62509  20154152.07809 105910717.43909  82527871.92749
  79089202.61509  20154152.74249        50.100          54.000          54.400  
  25112788.71103  25112797.88704  25112797.95306 131968604.42003 102832709.89447
  98548009.26006  25112797.53947        33.500          26.600          40.900  
  23560727.47706  23560733.29706                 123812440.07506  96477254.71546
                  23560733.67646        39.600          22.800                  
  21456373.45308  21456378.52307                 112753996.30108  87860270.82449
                  21456378.03149        46.800          47.300                  
  21084309.55509  21084316.53908  21084315.82409 110798845.95009  86336766.02649
  82739398.02509  21084316.12549        49.800          52.100          50.800  
 20 04 21 00 07 25.0000000  0 10G03G10G14G16G22G26G27G29G31G32       0.000000000
  23593234.35206  23593242.02306  23593242.74208 123983252.75106  96610372.94449
  92584944.67108  23593240.80149        38.600          34.100          45.200  
  24685278.27304  24685287.90205  24685287.10906 129722061.64604 101082095.08645
  96870335.37806  24685288.28545        34.400          18.300          39.500  
  20578379.97708                                 108140127.09508  84265026.15149
                  20578384.02049        46.700          38.300                  
  21475415.14107                                 112854096.14207  87938256.08348
                  21475419.67248        44.500          32.600                  
  22938537.28907                                 120542811.91407  93929471.27847
                  22938539.53547        41.900          26.700                  
  20153880.90609  20153888.12909  20153887.52009 105909326.98509  82526788.45949
  79088164.28009  20153888.22749        49.600          53.900          54.600  
  25109555.12503  25109563.31305  25109564.01206 131951609.07203 102819466.77347
  98535317.94006  25109563.67647        33.600          25.600          40.500  
  23561337.28906  23561343.44106                 123815646.61006  96479753.28046
                  23561343.48846        39.600          22.900                  
  21456908.93008  21456913.44507                 112756808.76408  87862462.35749
                  21456913.21949        46.800          47.300                  
  21085672.44509  21085679.73408  21085679.00009 110806009.18309  86342347.76549
  82744747.19309  21085679.29349        49.800          52.000          50.800  
 20 04 21 00 07 30.0000000  0 10G03G10G14G16G22G26G27G29G31G32       0.000000000
  23591720.64806  23591728.62106  23591729.71908 123975301.44006  96604177.11548
  92579006.99508  23591728.18048        38.500          33.600          45.000  
  24688606.30505  24688614.82005  24688614.83206 129739548.28505 101095721.00745
  96883393.54706  24688615.52345        35.200          16.900          39.200  
  20578122.96108                                 108138779.12408  84263975.79049
                  20578127.49249        46.800          38.100                  
  21473016.82807                                 112841489.95107  87928433.07448
                  21473020.48448        44.600          32.900                  
  22938243.68807                                 120541270.10307  93928269.87147
                  22938246.22347        41.800          27.900                  
  20153618.78909  20153626.25009  20153625.52009 105907950.37109  82525715.77149
  79087136.29309  20153626.35249        50.300          53.900          54.300  
  25106318.97703  25106328.55905  25106328.69907 131934608.65903 102806219.69747
  98522622.86107  25106328.77047        33.100          25.900          41.200  
  23561950.25006  23561956.60906                 123818867.27906  96482262.90746
                  23561956.51246        39.900          22.500                  
  21457444.67208  21457449.23808                 112759622.38008  87864654.77849
                  21457448.52049        47.200          47.300                  
  21087037.64809  21087045.09408  21087044.45309 110813184.40409  86347938.84049
  82750105.30709  21087044.59049        50.000          51.900          50.700  
 20 04 21 00 07 35.0000000  0 10G03G10G14G16G22G26G27G29G31G32       0.000000000
  23590210.14806  23590217.93006  23590219.08208 123967363.41306  96597991.63448
  92573079.25308  23590217.30948        38.400          33.400          45.200  
  24691932.96904  24691942.20705  24691941.49206 129757032.07804 101109344.78945
  96896449.64206  24691942.38345        34.300          17.400          39.000  
  20577868.68008                                 108137442.15408  84262933.98149
                  20577873.27049        46.800          38.400                  
  21470620.23407                                 112828896.05907  87918619.64948
                  21470624.12148        44.600          32.800                  
  22937953.50807                                 120539741.29107  93927078.57547
                  22937955.34047        42.500          27.100                  
  20153359.33609  20153366.94109  20153366.26609 105906587.67809  82524653.93049
  79086118.69009  20153366.96149        50.200          54.000          54.600  
  25103083.75003  25103092.85905  25103092.79706                 102792959.82905
  98509924.06106  25103092.82447        32.600          25.600          40.900  
  23562566.19506  23562572.09406                 123822102.19106  96484783.61946
                  23562572.33246        39.400          24.200                  
  21457980.41408  21457984.61708                 112762437.21508  87866848.15249
                  21457984.14849        46.900          47.400                  
  21088405.71909  21088413.02308  21088412.08609 110820371.63809  86353539.28049
  82755472.39209  21088412.43049        50.200          51.900          51.000  
 20 04 21 00 07 40.0000000  0 10G03G10G14G16G22G26G27G29G31G32       0.000000000
  23588702.12506  23588710.23406  23588711.07808 123959438.74706  96591816.56548
  92567161.47408  23588709.40248        38.800          33.800          45.800  
  24695259.13304  24695268.88305  24695267.66806 129774513.11404 101122966.35545
  96909503.64006  24695268.62945        34.800          17.400          38.900  
  20577616.30508                                 108136116.16908  84261900.74749
                  20577620.88749        46.700          38.400                  
  21468226.27307                                 112816314.46107  87908815.81048
                  21468229.74648        44.700          33.200                  
  22937664.69507                                 120538225.44907  93925897.39647
                  22937667.02747        42.500          26.500                  
  20153103.02309  20153110.16809  20153109.57409 105905238.87609  82523602.91649
  79085111.47609  20153110.24649        50.200          54.000          54.400  
  25099846.90603  25099856.16805  25099856.25807 131900593.08203 102779714.07356
  98497221.60307  25099855.79346        32.400          24.700          41.400  
  23563184.25806  23563190.15605                 123825351.35606  96487315.43546
                  23563190.49646        39.600          23.900                  
  21458515.85208  21458520.42207                 112765253.29608  87869042.49949
                  21458520.10549        47.000          47.300                  
  21089775.75009  21089782.77309  21089782.18009 110827570.93109  86359149.11349
  82760848.47809  21089782.48049        49.700          51.900          50.800  
 20 04 21 00 07 45.0000000  0 10G03G10G14G16G22G26G27G29G31G32       0.000000000
  23587196.55506  23587204.57806  23587205.64808 123951527.36806  96585651.85648
  92561253.61408  23587204.18048        38.300          33.900          45.000  
  24698585.42205  24698594.79305  24698594.35206 129791991.29205 101136585.67545
  96922555.51006  24698594.68445        35.000          19.000          39.200  
  20577366.60208                                 108134801.14208  84260876.05449
                  20577370.59849        46.700          38.800                  
  21465834.02307                                 112803745.09907  87899021.49748
                  21465838.05948        44.600          33.700                  
  22937378.89807                                 120536722.60507  93924726.35547
                  22937381.17247        42.300          27.100                  
  20152848.73409  20152855.95309  20152855.46909 105903903.93709  82522562.70749
  79084114.59709  20152856.13749        50.400          53.900          54.400  
  25096608.89103  25096617.59805  25096618.07407 131883577.86503 102766455.46946
  98484515.42507  25096617.93846        33.200          24.200          41.300  
  23563805.67206  23563811.31606                 123828614.75106  96489858.33446
                  23563811.52346        39.400          22.600                  
  21459051.77308  21459056.46907                 112768070.56108  87871237.76949
                  21459056.14549        47.100          47.200                  
  21091147.56309  21091154.90609  21091154.43409 110834782.20109  86364768.27949
  82766233.51409  21091154.52349        49.700          51.800          50.800  
 20 04 21 00 07 50.0000000  0 10G03G10G14G16G22G26G27G29G31G32       0.000000000
  23585693.88305  23585701.50406  23585702.66408 123943629.33905  96579497.53948
  92555355.72908  23585701.00448        37.900          33.700          45.300  
  24701911.49204  24701920.05505  24701919.14506 129809466.65404 101150202.83045
  96935605.27106  24701920.59845        34.800          16.300          38.400  
  20577118.39108                                 108133497.14108  84259859.94949
                  20577122.46149        46.800          38.000                  
  21463444.24207                                 112791188.06607  87889236.79848
                  21463448.57848        44.600          31.800                  
  22937095.19507                                 120535232.81607  93923565.48747
                  22937097.53547        42.100          27.900                  
  20152597.60909  20152604.69909  20152604.07009 105902582.90109  82521533.31949
  79083128.10809  20152604.91849        50.000          54.000          54.400  
  25093369.60203  25093378.80905  25093379.42607 131866557.69203 102753192.99547
  98471805.57707  25093378.84047        32.300          25.800          41.300  
  23564429.09406  23564435.16406                 123831892.42506  96492412.37146
                  23564435.28946        39.700          24.300                  
  21459588.69508  21459592.68808                 112770889.03008  87873433.97849
                  21459592.51649        47.000          47.300                  
  21092522.19509  21092529.89509  21092529.00009 110842005.53309  86370396.84949
  82771627.55309  21092529.42649        50.500          51.900          50.800  
 20 04 21 00 07 55.0000000  0 10G03G10G14G16G22G26G27G29G31G32       0.000000000
  23584193.38306  23584200.48806  23584202.18808 123935744.67206  96573353.63848
  92549467.83708  23584200.25848        38.400          33.600          45.500  
  24705236.01605  24705245.44505  24705245.12106 129826939.21105 101163817.76445
  96948652.95906  24705245.36345        35.000          16.900          39.200  
  20576872.10908                                 108132204.17108  84258852.43249
                  20576876.52049        46.700          38.800                  
  21461057.71907                                 112778643.38807  87879461.72448
                  21461061.27748        44.900          32.800                  
  22936814.01607                                 120533756.08707  93922414.77847
                  22936816.37947        42.000          26.900                  
  20152348.68009  20152356.22309  20152355.37909 105901275.77309  82520514.78049
  79082152.01409  20152356.02749        49.800          53.900          54.500  
  25090131.04703  25090139.36705  25090139.62906 131849532.69303 102739926.76047
  98459092.11006  25090139.12147        33.100          26.000          40.600  
  23565055.51606  23565061.49206                 123835184.36106  96494977.51646
                  23565061.46546        39.700          24.000                  
  21460125.08608  21460129.50408                 112773708.76508  87875631.17149
                  21460129.12549        47.200          47.700                  
  21093899.38309  21093906.43008  21093905.77709 110849240.93309  86376034.81549
  82777030.60309  21093906.16849        50.000          52.000          50.800  
 20 04 21 00 08 00.0000000  0 10G03G10G14G16G22G26G27G29G31G32       0.000000000
  23582694.92206  23582703.46506  23582704.22308 123927873.37006  96567220.16748
  92543589.89508  23582702.60948        38.400          33.300          45.100  
  24708561.03104  24708569.80105  24708568.96506 129844408.91104 101177430.56145
  96961698.50906  24708569.49645        34.800          18.600          39.100  
  20576628.14108                                 108130922.19708  84257853.47949
                  20576632.33649        46.800          40.100                  
  21458672.29707                                 112766110.99807  87869696.22648
                  21458676.45348        44.700          32.800                  
  22936535.38307                                 120532292.37007  93921274.21447
                  22936538.01247        41.800          28.400                  
  20152102.54709  20152109.80909  20152109.25809 105899982.52209  82519507.04649
  79081186.26409  20152110.05149        49.500          54.000          54.600  
  25086888.75803  25086898.41405  25086898.86707 131832502.75803 102726656.69047
  98446374.94907  25086898.29747        33.400          25.900          41.500  
  23565684.67206  23565690.90606                 123838490.51306  96497553.73946
                  23565690.51246        39.700          24.100                  
  21460662.07808  21460666.37108                 112776529.66608  87877829.27549
                  21460665.82449        47.000          47.500                  
  21095278.41409  21095285.57008  21095285.05909 110856488.34009  86381682.14149
  82782442.62509  21095285.16449        49.900          52.000          51.300  
 20 04 21 00 08 05.0000000  0 10G03G10G14G16G22G26G27G29G31G32       0.000000000
  23581200.48406  23581207.83206  23581208.98008 123920015.32506  96561097.01149
  92537721.87608  23581207.22349        38.600          34.000          45.900  
  24711885.17204  24711893.20305  24711893.32406 129861875.66404 101191040.97045
  96974741.84806  24711893.21145        34.800          17.400          39.500  
  20576386.50808                                 108129651.17408  84256863.06149
                  20576390.40249        46.700          40.200                  
  21456290.10207                                 112753590.89107  87859940.29948
                  21456293.73448        44.700          32.700                  
  22936259.80507                                 120530841.58707  93920143.73047
                  22936261.90247        42.400          27.300                  
  20151859.06309  20151866.41409  20151865.78509 105898703.08409  82518510.08949
  79080230.84409  20151866.56649        49.900          54.100          54.600  
  25083647.62503  25083656.74605  25083657.01206 131815467.87203 102713382.75747
  98433654.09006  25083656.55547        32.900          26.100          40.900  
  23566316.46106  23566322.28906                 123841810.79906  96500140.97746
                  23566322.58646        39.600          24.800                  
  21461199.06308  21461203.50408                 112779351.70808  87880028.26449
                  21461202.89149        47.100          47.300                  
  21096659.80509  21096666.89808  21096666.32809 110863747.72109  86387338.79949
  82787863.59809  21096666.59849        49.600          52.000          50.900  
 20 04 21 00 08 10.0000000  0 10G03G10G14G16G22G26G27G29G31G32       0.000000000
  23579707.62506  23579714.77706  23579716.34008 123912170.63906  96554984.26148
  92531863.83908  23579714.35548        38.800          33.800          45.500  
  24715208.30505  24715216.83205  24715216.95706 129879339.60105 101204649.24045
  96987783.04906  24715216.37945        35.300          16.300          39.500  
  20576146.24208                                 108128391.20508  84255881.28649
                  20576150.74249        47.200          39.400                  
  21453909.67207                                 112741083.12407  87850193.97948
                  21453913.78548        44.700          33.600                  
  22935985.83607                                 120529403.84207  93919023.40847
                  22935988.26647        42.300          27.700                  
  20151618.24209  20151625.53109  20151624.96109 105897437.50809  82517523.92349
  79079285.76809  20151625.70349        49.500          53.900          54.400  
  25080405.21903  25080414.40205  25080414.58607 131798428.09703 102700105.00946
  98420929.59407  25080414.14546        32.800          24.400          41.100  
  23566950.24206  23566956.98806                 123845145.40406  96502739.37446
                  23566957.00846        39.300          23.000                  
  21461736.42208  21461740.39108                 112782174.96008  87882228.19849
                  21461740.10949        47.300          47.700                  
  21098043.54709  21098050.72708  21098050.13309 110871019.13009  86393004.82449
  82793293.54409  21098050.34449        50.200          51.900          50.900  
 20 04 21 00 08 15.0000000  0 10G03G10G14G16G22G26G27G29G31G32       0.000000000
  23578217.39106  23578224.71506  23578226.21508 123904339.27006  96548881.90148
  92526015.74308  23578224.18048        38.100          33.300          45.300  
  24718530.23405  24718539.37105  24718538.53906 129896800.53305 101218255.16945
  97000822.07606  24718539.08245        35.200          18.600          39.400  
  20575909.19508                                 108127142.22808  84254908.03949
                  20575912.99249        46.800          41.200                  
  21451531.81307                                 112728587.68507  87840457.28048
                  21451536.00448        44.800          32.400                  
  22935714.81307                                 120527979.06407  93917913.18947
                  22935716.89847        42.100          27.800                  
  20151379.78109  20151387.41009  20151386.77709 105896185.78009  82516548.54749
  79078351.04109  20151387.46149        49.300          53.900          54.300  
  25077161.19503  25077170.94105  25077170.72306 131781383.43003 102686823.45847
  98408201.42906  25077170.37547        32.900          26.400          40.700  
  23567587.99206  23567594.09405                 123848494.23606  96505348.84446
                  23567594.35546        39.300          23.900                  
  21462273.59408  21462278.10207                 112784999.39108  87884429.06049
                  21462277.53549        47.200          47.500                  
  21099429.41409  21099436.57008  21099436.14509 110878302.53109  86398680.20249
  82798732.44009  21099436.39549        50.000          52.000          50.900  
 20 04 21 00 08 20.0000000  0 10G03G10G14G16G22G26G27G29G31G32       0.000000000
  23576729.87506  23576737.14106  23576738.27308 123896521.28306  96542789.97049
  92520177.63408  23576736.61749        38.400          34.300          45.400  
  24721852.32004  24721861.49605  24721861.76206 129914258.64604 101231858.83545
  97013858.94906  24721861.43845        34.600          16.900          40.100  
  20575672.82008                                 108125904.37308  84253943.46349
                  20575677.52349        47.200          41.100                  
  21449156.72708                                 112716104.63208  87830730.22748
                  21449160.55548        45.200          32.600                  
  22935445.95307                                 120526567.30607  93916813.11047
                  22935448.34447        42.400          26.900                  
  20151144.75809  20151151.96909  20151151.17209 105894947.92809  82515583.98249
  79077426.66009  20151151.95349        49.400          54.100          54.400  
  25073917.18003  25073926.09405  25073926.53906 131764333.96003 102673538.17447
  98395469.66606  25073926.38747        32.300          27.000          40.600  
  23568227.73406  23568234.02306                 123851857.31206  96507969.40846
                  23568234.21946        39.900          22.900                  
  21462811.39108  21462815.61307                 112787825.04508  87886630.86149
                  21462815.23049        47.300          47.600                  
  21100817.75809  21100825.17208  21100824.48809 110885597.98509  86404364.96649
  82804180.33709  21100824.65649        50.000          52.000          50.800  
 20 04 21 00 08 25.0000000  0 10G03G10G14G16G22G26G27G29G31G32       0.000000000
  23575243.57006  23575252.18006  23575252.98008 123888716.65606  96536708.43348
  92514349.51708  23575251.43848        38.400          33.500          45.900  
  24725174.09405  24725183.30505  24725182.60506 129931713.83505 101245460.29945
  97026893.62906  24725182.72345        35.300          16.900          39.000  
  20575440.16408                                 108124677.57608  84252987.53549
                  20575444.32849        47.300          39.000                  
  21446783.48407                                 112703633.90607  87821012.77748
                  21446787.56648        44.900          32.500                  
  22935179.85207                                 120525168.56107  93915723.19347
                  22935182.32447        42.100          27.000                  
  20150911.71909  20150918.84009  20150918.18409 105893723.93809  82514630.22549
  79076512.63809  20150918.97349        49.400          53.900          54.600  
  25070672.20302  25070680.99205  25070681.41406 131747279.56002 102660249.00746
  98382734.25506  25070680.94146        31.900          24.600          40.500  
  23568870.71106  23568876.81305                 123855234.64206  96510601.09546
                  23568876.76246        39.700          22.300                  
  21463349.35208  21463353.74207                 112790651.91308  87888833.61249
                  21463353.21149        47.100          47.500                  
  21102208.39109  21102215.53108  21102215.00009 110892905.45709  86410059.09549
  82809637.21209  21102215.31649        49.800          52.000          51.400  
 20 04 21 00 08 30.0000000  0 10G03G10G14G16G22G26G27G29G31G32       0.000000000
  23573761.32006  23573769.42206  23573770.46508 123880925.38606  96530637.30948
  92508531.34808  23573769.10548        38.300          33.400          45.500  
  24728494.98404  24728504.43405  24728502.91406 129949166.00604 101259059.37945
  97039926.12206  24728503.94145        34.400          17.400          38.300  
  20575207.93008                                 108123461.78908  84252040.16649
                  20575212.94549        47.000          39.400                  
  21444412.87508                                 112691175.52008  87811304.94348
                  21444416.75848        45.000          33.200                  
  22934916.09407                                 120523782.81007  93914643.38247
                  22934918.57047        41.900          27.800                  
  20150681.25009  20150688.80909  20150687.93409 105892513.73509  82513687.20449
  79075608.91709  20150688.75449        49.200          53.900          54.600  
  25067425.77303  25067434.43805  25067435.00806 131730220.32803 102646956.10947
  98369995.24106  25067434.60547        32.200          25.600          40.800  
  23569516.99206  23569521.49205                 123858626.22306  96513243.89246
                  23569522.22746        39.800          22.800                  
  21463887.49208  21463891.85507                 112793479.95608  87891037.27749
                  21463891.37949        47.000          47.600                  
  21103600.94509  21103608.52008  21103607.88709 110900224.92309  86415762.57249
  82815103.03609  21103608.14549        50.100          51.900          50.900  
 20 04 21 00 08 35.0000000  0 10G03G10G14G16G22G26G27G29G31G32       0.000000000
  23572281.28906  23572289.19906  23572290.39808 123873147.48306  96524576.60648
  92502723.15508  23572288.84048        38.300          33.400          45.600  
  24731815.93004  24731825.16005  24731824.35206 129966615.27404 101272656.19945
  97052956.39606  24731824.86745        34.300          17.800          38.800  
  20574979.21908                                 108122257.02108  84251101.37249
                  20574983.62549        46.700          39.300                  
  21442044.52307                                 112678729.48307  87801606.72948
                  21442048.11748        44.900          31.900                  
  22934654.80507                                 120522410.01307  93913573.65547
                  22934657.55547        41.900          27.800                  
  20150453.53909  20150461.11309  20150460.25409 105891317.39709  82512754.99149
  79074715.54209  20150461.06349        49.200          53.800          54.300  
  25064177.51603  25064186.97305  25064187.50806 131713156.25203 102633659.44347
  98357252.60006  25064187.54747        32.800          26.400          40.600  
  23570164.07806  23570170.61306                 123862032.05006  96515897.78246
                  23570170.21946        39.600          22.800                  
  21464425.98408  21464430.25407                 112796309.19208  87893241.87449
                  21464429.79749        47.100          47.500                  
  21104996.39809  21105003.69508  21105003.01209 110907556.41409  86421475.41449
  82820577.83809  21105003.18449        49.700          52.000          50.800  
 20 04 21 00 08 40.0000000  0 10G03G10G14G16G22G26G27G29G31G32       0.000000000
  23570803.55506  23570811.50006  23570812.81608 123865382.91306  96518526.28648
  92496924.96608  23570811.11748        38.100          33.000          45.300  
  24735135.28104  24735144.74205  24735143.77706 129984061.57304 101286250.70545
  97065984.48906  24735144.48845        34.500          17.800          38.700  
  20574752.31308                                 108121063.31908  84250171.21249
                  20574756.40249        46.800          39.500                  
  21439678.29708                                 112666295.82308  87791918.16248
                  21439682.35248        45.100          32.600                  
  22934396.31307                                 120521050.20107  93912514.06947
                  22934398.78547        42.200          27.200                  
  20150228.40609  20150236.08209  20150235.25009 105890134.87509  82511833.54549
  79073832.48809  20150236.00449        49.300          53.500          54.400  
  25060931.04703  25060939.92605  25060939.54706 131696087.35103 102620359.00347
  98344506.36006  25060939.23447        33.000          26.800          40.900  
  23570815.28906  23570821.74605                 123865452.11606  96518562.76246
                  23570821.25446        40.100          22.900                  
  21464964.64108  21464968.68807                 112799139.59808  87895447.38049
                  21464968.35949        47.000          47.200                  
  21106393.49209  21106401.03108  21106400.38309 110914899.89609  86427197.60549
  82826061.61109  21106400.66449        49.700          51.600          50.800  
 20 04 21 00 08 45.0000000  0 10G03G10G14G16G22G26G27G29G31G32       0.000000000
  23569328.57805  23569336.89806  23569337.68408 123857631.78305  96512486.44448
  92491136.75808  23569336.00448        37.900          33.700          45.000  
  24738454.96105  24738464.04305  24738463.60506 130001504.96005 101299842.89045
  97079010.33006  24738464.26245        35.200          18.600          39.000  
  20574526.80508                                 108119880.68308  84249249.67449
                  20574531.32049        46.800          39.400                  
  21437314.57007                                 112653874.56207  87782239.26648
                  21437318.71948        44.800          33.100                  
  22934140.71907                                 120519703.34907  93911464.57447
                  22934142.70347        42.400          26.900                  
  20150006.49209  20150013.72709  20150012.87109 105888966.19009  82510922.87949
  79072959.76509  20150013.75849        49.200          53.800          54.400  
  25057681.96903  25057690.01205  25057690.52307 131679013.68103 102607054.85747
  98331756.51807  25057690.05947        33.600          27.700          41.300  
  23571468.59406  23571474.71506                 123868886.39906  96521238.82946
                  23571474.73846        39.600          22.800                  
  21465503.48408  21465507.69908                 112801971.17608  87897653.80349
                  21465507.08249        47.100          47.500                  
  21107793.18009  21107800.59008  21107800.16009 110922255.41809  86432929.17749
  82831554.35909  21107800.38749        49.800          51.900          50.800  
 20 04 21 00 08 50.0000000  0 10G03G10G14G16G22G26G27G29G31G32       0.000000000
  23567856.57806  23567864.47706  23567865.33208 123849894.06606  96506457.05049
  92485358.59008  23567863.56649        38.400          34.200          45.000  
  24741773.78104  24741782.78905  24741782.92206 130018945.37304 101313432.83645
  97092034.01706  24741783.30945        34.500          17.800          39.200  
  20574303.90608                                 108118709.21308  84248336.83749
                  20574308.43849        47.000          39.900                  
  21434953.43008                                 112641465.74808  87772570.05648
                  21434957.35248        45.000          33.000                  
  22933886.18007                                 120518369.50607  93910425.21447
                  22933888.93047        42.400          27.500                  
  20149786.49209  20149793.93009  20149793.11309 105887811.39309  82510023.04149
  79072097.41909  20149793.91449        49.000          53.800          54.300  
  25054431.45304  25054440.88705  25054440.34406 131661935.24504 102593747.01847
  98319003.16206  25054440.18847        34.300          27.700          40.900  
  23572124.85906  23572130.94505                 123872334.96006  96523926.02146
                  23572130.95746        39.900          22.300                  
  21466042.35208  21466046.88307                 112804803.98308  87899861.18649
                  21466046.27349        46.900          47.600                  
  21109195.50009  21109202.62509  21109202.25809 110929622.98709  86438670.13849
  82837056.12009  21109202.43449        49.900          51.800          51.100  
 20 04 21 00 08 55.0000000  0 10G03G10G14G16G22G26G27G29G31G32       0.000000000
  23566386.46106  23566394.25006  23566395.39808 123842169.66406  96500438.04249
  92479590.36208  23566394.04749        38.600          34.000          45.300  
  24745092.04705  24745101.41405  24745101.09806 130036382.75305 101327020.40145
  97105055.41106  24745101.52045        35.000          18.300          39.700  
  20574083.23408                                 108117548.76708  84247432.59749
                  20574087.46549        47.000          39.500                  
  21432594.46907                                 112629069.26707  87762910.46948
                  21432598.59448        44.600          32.900                  
  22933634.99207                                 120517048.54907  93909395.88947
                  22933637.53547        42.400          27.400                  
  20149568.95309  20149576.77309  20149575.93009 105886670.36709  82509133.92849
  79071245.35809  20149576.69549        49.300          53.700          54.500  
  25051180.46104  25051189.53105  25051189.69907 131644851.90304 102580435.32447
  98306246.13807  25051189.16447        34.500          27.900          41.300  
  23572783.28906  23572789.88705                 123875797.73606  96526624.28046
                  23572790.07446        39.600          22.500                  
  21466581.63308  21466586.03107                 112807637.92508  87902069.44849
                  21466585.54349        46.800          47.300                  
  21110599.51609  21110607.10209  21110606.49609 110937002.53209  86444420.43149
  82842566.81809  21110606.75049        49.600          51.800          50.900  
 20 04 21 00 09 00.0000000  0 10G03G10G14G16G22G26G27G29G31G32       0.000000000
  23564919.43006  23564926.50406  23564927.91408 123834458.70106  96494429.49248
  92473832.17908  23564926.41448        38.600          33.800          45.000  
  24748410.49204  24748419.03105  24748418.38306 130053817.11004 101340605.58345
  97118074.60106  24748418.85545        34.600          17.800          39.000  
  20573864.69508                                 108116399.46008  84246537.02149
                  20573868.80149        46.600          39.500                  
  21430237.67207                                 112616685.18907  87753260.53248
                  21430241.87948        44.700          33.500                  
  22933385.36707                                 120515740.65107  93908376.74347
                  22933388.44547        42.500          27.600                  
  20149354.50009  20149362.11709  20149361.46509 105885543.18409  82508255.59649
  79070403.61509  20149362.28149        49.600          53.800          54.300  
  25047928.34404  25047937.66005  25047938.30107 131627763.83304 102567119.94347
  98293485.58307  25047937.78147        34.400          28.000          41.100  
  23573445.49206  23573451.24605                 123879274.78906  96529333.67146
                  23573451.51246        39.600          22.500                  
  21467121.14808  21467125.19107                 112810473.04508  87904278.63049
                  21467124.85949        46.900          47.400                  
  21112006.18009  21112013.76608  21112013.05509 110944394.14109  86450180.11949
  82848086.51509  21112013.37949        49.700          51.900          51.100  
 20 04 21 00 09 05.0000000  0 10G03G10G14G16G22G26G27G29G31G32       0.000000000
  23563454.33606  23563461.98006  23563463.36308 123826761.12506  96488431.38049
  92468084.00008  23563461.70749        38.500          34.300          45.300  
  24751727.25803  24751735.66405  24751735.93006 130071248.57903 101354188.56245
  97131091.53806  24751736.10245        33.600          18.600          39.100  
  20573647.92208                                 108115261.23908  84245650.08149
                  20573652.43849        47.200          38.700                  
  21427883.52308                                 112604313.51208  87743620.27248
                  21427887.70748        45.100          33.200                  
  22933139.09407                                 120514445.66807  93907367.67147
                  22933142.19947        42.400          27.800                  
  20149142.63309  20149150.25809  20149149.65209 105884429.81609  82507388.03949
  79069572.20609  20149150.48049        49.000          53.800          54.400  
  25044676.35204  25044684.98405  25044685.59406 131610670.99804 102553800.85147
  98280721.44706  25044685.16047        34.500          27.500          40.900  
  23574109.62506  23574116.10505                 123882766.09706  96532054.17346
                  23574115.60246        39.600          22.600                  
  21467660.71108  21467665.40607                 112813309.34008  87906488.73149
                  21467664.53549        46.800          47.400                  
  21113415.25809  21113422.41408  21113421.87509 110951797.74309  86455949.15249
  82853615.16809  21113422.19949        49.900          51.900          51.000  
 20 04 21 00 09 10.0000000  0 10G03G10G14G16G22G26G27G29G31G32       0.000000000
  23561992.27306  23562000.00006  23562001.12508 123819076.93206  96482443.70049
  92462345.79208  23561999.39849        38.400          34.400          45.200  
  24755043.53103  24755053.11305  24755052.34006 130088676.87303 101367769.09245
  97144106.14506  24755052.80945        33.400          17.400          39.200  
  20573433.66408                                 108114134.09308  84244771.79049
                  20573437.82849        47.100          38.300                  
  21425531.68808                                 112591954.20208  87733989.63148
                  21425535.77748        45.300          32.900                  
  22932895.53107                                 120513163.59607  93906368.64547
                  22932898.02747        42.800          27.700                  
  20148933.87509  20148941.23809  20148940.30509 105883330.21809  82506531.20749
  79068751.07809  20148941.22349        49.100          53.700          54.400  
  25041422.28904  25041431.16805  25041431.98806 131593573.34904 102540478.01947
  98267953.73006  25041431.68047        34.300          27.200          40.800  
  23574776.80506  23574783.64105                 123886271.62506  96534785.75446
                  23574782.56646        39.700          22.600                  
  21468200.68808  21468205.32807                 112816146.78108  87908699.71649
                  21468204.54349        46.800          47.200                  
  21114826.28909  21114833.50808  21114833.03909 110959213.31709  86461727.51849
  82859152.76909  21114833.27749        49.800          52.000          51.000  
 20 04 21 00 09 15.0000000  0 10G03G10G14G16G22G26G27G29G31G32       0.000000000
  23560532.46106  23560540.36706  23560541.36308 123811406.09706  96476466.42449
  92456617.56708  23560539.90649        38.700          34.400          45.500  
  24758359.26604  24758368.44505  24758367.31306 130106102.09804 101381347.12045
  97157118.50706  24758368.74245        34.600          17.800          38.900  
  20573221.07008                                 108113017.99508  84243902.10049
                  20573225.45749        46.900          39.100                  
  21423181.93007                                 112579607.31607  87724368.68748
                  21423186.16048        44.900          33.100                  
  22932653.53907                                 120511894.51707  93905379.75447
                  22932656.39847        42.100          28.000                  
  20148726.87509  20148734.71109  20148733.72709 105882244.38909  82505685.10249
  79067940.22709  20148734.47749        49.500          53.800          54.300  
  25038168.59404  25038176.82405  25038177.52006 131576470.90404 102527151.44547
  98255182.43506  25038177.15247        34.300          26.500          40.900  
  23575447.25006  23575452.92205                 123889791.32206  96537528.37446
                  23575452.55546        39.800          22.000                  
  21468740.90608  21468745.68407                 112818985.35408  87910911.58849
                  21468744.79749        47.000          47.300                  
  21116239.71909  21116246.98009  21116246.48409 110966640.87009  86467515.21749
  82864699.31309  21116246.78949        49.700          51.900          51.200  
 20 04 21 00 09 20.0000000  0 10G03G10G14G16G22G26G27G29G31G32       0.000000000
  23559075.60206  23559083.06606  23559084.31608 123803748.68406  96470499.60549
  92450899.37808  23559082.71149        38.600          34.000          45.100  
  24761674.49205  24761683.57805  24761683.79306 130123524.33005 101394922.83345
  97170128.59006  24761684.04345        35.000          16.300          38.800  
  20573011.03908                                 108111913.09508  84243041.13849
                  20573015.09849        46.600          37.900                  
  21420834.96908                                 112567272.87308  87714757.42448
                  21420838.99648        45.200          32.800                  
  22932415.00807                                 120510638.41107  93904400.97147
                  22932417.21947        42.100          26.800                  
  20148522.89109  20148530.26609  20148529.72709 105881172.37909  82504849.76649
  79067139.71109  20148530.53149        49.400          53.500          54.300  
  25034912.79704  25034921.57405  25034922.14806 131559363.77804 102513821.22847
  98242407.62806  25034921.66447        34.800          26.400          40.600  
  23576119.49206  23576125.57006                 123893325.31306  96540282.13946
                  23576125.02746        39.700          22.800                  
  21469281.25808  21469285.85907                 112821825.12408  87913124.39049
                  21469285.05149        46.800          47.200                  
  21117655.67209  21117662.69108  21117662.05909 110974080.45209  86473312.29049
  82870254.84309  21117662.41049        49.500          51.700          50.800  
 20 04 21 00 09 25.0000000  0 10G03G10G14G16G22G26G27G29G31G32       0.000000000
  23557620.59406  23557628.81606  23557629.83208 123796104.79606  96464543.33048
  92445191.27208  23557628.20748        38.400          33.700          45.700  
  24764989.15604  24764998.57805  24764997.84406 130140943.57104 101408496.29545
  97183136.45506  24764998.79345        34.100          18.300          38.800  
  20572802.59408                                 108110819.38008  84242188.89049
                  20572807.07449        46.700          38.500                  
  21418489.84408                                 112554950.91208  87705155.90348
                  21418494.13748        45.100          33.500                  
  22932178.28107                                 120509395.33307  93903432.33147
                  22932180.78947        42.100          27.100                  
  20148321.37509  20148329.34009  20148328.36309 105880114.27409  82504025.27549
  79066349.55709  20148329.23449        49.100          53.600          54.400  
  25031656.71904  25031665.53105  25031665.71906 131542252.01504 102500487.38047
  98229629.35906  25031665.10247        34.600          26.600          40.700  
  23576794.85206  23576800.47305                 123896873.58606  96543047.02146
                  23576800.38346        39.700          22.900                  
  21469821.81308  21469826.64107                 112824666.13308  87915338.16649
                  21469825.82049        46.900          47.300                  
  21119073.44509  21119080.77709  21119080.12909 110981532.14609  86479118.80149
  82875819.41509  21119080.54749        49.800          51.900          50.800  
 20 04 21 00 09 30.0000000  0 10G03G10G14G16G22G26G27G29G31G32       0.000000000
  23556169.00006  23556176.37506  23556177.79307 123788474.32706  96458597.50749
  92439493.19607  23556176.27049        38.400          34.000          44.900  
  24768303.71104  24768313.25405  24768311.54706 130158359.71604 101422067.28645
  97196142.01306  24768312.79745        34.400          17.800          38.100  
  20572596.78108                                 108109736.79608  84241345.31249
                  20572601.04349        47.300          39.200                  
  21416147.61708                                 112542641.38508  87695564.06348
                  21416151.90248        45.000          33.300                  
  22931944.25807                                 120508165.21307  93902473.79847
                  22931946.73447        41.900          28.100                  
  20148123.14109  20148130.38309  20148129.68409 105879069.92309  82503211.49449
  79065569.68809  20148130.40649        49.100          53.700          54.400  
  25028400.37504  25028407.94505  25028408.53506 131525135.46704 102487149.82947
  98216847.54506  25028407.91447        34.800          26.800          40.300  
  23577472.45306  23577478.18806                 123900436.08506  96545823.00246
                  23577478.63746        39.900          22.600                  
  21470362.74208  21470367.23407                 112827508.30308  87917552.84049
                  21470366.65249        46.800          47.300                  
  21120493.77309  21120501.09409  21120500.46109 110988995.82009  86484934.64449
  82881392.92609  21120500.73449        49.700          51.800          50.700  
 20 04 21 00 09 35.0000000  0 10G03G10G14G16G22G26G27G29G31G32       0.000000000
  23554718.68806  23554727.54706  23554727.97708 123780857.18306  96452662.06648
  92433805.06908  23554726.79348        38.800          33.700          45.300  
  24771617.64104  24771626.59005  24771626.04306 130175772.72504 101435635.83345
  97209145.23306  24771626.14545        34.600          18.600          38.800  
  20572392.84408                                 108108665.28808  84240510.36749
                  20572397.09049        46.800          38.700                  
  21413807.91408                                 112530344.25308  87685981.88848
                  21413812.03148        45.500          33.000                  
  22931712.51607                                 120506947.96907  93901525.29147
                  22931715.18447        42.000          27.900                  
  20147926.58609  20147934.32809  20147933.57809 105878039.28609  82502408.40449
  79064800.05409  20147934.39849        49.400          53.700          54.500  
  25025141.93004  25025149.68404  25025149.86306 131508014.20104 102473808.57347
  98204062.16406  25025149.96947        34.900          25.600          40.200  
  23578152.87506  23578158.77305                 123904012.76906  96548610.01446
                  23578159.31346        39.800          22.500                  
  21470904.01608  21470908.22707                 112830351.55408  87919768.36449
                  21470907.59049        47.100          47.300                  
  21121916.33609  21121923.57008  21121923.01209 110996471.44209  86490759.80649
  82886975.37409  21121923.18049        49.500          51.800          50.700  
 20 04 21 00 09 40.0000000  0 10G03G10G14G16G22G26G27G29G31G32       0.000000000
  23553271.92206  23553280.20306  23553281.03108 123773253.56006  96446737.16549
  92428127.03808  23553279.77349        38.300          34.200          45.400  
  24774929.69504  24774939.71905  24774938.85506 130193182.74104 101449202.09145
  97222146.18506  24774939.19145        34.100          16.900          38.500  
  20572191.77308                                 108107605.01708  84239684.18149
                  20572195.32449        47.000          38.300                  
  21411470.17208                                 112518059.61008  87676409.43048
                  21411474.14848        45.100          33.300                  
  22931483.94507                                 120505743.71407  93900586.91247
                  22931486.16847        42.500          28.200                  
  20147732.87509  20147740.87509  20147740.10909 105877022.53109  82501616.12149
  79064040.78709  20147740.94149        49.300          53.700          54.500  
  25021882.83605  25021891.42204  25021891.02706 131490888.26805 102460463.68547
  98191273.35506  25021890.75447        35.400          26.900          39.900  
  23578836.39806  23578842.09005                 123907603.79506  96551408.22946
                  23578842.14846        39.900          22.900                  
  21471444.93808  21471449.30507                 112833196.03108  87921984.82949
                  21471448.89549        47.000          47.300                  
  21123341.08609  21123348.29708  21123347.93009 111003959.16309  86496594.39049
  82892566.84709  21123348.26649        50.300          51.800          51.200  
 20 04 21 00 09 45.0000000  0 10G03G10G14G16G22G26G27G29G31G32       0.000000000
  23551828.38306  23551835.94506  23551836.70308 123765663.33906  96440822.71049
  92422459.02808  23551835.26249        39.200          34.000          45.400  
  24778242.33605  24778251.58605  24778250.36705 130210589.61805 101462765.85745
  97235144.81305  24778251.69945        35.100          17.400          37.700  
  20571991.28108                                 108106555.84508  84238866.64149
                  20571995.67649        47.000          38.300                  
  21409134.51608                                 112505787.43608  87666846.70748
                  21409138.81648        45.200          33.000                  
  22931256.67207                                 120504552.44807  93899658.64647
                  22931259.57847        41.700          28.300                  
  20147542.67209  20147549.96109  20147549.20309 105876019.52009  82500834.55649
  79063291.77909  20147549.97349        49.100          53.800          54.400  
  25018622.75005  25018631.42204  25018631.33206 131473757.66405 102447115.16147
  98178480.97506  25018631.02347        35.400          27.000          39.900  
  23579522.94506  23579528.28506                 123911209.00806  96554217.47946
                  23579528.47746        39.600          24.000                  
  21471986.77308  21471991.25407                 112836041.63408  87924202.19149
                  21471990.39849        47.000          47.500                  
  21124768.21909  21124775.78508  21124774.85509 111011458.85809  86502438.29849
  82898167.26209  21124775.42249        49.900          51.900          50.800  
 20 04 21 00 09 50.0000000  0 10G03G10G14G16G22G26G27G29G31G32       0.000000000
  23550386.21906  23550394.14106  23550395.15608 123758086.52206  96434918.68048
  92416800.97908  23550393.51648        38.800          33.600          45.100  
  24781553.32004  24781563.16805  24781563.08606 130227993.22104 101476327.07145
  97248141.00506  24781563.46545        34.300          16.900          38.300  
  20571794.42208                                 108105517.79908  84238057.76949
                  20571798.09849        47.100          38.800                  
  21406801.42208                                 112493527.63408  87657293.62048
                  21406805.86348        45.400          33.900                  
  22931032.63307                                 120503373.99507  93898740.36547
                  22931035.04747        42.000          28.200                  
  20147354.02309  20147361.46909  20147360.97309 105875030.19709  82500063.65649
  79062553.00309  20147361.88349        49.200          53.700          54.400  
  25015362.37505  25015370.21505  25015370.52006 131456622.26405 102433762.91147
  98165685.10006  25015370.16047        35.700          26.600          40.200  
  23580211.53106  23580217.48006                 123914828.41606  96557037.79146
                  23580217.54346        39.200          22.600                  
  21472528.47708  21472532.88707                 112838888.33508  87926420.39349
                  21472532.07849        47.100          47.500                  
  21126197.67209  21126204.84008  21126204.44109 111018970.47409  86508291.50749
  82903776.57609  21126204.80549        49.500          51.800          50.700  
 20 04 21 00 09 55.0000000  0 10G03G10G14G16G22G26G27G29G31G32       0.000000000
  23548947.21106  23548954.58206  23548955.92608 123750523.28306  96429025.24348
  92411153.08508  23548954.25448        38.600          33.900          45.100  
  24784865.60905  24784875.37105  24784874.44506 130245393.92505 101489886.10045
  97261135.02906  24784874.89145        35.200          17.400          38.800  
  20571599.07808                                 108104491.10208  84237257.74749
                  20571602.87949        47.000          38.400                  
  21404471.07808                                 112481280.44708  87647750.36148
                  21404475.25448        45.400          33.400                  
  22930810.75807                                 120502208.60407  93897832.27047
                  22930813.25847        42.300          26.800                  
  20147168.34409  20147176.26209  20147175.46109 105874054.79309  82499303.60049
  79061824.62209  20147176.14549        49.200          53.700          54.500  
  25012100.82005  25012108.81605  25012108.99206 131439482.34305 102420407.14247
  98152885.82806  25012108.67647        35.900          26.100          39.700  
  23580902.77306  23580908.64106                 123918462.22006  96559869.33546
                  23580908.79746        39.500          23.000                  
  21473070.19508  21473074.91807                 112841736.38308  87928639.65049
                  21473074.06649        47.000          47.300                  
  21127629.24209  21127636.88308  21127636.00809 111026494.25009  86514154.17949
  82909394.97309  21127636.38749        49.400          51.700          50.900  
 20 04 21 00 10 00.0000000  0 10G03G10G14G16G22G26G27G29G31G32       0.000000000
  23547511.43006  23547518.02006  23547519.14508 123742973.39206  96423142.21649
  92405515.21908  23547517.71949        39.000          34.300          45.000  
  24788176.17204  24788185.80105  24788184.28506                 101503437.57305
  97274126.63206  24788185.30145        34.000          16.300          38.300  
  20571405.46108                                 108103475.57108  84236466.41849
                  20571409.53549        46.900          38.300                  
  21402142.72708                                 112469045.72808  87638216.80748
                  21402146.84048        45.400          32.800                  
  22930591.64807                                 120501056.12507  93896934.22747
                  22930594.03947        43.000          27.300                  
  20146985.69509  20146993.22309  20146992.32409 105873093.10409  82498554.22949
  79061106.47309  20146993.14849        49.100          53.800          54.400  
  25008837.37505  25008846.40605  25008846.53506 131422337.74905 102407047.71547
  98140083.03906  25008846.17647        35.700          27.100          39.800  
  23581596.93806  23581602.81606                 123922110.20806  96562711.91146
                  23581603.18846        39.300          22.600                  
  21473612.80508  21473616.94507                 112844585.54108  87930859.77049
                  21473616.22349        47.100          47.200                  
  21129063.60209  21129070.95308  21129069.93809 111034029.99009  86520026.18149
  82915022.30409  21129070.51649        49.900          51.700          50.600  
 20 04 21 00 10 05.0000000  0 10G03G10G14G16G22G26G27G29G31G32       0.000000000
  23546075.70306  23546083.98806  23546085.12507 123735436.96006  96417269.67049
  92399887.33707  23546083.46949        39.300          34.400          44.800  
  24791486.55504  24791495.73805  24791495.36706 130280185.72704 101516996.56845
  97287115.87406  24791495.20345        34.700          15.600          38.700  
  20571214.20308                                 108102471.19508  84235683.78249
                  20571218.41449        47.300          38.800                  
  21399817.02308                                 112456823.41808  87628692.93948
                  21399821.02748        45.300          32.800                  
  22930374.32807                                 120499916.54307  93896046.23547
                  22930377.14147        42.800          27.400                  
  20146805.28909  20146812.62109  20146811.97309 105872145.14009  82497815.55649
  79060398.57309  20146812.87149        49.000          53.500          54.700  
  25005575.03104  25005582.65205  25005583.51606 131405188.47104 102393684.64147
  98127276.75306  25005582.82447        34.700          25.600          39.400  
  23582293.08606  23582299.66406                 123925772.42906  96565565.59846
                  23582299.91846        39.200          22.600                  
  21474154.71908  21474159.34407                 112847435.81108  87933080.75349
                  21474158.64849        47.200          47.200                  
  21130499.66409  21130506.91008  21130506.32009 111041577.67109  86525907.48449
  82920658.57309  21130506.62949        49.900          51.400          50.600  
 20 04 21 00 10 10.0000000  0 10G03G10G14G16G22G26G27G29G31G32       0.000000000
  23544644.90606  23544652.83606  23544653.67608 123727914.03606  96411407.63549
  92394269.56208  23544652.02749        38.900          35.100          45.000  
  24794795.14104  24794805.41405  24794804.01206 130297576.93104 101530548.10545
  97300102.78306  24794804.48045        34.600          17.800          38.600  
  20571025.26608                                 108101478.08908  84234909.92449
                  20571029.60549        47.000          39.200                  
  21397493.39108                                 112444613.68808  87619178.87248
                  21397497.82448        45.200          33.000                  
  22930159.85907                                 120498789.91807  93895168.34947
                  22930162.76247        42.600          27.500                  
  20146627.46909  20146634.98409  20146634.22309 105871210.98809  82497087.64849
  79059700.98709  20146635.06349        48.800          53.700          54.700  
  25002310.28903  25002318.69505  25002319.07806 131388034.63803 102380318.03347
  98114467.10306  25002318.61347        33.800          25.800          39.800  
  23582993.28106  23582999.40605                 123929448.91406  96568430.37946
                  23582999.30546        39.100          22.500                  
  21474697.49208  21474701.82807                 112850287.29308  87935302.68849
                  21474701.23849        46.900          47.300                  
  21131937.91409  21131945.43408  21131944.82809 111049137.43009  86531798.20249
  82926303.83009  21131945.34049        50.100          51.500          50.500  
 20 04 21 00 10 15.0000000  0 10G03G10G14G16G22G26G27G29G31G32       0.000000000
  23543215.43006  23543223.25006  23543224.68408 123720404.57806  96405556.11849
  92388661.87208  23543222.85949        38.900          34.800          45.300  
  24798103.90605  24798113.75405  24798113.10506 130314964.95205 101544097.20545
  97313087.34606  24798113.73445        35.000          18.600          38.500  
  20570838.54708                                 108100496.22908  84234144.83449
                  20570842.65249        47.300          38.300                  
  21395172.57808                                 112432416.47308  87609674.54648
                  21395176.81648        45.200          33.800                  
  22929948.25007                                 120497676.25007  93894300.54447
                  22929950.62947        41.700          27.600                  
  20146452.23409  20146460.10509  20146459.03909 105870290.60809  82496370.46249
  79059013.69809  20146459.96149        49.100          53.700          54.500  
  24999045.85904  24999053.14105  24999053.92206 131370876.21204 102366947.83147
  98101653.97406  24999053.54347        34.100          27.700          39.500  
  23583695.50006  23583701.67606                 123933139.64106  96571306.27346
                  23583701.71146        39.100          22.500                  
  21475240.31308  21475245.02707                 112853139.95508  87937525.54249
                  21475244.24649        47.000          47.200                  
  21133379.42209  21133386.28108  21133385.83609 111056709.22709  86537698.30049
  82931958.09009  21133386.05949        49.600          51.600          50.800  
 20 04 21 00 10 20.0000000  0 10G03G10G14G16G22G26G27G29G31G32       0.000000000
  23541789.12506  23541797.02706  23541798.09007 123712908.60606  96399715.09649
  92383064.21107  23541796.50449        38.300          34.200          44.900  
  24801412.61704  24801422.00805  24801420.99606 130332349.79204 101557643.79845
  97326069.51006  24801422.02745        34.300          17.400          38.700  
  20570654.09408                                 108099525.53408  84233388.45349
                  20570657.91449        47.700          38.400                  
  21392853.70308                                 112420231.73008  87600179.94148
                  21392858.13348        45.300          33.800                  
  22929738.64807                                 120496575.50707  93893442.82547
                  22929741.30547        41.800          27.300                  
  20146279.93009  20146287.23009  20146286.63709 105869383.96809  82495663.98849
  79058336.65609  20146287.46949        49.100          53.700          54.600  
  24995778.67204  24995787.34405  24995787.52706 131353713.15004 102353574.04447
  98088837.43106  24995787.57047        34.200          25.900          39.300  
  23584401.07806  23584407.09406                 123936844.62006  96574193.27446
                  23584407.12946        39.400          22.300                  
  21475783.61708  21475787.74607                 112855993.72908  87939749.25749
                  21475787.24249        46.900          47.200                  
  21134822.18009  21134829.73808  21134828.76609 111064293.00609  86543607.73449
  82937621.29109  21134829.27049        49.400          51.500          50.800  
 20 04 21 00 10 25.0000000  0 10G03G10G14G16G22G26G27G29G31G32       0.000000000
  23540364.94506  23540373.23006  23540374.31608 123705426.11306  96393884.57249
  92377476.62008  23540372.61749        38.600          34.000          45.400  
  24804720.57805  24804729.44905  24804729.00406 130349731.42705 101571187.95345
  97339049.29006  24804729.53945        35.000          18.300          38.600  
  20570471.31308                                 108098566.08308  84232640.82249
                  20570475.41849        47.000          38.200                  
  21390537.57808                                 112408059.52308  87590695.09948
                  21390541.69148        45.100          33.800                  
  22929531.67207                                 120495487.66307  93892595.15547
                  22929534.53547        41.700          27.400                  
  20146109.84409  20146117.56309  20146116.66409 105868491.06209  82494968.21649
  79057669.88209  20146117.48449        49.200          53.700          54.400  
  24992512.29704  24992520.87105  24992520.84406 131336545.48504 102340196.64857
  98076017.43006  24992520.79747        34.300          26.900          39.300  
  23585107.97706  23585115.16806                 123940563.85806  96577091.38346
                  23585114.84446        38.800          21.800                  
  21476326.89808  21476331.21907                 112858848.65408  87941973.86949
                  21476330.51649        47.200          47.200                  
  21136267.80509  21136275.10908  21136274.31609 111071888.80009  86549526.53549
  82943293.47809  21136274.53549        49.700          51.400          51.100  
 20 04 21 00 10 30.0000000  0 10G03G10G14G16G22G26G27G29G31G32       0.000000000
  23538943.82806  23538951.85206  23538952.97308 123697957.04206  96388064.51449
  92371899.09108  23538951.34049        38.300          34.400          45.200  
  24808027.05504  24808037.16805  24808035.63706 130367109.81004 101584729.52145
  97352026.64906  24808036.75445        34.400          17.800          38.400  
  20570290.67208                                 108097617.81408  84231901.90749
                  20570294.92649        47.000          38.400                  
  21388223.59408                                 112395899.83708  87581220.02548
                  21388227.84448        45.600          33.500                  
  22929327.35207                                 120494412.73107  93891757.53347
                  22929329.82047        42.100          27.400                  
  20145942.57009  20145950.07809  20145949.46509 105867611.89309  82494283.14849
  79057013.34909  20145950.13749        49.100          53.800          54.700  
  24989244.80504  24989253.36705  24989252.95706 131319373.22204 102326815.68547
  98063194.01906  24989252.96547        34.200          27.700          39.700  
  23585818.93006  23585825.12505                 123944297.34006  96580000.57746
                  23585824.97746        39.200          22.200                  
  21476870.24208  21476874.53907                 112861704.69408  87944199.35249
                  21476873.95749        47.100          47.300                  
  21137715.78909  21137722.36308  21137722.02009 111079496.56209  86555454.64949
  82948974.59709  21137722.48449        49.600          51.600          50.800  
 20 04 21 00 10 35.0000000  0 10G03G10G14G16G22G26G27G29G31G32       0.000000000
  23537524.86706  23537532.65206  23537534.00808 123690501.54006  96382255.02749
  92366331.65308  23537532.54749        38.600          34.800          45.200  
  24811333.29703  24811343.03505  24811342.25806 130384485.07903 101598268.67045
  97365001.65106  24811343.24245        33.900          17.800          39.200  
  20570112.12508                                 108096680.83508  84231171.79049
                  20570116.61349        47.000          38.600                  
  21385911.47708                                 112383752.68908  87571754.70948
                  21385916.44948        45.600          33.900                  
  22929125.01607                                 120493350.72007  93890929.98447
                  22929127.85547        42.800          28.100                  
  20145777.85209  20145785.35509  20145784.68809 105866746.48909  82493608.80349
  79056367.10309  20145785.47749        49.200          53.900          54.500  
  24985976.74204  24985984.53505  24985984.28906 131302196.39804 102313431.15247
  98050367.19606  24985984.11747        34.500          27.900          39.900  
  23586532.07006  23586538.28905                 123948045.08806  96582920.93846
                  23586537.93846        39.100          21.300                  
  21477414.01608  21477418.60507                 112864561.91408  87946425.75149
                  21477417.80949        47.500          47.300                  
  21139165.27309  21139172.82408  21139171.98809 111087116.36909  86561392.15649
  82954664.70309  21139172.41049        49.800          51.600          50.800  
 20 04 21 00 10 40.0000000  0 10G03G10G14G16G22G26G27G29G31G32       0.000000000
  23536108.68006  23536116.71506  23536117.79708 123683059.45006  96376455.99449
  92360774.24908  23536116.38349        38.700          34.400          45.200  
  24814639.26604  24814649.35905  24814648.45306 130401857.01404 101611805.22945
  97377974.15906  24814649.23045        34.200          16.900          39.200  
  20569936.41408                                 108095755.05908  84230450.40449
                  20569940.42249        46.800          38.400                  
  21383603.10908                                 112371618.02208  87562299.12348
                  21383607.15648        45.200          33.600                  
  22928925.90607                                 120492301.56307  93890112.46147
                  22928928.05947        42.000          27.200                  
  20145615.87509  20145623.31309  20145622.68809 105865894.77509  82492945.12449
  79055731.07309  20145623.48049        48.900          53.800          54.400  
  24982706.38304  24982714.85905  24982715.07006 131285015.01504 102300043.06647
  98037536.91806  24982714.60547        34.500          28.100          39.900  
  23587248.10206  23587254.22705                 123951807.04006  96585852.30746
                  23587253.84046        39.200          21.300                  
  21477957.79708  21477962.18407                 112867420.21008  87948652.99749
                  21477961.62149        46.800          47.400                  
  21140618.14109  21140624.93408  21140624.16009 111094748.14409  86567338.99049
  82960363.75309  21140624.53549        49.500          51.500          50.700  
 20 04 21 00 10 45.0000000  0 10G03G10G14G16G22G26G27G29G31G32       0.000000000
  23534695.10205  23534703.05906  23534704.22708 123675630.92805  96370667.53649
  92355226.97108  23534702.87949        37.700          34.900          45.100  
  24817944.96904  24817954.02005  24817953.32006 130419225.78404 101625339.33145
  97390944.35506  24817954.28945        34.300          17.400          38.900  
  20569762.17208                                 108094840.62308  84229737.85449
                  20569766.37549        46.800          38.600                  
  21381296.26608                                 112359495.97108  87552853.37848
                  21381300.47748        45.400          33.300                  
  22928728.55507                                 120491265.41307  93889305.06647
                  22928730.99647        41.600          28.300                  
  20145456.57009  20145463.85909  20145463.14109 105865056.85509  82492292.20549
  79055105.36809  20145464.02049        49.200          53.900          54.400  
  24979435.08604  24979444.78505  24979444.86306 131267829.15804 102286651.49247
  98024703.30306  24979444.13747        34.500          27.800          40.200  
  23587966.34406  23587972.34405                 123955583.34106  96588794.90046
                  23587972.47346        39.200          22.000                  
  21478501.98408  21478506.44107                 112870279.76708  87950881.22049
                  21478505.83249        46.800          47.600                  
  21142072.35209  21142079.47308  21142078.77709 111102391.99109  86573295.23549
  82966071.81609  21142079.29749        49.900          51.500          50.500  
 20 04 21 00 10 50.0000000  0 10G03G10G14G16G22G26G27G29G31G32       0.000000000
  23533283.67206  23533292.62106  23533293.24607 123668215.90506  96364889.59249
  92349689.76707  23533291.83249        38.200          34.700          44.600  
  24821249.47704  24821258.28505  24821258.35206 130436591.28404 101638870.88045
  97403912.07306  24821258.68845        34.300          15.600          38.700  
  20569590.52308                                 108093937.38308  84229034.03049
                  20569594.56349        46.900          38.700                  
  21378992.02308                                 112347386.45708  87543417.38748
                  21378996.13748        45.500          32.900                  
  22928533.94507                                 120490242.17307  93888507.73447
                  22928536.19147        41.800          27.800                  
  20145299.42209  20145307.19909  20145306.40609 105864232.63209  82491649.94849
  79054489.87009  20145307.15649        49.300          53.900          54.500  
  24976164.09404  24976173.97705  24976174.06306 131250638.68704 102273256.33447
  98011866.29106  24976173.12147        34.200          29.000          40.400  
  23588687.64806  23588693.51205                 123959373.85506  96591748.55146
                  23588694.01246        38.800          22.300                  
  21479046.25808  21479050.52007                 112873140.40208  87953110.29249
                  21479050.18449        47.500          47.500                  
  21143529.24209  21143536.26208  21143535.66009 111110047.81609  86579260.80849
  82971788.82109  21143535.89849        49.800          51.500          50.500  
 20 04 21 00 10 55.0000000  0 10G03G10G14G16G22G26G27G29G31G32       0.000000000
  23531875.64806  23531883.57406  23531884.71907 123660814.33706  96359122.13249
  92344162.62707  23531883.16449        38.300          34.400          44.700  
  24824552.69503  24824562.89805  24824562.69106 130453953.48403 101652399.83945
  97416877.33406  24824562.28545        33.800          17.400          39.200  
  20569420.57008                                 108093045.40908  84228338.96949
                  20569424.72749        46.800          38.800                  
  21376690.26608                                 112335289.45308  87533991.15049
                  21376694.11749        45.500          34.000                  
  22928341.03107                                 120489231.76907  93887720.40647
                  22928344.07447        41.800          28.300                  
  20145145.36709  20145152.99209  20145152.13709 105863422.08209  82491018.35349
  79053884.58809  20145152.88349        49.200          53.900          54.800  
  24972892.03103  24972901.06305  24972901.72306 131233443.66203 102259857.62247
  97999025.84006  24972901.06347        33.800          27.200          40.600  
  23589411.39106  23589417.91005                 123963178.64006  96594713.30446
                  23589418.01246        38.700          21.100                  
  21479590.75808  21479595.55508                 112876002.13408  87955340.20249
                  21479594.88349        46.900          47.600                  
  21144988.50809  21144995.71508  21144994.86709 111117715.59309  86585235.68949
  82977514.75409  21144995.16449        50.300          51.500          50.700  
 20 04 21 00 11 00.0000000  0 10G03G10G14G16G22G26G27G29G31G32       0.000000000
  23530469.70306  23530477.38706  23530478.80508 123653426.34506  96353365.25649
  92338645.61908  23530477.46549        38.700          34.000          45.000  
  24827855.25004  24827866.45705  24827864.97306 130471312.50604 101665926.34345
  97429840.20806  24827865.68045        34.300          17.400          39.000  
  20569253.27308                                 108092164.78208  84227652.77449
                  20569257.16849        46.700          38.000                  
  21374390.53108                                 112323205.10508  87524574.78448
                  21374394.41048        45.400          33.500                  
  22928151.87507                                 120488234.36907  93886943.20647
                  22928154.09047        41.900          27.500                  
  20144993.92209  20145001.21109  20145000.46109 105862625.32309  82490397.50449
  79053289.60809  20145001.28149        49.200          53.800          54.500  
  24969619.66403  24969628.41805  24969629.14506 131216244.22803 102246455.48347
  97986182.11206  24969628.17647        33.600          27.900          40.600  
  23590137.64806  23590144.73406                 123966997.67406  96597689.17346
                  23590144.52346        38.800          21.800                  
  21480135.78108  21480140.07408                 112878865.07008  87957571.06449
                  21480139.60249        46.900          47.500                  
  21146449.70309  21146456.90608  21146456.26609 111125395.46809  86591220.00949
  82983249.71009  21146456.41049        49.600          51.500          50.400  
 20 04 21 00 11 05.0000000  0 10G03G10G14G16G22G26G27G29G31G32       0.000000000
  23529066.66406  23529074.47706  23529075.37107 123646051.84106  96347618.87749
  92333138.66607  23529074.02049        38.200          34.500          44.600  
  24831158.22704  24831168.99605  24831168.04706 130488668.14004 101679450.21145
  97442800.58606  24831168.43445        34.000          16.900          39.400  
  20569087.68008                                 108091295.41708  84226975.34149
                  20569091.80149        46.600          38.300                  
  21372093.35908                                 112311133.29608  87515168.18248
                  21372097.20748        45.400          33.700                  
  22927963.90607                                 120487249.78507  93886175.99547
                  22927966.77347        41.900          27.700                  
  20144844.67209  20144852.32809  20144851.41009 105861842.23909  82489787.30049
  79052704.82809  20144852.25449        49.800          53.900          54.500  
  24966345.68004  24966354.33205  24966355.25406                 102233040.70405
  97973334.93806  24966354.52347        34.600          27.800          40.600  
  23590868.39106  23590873.77305                 123970830.95206  96600676.13746
                  23590873.80146        39.200          21.300                  
  21480680.76608  21480685.19507                 112881729.08608  87959802.76149
                  21480684.74249        46.800          47.400                  
  21147913.68809  21147920.74208  21147919.94109 111133087.27709  86597213.62149
  82988993.59509  21147920.26249        49.800          51.500          50.700  
 20 04 21 00 11 10.0000000  0 10G03G10G14G16G22G26G27G29G31G32       0.000000000
  23527666.09406  23527673.88706  23527674.64807 123638690.86706  96341883.05649
  92327641.83007  23527673.25049        38.300          34.200          44.700  
  24834460.74203  24834471.66405  24834469.64806 130506020.56903 101692971.55745
  97455758.51006  24834470.23845        33.900          17.400          38.600  
  20568924.46908                                 108090437.35508  84226306.71849
                  20568928.46549        46.900          38.700                  
  21369798.04708                                 112299074.09408  87505771.39449
                  21369802.39149        45.700          34.000                  
  22927779.19507                                 120486278.09907  93885418.84647
                  22927781.67647        42.000          26.700                  
  20144698.28909  20144705.70709  20144705.07009 105861072.88809  82489187.80049
  79052130.31609  20144705.87149        49.200          53.900          54.400  
  24963071.04703  24963079.79305  24963080.42206 131181831.65603 102219640.49847
  97960484.44306  24963079.78147        33.700          26.200          40.800  
  23591599.73406  23591606.27005                 123974678.53606  96603674.27646
                  23591605.98446        38.800          21.800                  
  21481226.22708  21481230.44107                 112884594.27908  87962035.37049
                  21481229.98849        47.400          47.400                  
  21149379.33609  21149386.66809  21149386.00409 111140791.11209  86603216.60149
  82994746.45309  21149386.20349        49.700          51.500          50.800  
 20 04 21 00 11 15.0000000  0 10G03G10G14G16G22G26G27G29G31G32       0.000000000
  23526267.18806  23526275.52006  23526276.44507 123631343.39106  96336157.74749
  92322155.08607  23526275.05149        38.400          34.200          44.900  
  24837763.27304  24837772.85505  24837770.55506 130523369.66104 101706490.31445
  97468713.98906  24837772.81645        34.900          17.800          38.600  
  20568763.18008                                 108089590.56208  84225646.87149
                  20568767.41849        46.800          38.400                  
  21367505.77308                                 112287027.45008  87496384.41048
                  21367510.08648        45.500          33.700                  
  22927596.17207                                 120485319.35607  93884671.75947
                  22927599.17647        42.200          26.700                  
  20144554.74209  20144561.77709  20144561.19109 105860317.21409  82488598.96949
  79051566.01309  20144562.00449        49.200          53.900          54.400  
  24959795.62503  24959804.33605  24959805.14107 131164618.71303 102206227.80947
  97947630.59907  24959803.90647        33.700          27.100          41.100  
  23592334.91406  23592340.48005                 123978540.31206  96606683.44846
                  23592340.28146        39.000          22.000                  
  21481771.32008  21481775.90607                 112887460.58408  87964268.85149
                  21481775.41049        46.800          47.500                  
  21150847.86709  21150854.98408  21150854.20709 111148506.94509  86609228.93949
  83000508.27409  21150854.54349        49.800          51.400          51.000  
 20 04 21 00 11 20.0000000  0 10G03G10G14G16G22G26G27G29G31G32       0.000000000
  23524871.47706  23524880.48006  23524880.91807 123624009.45406  96330442.99648
  92316678.45007  23524879.58648        38.900          33.900          44.700  
  24841063.11705  24841072.65605  24841072.53906 130540715.40505 101720006.44445
  97481666.96506  24841073.49245        35.200          17.400          39.600  
  20568604.25808                                 108088755.07808  84224995.84349
                  20568608.33249        46.800          38.600                  
  21365216.12508                                 112274993.41508  87487007.23449
                  21365220.05949        45.300          34.300                  
  22927417.27307                                 120484373.49507  93883934.71647
                  22927419.39847        41.800          27.900                  
  20144413.30509  20144420.85509  20144419.98409 105859575.23709  82488020.80349
  79051011.93309  20144420.85249        49.200          53.800          54.400  
  24956519.21103  24956527.49605  24956528.56307 131147401.21403 102192811.59447
  97934773.41007  24956527.75047        33.700          27.000          41.600  
  23593071.72706  23593078.60505                 123982416.31506  96609703.70046
                  23593077.77746        38.400          21.300                  
  21482317.00008  21482321.84807                 112890328.00608  87966503.20049
                  21482321.01649        47.000          47.400                  
  21152318.35209  21152325.31308  21152324.77309 111156234.77909  86615250.62449
  83006279.05809  21152325.13349        49.700          51.400          50.800  
 20 04 21 00 11 25.0000000  0 10G03G10G14G16G22G26G27G29G31G32       0.000000000
  23523478.57006  23523487.27006  23523487.85207 123616689.03906  96324738.77248
  92311211.90607  23523486.55948        38.600          33.400          44.600  
  24844363.33605  24844373.60205  24844372.48406 130558057.83705 101733519.99245
  97494617.45606  24844373.34845        35.600          17.800          39.700  
  20568447.63308                                 108087930.89608  84224353.62149
                  20568451.48849        46.600          38.600                  
  21362928.14808                                 112262971.96608  87477639.88648
                  21362932.32448        45.800          33.000                  
  22927239.73407                                 120483440.53707  93883207.73747
                  22927241.96547        41.600          27.000                  
  20144274.91409  20144282.23409  20144281.50009 105858846.97009  82487453.32049
  79050468.09809  20144282.32049        49.400          53.700          54.500  
  24953241.79703  24953250.91405  24953251.37507 131130179.31403 102179391.92347
  97921912.90707  24953250.60547        33.800          26.700          41.400  
  23593812.79706  23593819.02305                 123986306.57406  96612735.08346
                  23593818.44146        38.500          21.800                  
  21482863.10208  21482867.51207                 112893196.56908  87968738.44449
                  21482866.97349        46.600          47.400                  
  21153790.98409  21153798.47309  21153797.61309 111163974.60209  86621281.65249
  83012058.79109  21153797.84049        49.600          51.300          50.400  
 20 04 21 00 11 30.0000000  0 10G03G10G14G16G22G26G27G29G31G32       0.000000000
  23522088.52306  23522096.23006  23522097.30507 123609382.14606  96319045.08248
  92305755.44307  23522096.12148        38.400          33.700          44.900  
  24847662.89105  24847672.34005  24847671.59006 130575396.89305 101747030.98045
  97507565.42706  24847673.01645        35.200          17.800          39.100  
  20568292.56308                                 108087117.99908  84223720.18849
                  20568297.02049        46.700          38.500                  
  21360643.57008                                 112250963.06908  87468282.29748
                  21360647.19948        45.600          33.600                  
  22927064.35207                                 120482520.40307  93882490.74847
                  22927066.82447        42.000          28.300                  
  20144139.08609  20144146.10509  20144145.44909 105858132.32709  82486896.45249
  79049934.43009  20144146.25449        49.200          53.900          54.500  
  24949963.01603  24949972.93805  24949973.19907                 102165959.74905
  97909049.02907  24949972.24647        33.600          26.500          41.100  
  23594555.04706  23594561.73805                 123990211.09306  96615777.56946
                  23594561.42246        38.700          22.300                  
  21483409.04708  21483413.62507                 112896066.23708  87970974.54749
                  21483412.99649        46.700          47.500                  
  21155266.25009  21155273.37908  21155272.81309 111171726.37109  86627321.98949
  83017847.44809  21155273.02049        49.800          51.600          50.700  
 20 04 21 00 11 35.0000000  0 10G03G10G14G16G22G26G27G29G31G32       0.000000000
  23520699.70306  23520708.86306  23520709.43808 123602088.68606  96313361.86149
  92300309.02408  23520708.39549        38.600          34.100          45.100  
  24850962.44505  24850971.67205  24850971.07406 130592732.45805 101760539.22445
  97520510.81006  24850971.49645        35.500          16.900          40.000  
  20568140.27308                                 108086316.30908  84223095.48849
                  20568144.33249        46.900          38.700                  
  21358360.60208                                 112238966.71208  87458934.48848
                  21358364.34848        45.800          33.600                  
  22926891.77307                                 120481613.06307  93881783.71647
                  22926894.24647        41.800          27.600                  
  20144005.31309  20144012.60209  20144012.06609 105857431.27809  82486350.17949
  79049410.91309  20144012.88349        49.300          53.900          54.500  
  24946684.07003  24946693.63705  24946694.15206 131095721.97503 102152542.06846
  97896181.78006  24946693.43446        33.300          24.700          40.500  
  23595301.69506  23595307.56305                 123994129.69206  96618831.00646
                  23595307.51246        39.400          21.300                  
  21483955.28108  21483959.51608                 112898936.90908  87973211.42749
                  21483959.37549        46.900          47.500                  
  21156743.71109  21156750.64108  21156750.09409 111179490.05009  86633371.60349
  83023644.99009  21156750.34449        49.800          51.500          51.000  
 20 04 21 00 11 40.0000000  0 10G03G10G14G16G22G26G27G29G31G32       0.000000000
  23519314.93806  23519323.14806  23519324.11308 123594808.82406  96307689.24049
  92294872.76008  23519322.91049        38.400          34.300          45.100  
  24854260.07805  24854270.38305  24854268.78506 130610064.72605 101774044.83845
  97533453.72506  24854269.94145        35.700          18.300          39.600  
  20567989.71908                                 108085526.02508  84222479.68549
                  20567993.93449        46.800          38.600                  
  21356079.89108                                 112226983.05908  87449596.57248
                  21356083.78548        45.700          33.800                  
  22926721.13307                                 120480718.62607  93881086.75047
                  22926724.15647        42.000          27.400                  
  20143874.93809  20143882.07809  20143881.28109 105856743.95009  82485814.60149
  79048897.65109  20143882.02349        49.100          53.900          54.500  
  24943403.66403  24943414.10205  24943414.01207                 102139102.90515
  97883311.23907  24943414.04347        33.000          25.400          41.100  
  23596050.15606  23596056.19505                 123998062.64006  96621895.65046
                  23596055.97346        38.800          21.800                  
  21484501.83608  21484506.49607                 112901808.76108  87975449.23449
                  21484505.64549        47.000          47.400                  
  21158223.50009  21158230.42208  21158229.83209 111187265.76809  86639430.60249
  83029451.53309  21158230.21549        50.000          51.500          50.800  
 20 04 21 00 11 45.0000000  0 10G03G10G14G16G22G26G27G29G31G32       0.000000000
  23517932.60206  23517940.78906  23517941.64107 123587542.48606  96302027.16948
  92289446.59807  23517940.05948        38.400          33.700          44.900  
  24857557.82805  24857567.07405  24857566.53506 130627393.59005 101787547.82245
  97546394.10906  24857567.60945        35.700          19.900          39.400  
  20567841.24208                                 108084747.07408  84221872.70749
                  20567845.68849        46.700          38.800                  
  21353801.37508                                 112215011.98408  87440268.47549
                  21353806.02749        45.600          34.200                  
  22926554.03107                                 120479837.08507  93880399.84247
                  22926556.49247        42.200          27.500                  
  20143746.35209  20143753.78509  20143753.09009 105856070.28709  82485289.66349
  79048394.59309  20143753.80949        49.100          53.800          54.500  
  24940123.92203  24940133.10205  24940133.88706                 102125669.34515
  97870437.41906  24940133.46947        33.200          25.300          40.500  
  23596801.25806  23596807.29305                 124002009.84506  96624971.38446
                  23596807.19146        39.100          20.900                  
  21485048.59408  21485053.06607                 112904681.72608  87977687.90649
                  21485052.59049        47.100          47.500                  
  21159705.29709  21159712.43808  21159711.86309 111195053.48209  86645498.94449
  83035267.02309  21159712.10249        49.700          51.400          50.500  
 20 04 21 00 11 50.0000000  0 10G03G10G14G16G22G26G27G29G31G32       0.000000000
  23516553.01606  23516560.85506  23516561.41807 123580289.76706  96296375.68048
  92284030.59307  23516560.21148        38.400          33.800          44.600  
  24860854.54705  24860864.37505  24860863.67206 130644719.12605 101801048.24445
  97559331.98206  24860864.19145        36.000          18.300          39.700  
  20567695.29708                                 108083979.50808  84221274.59949
                  20567699.64149        46.600          38.100                  
  21351526.20308                                 112203053.60808  87430950.25649
                  21351530.24249        45.600          34.100                  
  22926388.25007                                 120478968.43507  93879722.96247
                  22926390.87147        42.100          28.300                  
  20143620.82809  20143628.12909  20143627.49209 105855410.31809  82484775.40849
  79047901.75809  20143628.23449        49.000          53.800          54.300  
  24936841.57003  24936851.69505  24936852.05506 131044002.73203 102112241.38647
  97857560.33506  24936852.13347        33.500          26.900          40.300  
  23597554.93806  23597560.51605                 124005971.32906  96628058.25546
                  23597560.80946        38.900          21.800                  
  21485595.53108  21485599.64507                 112907555.87308  87979927.49849
                  21485599.53949        47.500          47.600                  
  21161189.57809  21161196.67608  21161195.97309 111202853.22009  86651576.66249
  83041091.49809  21161196.40249        49.900          51.500          50.300  
 20 04 21 00 11 55.0000000  0 10G03G10G14G16G22G26G27G29G31G32       0.000000000
  23515174.75806  23515182.78506  23515183.76207 123573050.59006  96290734.76048
  92278624.72907  23515182.47348        38.400          33.500          44.700  
  24864151.82805  24864160.91005  24864159.53506 130662041.25905 101814545.99945
  97572267.33006  24864160.83245        35.900          18.300          39.400  
  20567551.63308                                 108083223.33608  84220685.36749
                  20567555.77049        46.700          38.500                  
  21349252.50008                                 112191107.88808  87421641.91148
                  21349256.95748        45.800          33.800                  
  22926225.60207                                 120478112.64507  93879056.10947
                  22926228.18447        41.900          26.700                  
  20143497.75009  20143505.30909  20143504.43409 105854764.02509  82484271.79449
  79047419.13609  20143505.32049        49.200          53.800          54.400  
  24933560.08604  24933569.37105  24933569.89106 131026754.20504 102098800.95857
  97844679.97406  24933569.59047        34.400          28.600          39.900  
  23598311.75806  23598317.48005                 124009947.09806  96631156.25946
                  23598317.12546        39.200          22.000                  
  21486142.59408  21486147.10207                 112910431.14208  87982167.96549
                  21486146.66049        47.900          47.300                  
  21162676.18009  21162683.46508  21162682.45309 111210664.96409  86657663.72849
  83046924.94109  21162682.90649        49.600          51.400          50.500  
 20 04 21 00 12 00.0000000  0 10G03G10G14G16G22G26G27G29G31G32       0.000000000
  23513799.59406  23513807.99206  23513808.58208 123565824.96906  96285104.40849
  92273228.97608  23513807.53149        38.200          34.100          45.000  
  24867446.99205  24867456.56305  24867455.81606 130679359.97105 101828041.08145
  97585200.12906  24867456.53145        35.600          18.600          39.300  
  20567409.69508                                 108082478.52108  84220104.99249
                  20567414.11749        46.800          38.400                  
  21346982.59408                                 112179174.83808  87412343.42248
                  21346986.18448        45.700          33.500                  
  22926065.14107                                 120477269.74107  93878399.29047
                  22926067.71547        42.100          27.800                  
  20143377.27309  20143384.62909  20143384.12509 105854131.39709  82483778.84149
  79046946.71609  20143384.97749        49.100          53.800          54.400  
  24930277.96904  24930286.66005  24930286.85206 131009501.35504 102085357.19247
  97831796.31306  24930286.57847        34.800          27.600          40.000  
  23599071.03106  23599076.64505                 124013937.04906  96634265.30446
                  23599076.43446        39.100          21.300                  
  21486689.77308  21486694.42207                 112913307.53208  87984409.30349
                  21486694.05149        47.900          47.400                  
  21164164.88309  21164172.20708  21164171.30909 111218488.69109  86663760.13449
  83052767.32909  21164171.68049        49.600          51.500          50.700  
 20 04 21 00 12 05.0000000  0 10G03G10G14G16G22G26G27G29G31G32       0.000000000
  23512428.03106  23512435.01606  23512436.37907 123558612.96906  96279484.67049
  92267843.36407  23512434.94949        38.600          34.600          44.900  
  24870741.14105  24870751.26205  24870750.94106 130696675.28205 101841533.50245
  97598130.32706  24870751.60545        35.500          18.300          39.300  
  20567270.22708                                 108081745.09108  84219533.48449
                  20567274.37949        46.700          38.600                  
  21344714.12508                                 112167254.44508  87403054.81149
                  21344717.98849        45.900          34.200                  
  22925907.54707                                 120476439.66707  93877752.48647
                  22925909.75047        42.600          27.800                  
  20143259.39809  20143267.17209  20143266.28909 105853512.41909  82483296.51849
  79046484.49409  20143267.04749        49.300          53.900          54.500  
  24926992.50804  24927003.17205  24927002.90206 130992244.07704 102071909.97547
  97818909.41206  24927002.91847        34.600          27.400          39.500  
  23599832.66406  23599838.64806                 124017941.29706  96637385.47946
                  23599838.55946        39.200          21.100                  
  21487237.63308  21487242.26207                 112916185.04708  87986651.52849
                  21487241.71149        47.500          47.600                  
  21165656.04709  21165663.21508  21165662.50009 111226324.40709  86669865.88449
  83058618.67109  21165662.66849        49.700          51.500          50.600  
 20 04 21 00 12 10.0000000  0 10G03G10G14G16G22G26G27G29G31G32       0.000000000
  23511058.73405  23511065.62906  23511066.61308 123551414.54805  96273875.51349
  92262467.91808  23511065.01649        37.900          34.000          45.400  
  24874036.89805  24874046.19105  24874043.95306 130713987.20505 101855023.32345
  97611058.05606  24874045.74245        35.200          17.400          38.100  
  20567132.59408                                 108081023.07408  84218970.87149
                  20567137.07849        46.700          38.500                  
  21342447.85208                                 112155346.76208  87393776.08949
                  21342451.79749        45.900          34.500                  
  22925751.61707                                 120475622.52307  93877115.74147
                  22925754.02747        42.500          26.700                  
  20143144.54709  20143152.02009  20143151.08209 105852907.14909  82482824.87449
  79046032.50609  20143151.90249        49.300          53.800          54.300  
  24923709.25804  24923717.94505  24923717.71106                 102058450.40615
  97806019.26806  24923718.04747        34.700          27.700          39.600  
  23600597.83606  23600603.21105                 124021959.85906  96640516.85346
                  23600603.39146        38.900          21.500                  
  21487785.13308  21487789.85907                 112919063.73608  87988894.65349
                  21487789.54349        47.900          47.600                  
  21167149.25009  21167156.30108  21167155.90209 111234172.17609  86675981.02149
  83064479.01409  21167156.20749        49.700          51.500          50.800  
 20 04 21 00 12 15.0000000  0 10G03G10G14G16G22G26G27G29G31G32       0.000000000
  23509690.65606  23509698.46906  23509699.32807 123544229.68906  96268276.91048
  92257102.60607  23509698.02348        38.100          33.800          44.900  
  24877330.25005  24877339.19505  24877338.57806 130731295.64405 101868510.33145
  97623983.18906  24877339.59045        35.500          16.900          38.500  
  20566997.83608                                 108080312.41808  84218417.10849
                  20567002.02749        46.800          38.800                  
  21340184.34408                                 112143451.73708  87384507.24448
                  21340188.37548        45.800          33.700                  
  22925598.29707                                 120474818.20107  93876489.00447
                  22925601.04747        43.000          28.600                  
  20143031.71909  20143039.10909  20143038.52709 105852315.47709  82482363.82849
  79045590.66609  20143039.37549        49.700          53.800          54.500  
  24920422.81303  24920432.00805  24920432.08606 130957716.55303 102045005.40847
  97793125.86406  24920432.41847        33.700          28.200          39.600  
  23601365.00806  23601371.20306                 124025992.66406  96643659.30746
                  23601371.04746        38.700          22.000                  
  21488333.46108  21488337.84008                 112921943.52008  87991138.64049
                  21488337.51649        47.100          47.600                  
  21168644.97709  21168652.19508  21168651.48809 111242031.89409  86682105.47749
  83070348.27909  21168652.03549        49.300          51.400          50.500  
 20 04 21 00 12 20.0000000  0 10G03G10G14G16G22G26G27G29G31G32       0.000000000
  23508325.98406  23508333.63306  23508334.84408 123537058.36006  96262688.86248
  92251747.40508  23508333.31648        38.500          33.500          45.300  
  24880623.15605  24880632.45705  24880631.62106 130748600.63105 101881994.77045
  97636905.71306  24880632.42645        35.800          16.300          38.900  
  20566864.83608                                 108079613.14708  84217872.21949
                  20566868.94549        47.300          38.800                  
  21337923.37508                                 112131569.38508  87375248.27848
                  21337927.26248        46.600          33.700                  
  22925448.25807                                 120474026.69807  93875872.23647
                  22925450.65647        43.800          28.100                  
  20142921.78109  20142929.42209  20142928.51209 105851737.44509  82481913.41649
  79045159.02309  20142929.32849        49.100          53.800          54.400  
  24917136.25004  24917146.19505  24917145.58206 130940446.27504 102031548.06147
  97780229.23106  24917145.67647        34.000          27.300          39.000  
  23602135.24206  23602140.97705                 124030039.68006  96646812.82646
                  23602141.13746        38.700          21.500                  
  21488881.03908  21488885.90208                 112924824.37908  87993383.47149
                  21488885.78949        47.300          47.700                  
  21170143.21109  21170150.16008  21170149.36309 111249903.59509  86688239.26249
  83076226.48709  21170149.77749        50.200          51.500          50.400  
 20 04 21 00 12 25.0000000  0 10G03G10G14G16G22G26G27G29G31G32       0.000000000
  23506963.39106  23506971.94506  23506972.74607 123529900.63206  96257111.40748
  92246402.35007  23506971.29348        38.700          33.300          44.700  
  24883914.93805  24883924.54305  24883922.48805 130765902.14105 101895476.43645
  97649825.65605  24883925.17245        35.200          17.400          37.600  
  20566733.60208                                 108078925.28208  84217336.21749
                  20566737.99649        47.900          38.600                  
  21335664.92208                                 112119699.74408  87365999.20649
                  21335668.36749        46.400          34.000                  
  22925299.66407                                 120473248.05507  93875265.50647
                  22925302.31647        43.200          27.700                  
  20142814.46909  20142821.71509  20142821.11309 105851173.03109  82481473.61149
  79044737.54109  20142821.91049        49.200          53.800          54.400  
  24913848.82803  24913858.64805  24913858.54706 130923171.61703 102018087.28647
  97767329.34006  24913858.41047        33.600          27.900          39.100  
  23602908.02306  23602913.57805                 124034100.95206  96649977.44946
                  23602913.77346        38.800          22.200                  
  21489429.60208  21489434.80108                 112927706.36808  87995629.16549
                  21489434.22749        47.500          47.600                  
  21171643.58609  21171650.33608  21171649.68809 111257787.28009  86694382.38749
  83082113.64309  21171649.98449        50.300          51.400          50.800  
 20 04 21 00 12 30.0000000  0 10G03G10G14G16G22G26G27G29G31G32       0.000000000
  23505604.11706  23505611.91406  23505613.23007 123522756.55406  96251544.58749
  92241067.47307  23505611.75449        38.500          34.000          44.900  
  24887207.13305  24887216.35505  24887216.20306 130783200.22905 101908955.48745
  97662743.06106  24887216.45745        36.400          17.800          38.000  
  20566605.14808                                 108078248.84908  84216809.12849
                  20566609.26649        47.700          38.800                  
  21333408.51608                                 112107842.83108  87356760.04549
                  21333412.15649        46.000          34.300                  
  22925153.91407                                 120472482.28407  93874668.79247
                  22925156.58647        42.900          28.300                  
  20142709.48409  20142716.94109  20142716.26609 105850622.30209  82481044.47049
  79044326.28209  20142717.03549        49.200          53.800          54.400  
  24910560.66403  24910570.31605  24910570.38706 130905892.72703 102004623.22847
  97754426.25906  24910569.98847        33.500          25.700          39.000  
  23603683.44506  23603689.64505                 124038176.55106  96653153.23446
                  23603689.14846        38.900          22.000                  
  21489978.57808  21489983.15207                 112930589.51608  87997875.77649
                  21489982.96549        47.800          47.700                  
  21173145.68009  21173152.84008  21173152.11709 111265682.98109  86700534.88049
  83088009.77709  21173152.42249        49.500          51.400          50.700  
 20 04 21 00 12 35.0000000  0 10G03G10G14G16G22G26G27G29G31G32       0.000000000
  23504246.89806  23504255.41406  23504256.38308 123515626.02606  96245988.33149
  92235742.72808  23504255.05949        38.800          34.000          45.100  
  24890497.74205  24890507.71105  24890507.15206 130800494.77505 101922431.71745
  97675657.75606  24890507.38345        35.800          17.400          39.200  
  20566478.64108                                 108077583.80308  84216290.90149
                  20566482.80149        46.800          38.600                  
  21331154.50808                                 112095998.57208  87347530.76049
                  21331158.40249        45.800          34.600                  
  22925011.25007                                 120471729.30207  93874082.05647
                  22925013.24247        42.900          27.700                  
  20142607.37509  20142614.93809  20142614.15609 105850085.14309  82480625.90649
  79043925.16509  20142614.94149        49.200          53.700          54.500  
  24907272.01603  24907281.98005  24907281.33606                 101991146.75805
  97741519.95106  24907281.05147        33.100          26.200          39.200  
  23604460.90606  23604468.13305                 124042266.36506  96656340.11346
                  23604467.43846        38.800          22.000                  
  21490527.47708  21490531.85908                 112933473.70808  88000123.18849
                  21490531.68049        47.800          47.600                  
  21174650.35209  21174657.83208  21174657.01609 111273590.62809  86706696.67049
  83093914.84009  21174657.33249        49.300          51.300          50.900  
 20 04 21 00 12 40.0000000  0 10G03G10G14G16G22G26G27G29G31G32       0.000000000
  23502893.17206  23502901.28106  23502902.05908 123508509.14906  96240442.70948
  92230428.18108  23502900.62148        38.700          33.800          45.000  
  24893789.42205  24893797.83605  24893796.10505 130817785.89805 101935905.28545
  97688569.96505  24893798.24245        36.400          17.400          37.900  
  20566354.41408                                 108076930.24808  84215781.63549
                  20566358.34849        46.800          38.300                  
  21328902.79708                                 112084167.07008  87338311.41949
                  21328906.78949        46.000          34.200                  
  22924870.74207                                 120470989.21007  93873505.35447
                  22924872.73447        42.300          28.500                  
  20142507.75809  20142515.29709  20142514.48009 105849561.68609  82480218.01649
  79043534.26109  20142515.39149        49.000          53.700          54.500  
  24903982.35903  24903991.68005  24903991.84806 130871321.97603 101977685.00747
  97728610.46006  24903991.84047        33.200          25.300          40.000  
  23605242.65606  23605249.55905                 124046370.43306  96659538.07046
                  23605248.56346        38.800          22.600                  
  21491076.21908  21491081.08607                 112936359.06508  88002371.51649
                  21491080.75049        47.200          47.600                  
  21176157.83609  21176164.75008  21176163.92209 111281510.33709  86712867.86549
  83099828.90909  21176164.49649        49.600          51.300          50.700  
 20 04 21 00 12 45.0000000  0 10G03G10G14G16G22G26G27G29G31G32       0.000000000
  23501541.28106  23501549.27706  23501550.45307 123501405.92706  96234907.73748
  92225123.80907  23501548.89148        38.500          33.900          44.700  
  24897078.15605  24897087.56305  24897087.26206 130835073.52305 101949376.15245
  97701479.57306  24897087.73445        36.200          18.600          38.400  
  20566231.86708                                 108076288.16008  84215281.30449
                  20566236.13349        47.200          38.600                  
  21326653.63308                                 112072348.29308  87329101.98049
                  21326657.87549        46.000          34.200                  
  22924731.50807                                 120470262.00007  93872938.69747
                  22924733.96147        41.800          27.000                  
  20142410.81309  20142418.29309  20142417.55509 105849051.87209  82479820.75849
  79043153.55209  20142418.28949        49.000          53.800          54.300  
  24900692.75803  24900701.65605  24900701.25806 130854030.24503 101964210.92647
  97715697.81506  24900701.41447        33.600          25.800          39.700  
  23606026.15606  23606032.70706                 124050488.84006  96662747.21046
                  23606032.60246        39.200          22.200                  
  21491625.88308  21491630.27708                 112939245.55508  88004620.72949
                  21491630.02749        47.100          47.800                  
  21177666.96109  21177674.11708  21177673.45309 111289442.05809  86719048.42649
  83105751.93309  21177673.87949        49.300          51.400          50.500  
 20 04 21 00 12 50.0000000  0 10G03G10G14G16G22G26G27G29G31G32       0.000000000
  23500192.10906  23500200.26206  23500201.28107 123494316.27206  96229383.32049
  92219829.60607  23500199.71149        38.100          34.000          44.600  
  24900367.12505  24900377.22705  24900376.38706 130852357.63405 101962844.24745
  97714386.47506  24900376.80945        36.300          18.300          38.700  
  20566112.25008                                 108075657.49408  84214789.87949
                  20566116.19549        46.900          38.400                  
  21324407.34408                                 112060542.21208  87319902.44049
                  21324411.03149        46.100          34.700                  
  22924596.18007                                 120469547.65107  93872382.05847
                  22924598.21147        42.000          27.700                  
  20142316.53109  20142323.92209  20142323.09809 105848555.64709  82479434.09149
  79042783.00009  20142323.86349        49.000          53.800          54.500  
  24897401.33603  24897409.66405  24897409.77006 130836734.22503 101950733.52147
  97702781.96806  24897409.86347        32.400          26.200          39.500  
  23606812.71106  23606818.41005                 124054621.44906  96665967.44446
                  23606818.93846        38.700          22.200                  
  21492175.49208  21492179.66807                 112942133.12608  88006870.78349
                  21492179.48849        47.100          47.900                  
  21179178.69509  21179185.52308  21179185.03909 111297385.75409  86725238.31349
  83111683.90909  21179185.46949        49.600          51.200          51.000  
 20 04 21 00 12 55.0000000  0 10G03G10G14G16G22G26G27G29G31G32       0.000000000
  23498845.39106  23498853.96506  23498854.68408 123487240.31906  96223869.58048
  92214545.57408  23498853.21148        38.700          33.600          45.100  
  24903655.85205  24903664.82805  24903663.47305 130869638.22105 101976309.63745
  97727290.80605  24903665.84845        36.500          18.300          37.100  
  20565994.09408                                 108075038.32508  84214307.40349
                  20565998.59449        46.900          38.800                  
  21322162.75008                                 112048748.86508  87310712.81649
                  21322166.94149        45.900          34.600                  
  22924461.94507                                 120468846.11407  93871835.39147
                  22924464.69147        42.100          29.600                  
  20142224.48409  20142231.92209  20142231.20709 105848073.05909  82479058.04349
  79042422.61609  20142232.09849        49.000          53.900          54.400  
  24894108.64803  24894117.33605  24894117.55106 130819433.94603 101937252.80147
  97689862.96006  24894117.74647        33.700          27.300          40.100  
  23607602.60906  23607607.97705                 124058768.31106  96669198.77046
                  23607608.34046        39.200          22.300                  
  21492724.95308  21492729.27708                 112945021.83508  88009121.72149
                  21492729.24649        47.000          47.800                  
  21180692.32009  21180699.71108  21180698.87509 111305341.43709  86731437.54349
  83117624.83809  21180699.33649        49.300          51.300          50.400  
 20 04 21 00 13 00.0000000  0 10G03G10G14G16G22G26G27G29G31G32       0.000000000
  23497501.89106  23497509.26606  23497510.93807 123480177.89806  96218366.40448
  92209271.68507  23497509.25448        38.600          33.500          44.900  
  24906943.56305  24906952.21504  24906951.40205 130886915.20105 101989772.26845
  97740192.48705  24906953.13345        36.700          16.900          37.600  
  20565878.21908                                 108074430.52708  84213833.78949
                  20565882.79349        46.800          38.700                  
  21319921.10208                                 112036968.20108  87301533.08249
                  21319925.22749        46.000          34.900                  
  22924331.14107                                 120468157.38107  93871298.71247
                  22924333.93447        42.000          27.000                  
  20142135.27309  20142142.80909  20142142.00809 105847604.02409  82478692.55549
  79042072.36209  20142142.83249        49.300          53.900          54.400  
  24890815.42203  24890824.90205  24890825.19506 130802129.43103 101923768.76547
  97676940.76806  24890825.09047        33.600          26.800          39.900  
  23608393.53106  23608399.55906                 124062929.38706  96672441.17246
                  23608399.80146        39.200          22.500                  
  21493275.00008  21493279.47308                 112947911.60708  88011373.48349
                  21493279.12149        47.300          47.700                  
  21182208.73409  21182216.01208  21182215.13709 111313309.05709  86737646.07449
  83123574.67709  21182215.51249        49.500          51.500          50.400  
 20 04 21 00 13 05.0000000  0 10G03G10G14G16G22G26G27G29G31G32       0.000000000
  23496160.70306  23496168.24606  23496169.48407 123473129.07206  96212873.81048
  92204007.96307  23496167.83648        38.600          33.900          44.800  
  24910230.39105  24910240.00805  24910239.23406 130904188.64305 102003232.05345
  97753091.45506  24910239.98445        36.900          17.800          38.300  
  20565764.73408                                 108073834.10108  84213369.04249
                  20565769.14849        46.700          38.200                  
  21317682.24208                                 112025200.28908  87292363.27549
                  21317685.90249        45.900          34.400                  
  22924202.70307                                 120467481.47307  93870772.02447
                  22924204.72347        41.700          27.900                  
  20142048.48409  20142056.17209  20142055.40209 105847148.59109  82478337.67849
  79041732.26509  20142056.09049        49.100          53.900          54.600  
  24887522.30503  24887530.71105  24887531.33606 130784820.65503 101910281.40747
  97664015.38906  24887530.98847        33.000          27.700          40.700  
  23609188.78106  23609194.44906                 124067104.67806  96675694.65346
                  23609194.37946        38.600          21.800                  
  21493825.25008  21493829.73808                 112950802.46908  88013626.10249
                  21493829.37149        47.000          47.700                  
  21183726.97709  21183734.40208  21183733.50409 111321288.66209  86743863.94349
  83129533.47209  21183734.10249        49.300          51.300          50.700  
 20 04 21 00 13 10.0000000  0 10G03G10G14G16G22G26G27G29G31G32       0.000000000
  23494821.19506  23494829.78506  23494830.79708 123466093.84406  96207391.80848
  92198754.39908  23494828.98448        38.400          33.900          45.200  
  24913517.08605  24913525.84003  24913524.89806 130921458.52805 102016689.08945
  97765987.77806  24913526.65645        37.000          17.400          38.400  
  20565653.77308                                 108073249.15408  84212913.23649
                  20565657.76249        46.800          38.700                  
  21315445.18008                                 112013445.07008  87283203.36949
                  21315449.02749        46.200          34.500                  
  22924076.23407                                 120466818.34407  93870255.30147
                  22924078.85947        41.700          28.700                  
  20141964.54709  20141972.06609  20141971.28109 105846706.71309  82477993.35749
  79041402.29709  20141972.08649        49.100          53.800          54.400  
  24884228.01603  24884236.23805  24884236.65606 130767507.59203 101896790.73747
  97651086.84606  24884236.35247        33.700          26.000          40.700  
  23609984.77306  23609991.82406                 124071294.23706  96678959.23346
                  23609991.66846        39.000          22.300                  
  21494375.29708  21494380.00007                 112953694.39308  88015879.54949
                  21494379.59849        47.200          47.900                  
  21185247.83609  21185255.38308  21185254.41009 111329280.22709  86750091.13049
  83135501.18909  21185254.86749        49.500          51.400          50.700  
 20 04 21 00 13 15.0000000  0 10G03G10G14G16G22G26G27G29G31G32       0.000000000
  23493485.25806  23493493.03106  23493494.57008 123459072.30306  96201920.47948
  92193511.03908  23493492.79748        38.300          33.800          45.300  
  24916803.13305  24916810.45704  24916811.38306 130938724.81005 102030143.32845
  97778881.40906  24916812.04345        37.500          16.300          38.700  
  20565544.18008                                 108072675.73208  84212466.41749
                  20565548.83649        46.600          38.600                  
  21313210.50008                                 112001702.63908  87274053.42549
                  21313214.34049        45.800          35.400                  
  22923952.49207                                 120466168.06807  93869748.59347
                  22923955.20347        41.800          28.400                  
  20141882.95309  20141890.48809  20141889.70709 105846278.47609  82477659.66349
  79041082.50109  20141890.58249        49.100          53.800          54.500  
  24880932.88303  24880941.26205  24880941.14106 130750190.41703 101883296.82747
  97638155.16106  24880940.81647        33.400          27.100          40.500  
  23610785.16406  23610791.67605                 124075498.08106  96682234.94346
                  23610791.62546        38.400          22.200                  
  21494925.93808  21494930.46108                 112956587.45608  88018133.87749
                  21494930.20349        47.000          47.600                  
  21186770.90609  21186778.07008  21186777.34409 111337283.80409  86756327.67249
  83141477.87309  21186777.85949        49.100          51.200          51.000  
 20 04 21 00 13 20.0000000  0 10G03G10G14G16G22G26G27G29G31G32       0.000000000
  23492152.08606  23492159.96906  23492160.83608 123452064.36206  96196459.74449
  92188277.82808  23492159.35549        38.700          34.600          45.400  
  24920089.00005  24920096.53104  24920096.28506 130955987.50605 102043594.74445
  97791772.36006  24920096.70345        37.400          15.600          38.100  
  20565437.91408                                 108072113.75508  84212028.50749
                  20565441.86749        46.800          38.400                  
  21310978.60908                                 111989972.93908  87264913.39949
                  21310982.23449        46.000          35.000                  
  22923831.35207                                 120465530.55907  93869251.83147
                  22923833.75847        41.900          27.500                  
  20141804.07009  20141811.54709  20141810.93809 105845863.75109  82477336.50349
  79040772.81109  20141811.58649        49.100          53.800          54.500  
  24877635.57003  24877645.11305  24877645.04706 130732868.95003 101869799.58347
  97625220.32406  24877644.57847        33.800          25.800          40.100  
  23611587.38306  23611594.33605                 124079716.09806  96685521.71646
                  23611594.10546        38.900          22.000                  
  21495476.51608  21495481.08607                 112959481.54808  88020389.01649
                  21495480.95749        47.000          47.700                  
  21188296.21109  21188303.25008  21188302.72309 111345299.28809  86762573.50249
  83147463.46809  21188303.12149        49.300          51.200          50.800  
 20 04 21 00 13 25.0000000  0 10G03G10G14G16G22G26G27G29G31G32       0.000000000
  23490821.15606  23490828.96106  23490829.99607 123445070.02906  96191009.61249
  92183054.79407  23490828.37549        38.300          34.100          44.900  
  24923372.03105  24923380.80103  24923380.08206 130973246.58305 102057043.42145
  97804660.64706  24923380.85545        37.300          16.900          38.300  
  20565332.61708                                 108071563.30408  84211599.58549
                  20565337.03949        46.700          38.400                  
  21308748.60208                                 111978256.00108  87255783.31949
                  21308752.84849        46.400          34.900                  
  22923712.14107                                 120464905.87507  93868765.06347
                  22923714.90247        41.300          27.600                  
  20141727.85209  20141735.33209  20141734.52009 105845462.62809  82477023.94049
  79040473.26809  20141735.37949        49.000          53.800          54.400  
  24874339.25803  24874347.80105  24874348.04706 130715543.30703 101856299.09347
  97612282.35506  24874347.35947        33.500          26.400          40.100  
  23612393.33606  23612399.25405                 124083948.43406  96688819.64446
                  23612399.65646        38.400          22.300                  
  21496027.17208  21496032.07808                 112962376.73608  88022644.99949
                  21496031.88349        47.100          47.700                  
  21189823.64809  21189831.05108  21189830.21909 111353326.78109  86768828.69149
  83153458.01209  21189830.71149        49.400          51.300          50.500  
 20 04 21 00 13 30.0000000  0 10G03G10G14G16G22G26G27G29G31G32       0.000000000
  23489493.03106  23489500.23006  23489501.41008 123438089.38506  96185570.14249
  92177841.95908  23489500.01649        38.500          34.000          45.200  
  24926655.29705  24926664.56304  24926664.52706 130990502.07305 102070489.22145
  97817546.22106  24926664.42645        37.100          16.900          38.900  
  20565230.40608                                 108071024.36708  84211179.63149
                  20565234.45749        46.900          38.600                  
  21306521.25008                                 111966551.87008  87246663.22049
                  21306525.53949        46.300          34.800                  
  22923595.95307                                 120464294.03607  93868288.30347
                  22923598.53547        41.900          28.100                  
  20141653.92209  20141661.58209  20141660.80509 105845075.10509  82476721.96949
  79040183.87509  20141661.60949        49.100          53.900          54.500  
  24871042.69503  24871049.61705  24871050.16406 130698213.50203 101842795.35947
  97599341.28306  24871049.73047        33.800          25.600          40.200  
  23613201.50006  23613207.83205                 124088195.03106  96692128.67146
                  23613207.83246        38.700          22.300                  
  21496578.83608  21496583.14508                 112965273.03408  88024901.84949
                  21496583.08649        47.100          47.800                  
  21191353.69509  21191360.63709  21191360.03109 111361366.27109  86775093.22249
  83159461.52809  21191360.73449        49.500          51.500          50.700  
 20 04 21 00 13 35.0000000  0 10G03G10G14G16G22G26G27G29G31G32       0.000000000
  23488167.18006  23488175.14806  23488175.77707 123431122.37706  96180141.30849
  92172639.32707  23488174.23449        39.200          34.300          44.600  
  24929939.21905  24929947.50404  24929946.89506 131007753.94305 102083932.22645
  97830429.07106  24929947.46545        37.900          17.800          38.800  
  20565129.90608                                 108070496.90108  84210768.61549
                  20565134.02049        46.700          38.800                  
  21304297.06308                                 111954860.47508  87237553.03949
                  21304300.87149        46.100          34.800                  
  22923481.87507                                 120463694.93507  93867821.46847
                  22923484.60947        41.800          28.400                  
  20141582.79709  20141590.39509  20141589.63309 105844701.11909  82476430.54649
  79039904.59609  20141590.45749        49.100          54.000          54.600  
  24867743.06304  24867751.01605  24867751.25806 130680879.51404 101829288.35847
  97586397.09606  24867751.22347        34.300          26.400          39.900  
  23614011.89106  23614018.29305                 124092455.81806  96695448.78746
                  23614018.71146        38.400          22.000                  
  21497130.07008  21497134.57008                 112968170.39908  88027159.53449
                  21497134.31349        47.300          47.800                  
  21192885.58609  21192893.24608  21192892.20709 111369417.70509  86781367.05849
  83165473.95809  21192892.75049        49.200          51.400          50.900  
 20 04 21 00 13 40.0000000  0 10G03G10G14G16G22G26G27G29G31G32       0.000000000
  23486843.87506  23486851.52706  23486852.50008 123424169.01906  96174723.10548
  92167446.89308  23486851.03948        38.600          33.800          45.000  
  24933220.53105  24933229.39803  24933228.75806 131025002.17305 102097372.41945
  97843309.25806  24933229.99245        37.700          17.800          38.900  
  20565032.00008                                 108069980.98508  84210366.60349
                  20565036.09449        46.700          38.500                  
  21302074.18808                                 111943181.91308  87228452.86449
                  21302078.24249        46.000          34.900                  
  22923370.46907                                 120463108.72507  93867364.66547
                  22923372.88747        41.800          28.600                  
  20141514.26609  20141521.40609  20141521.03509 105844340.72209  82476149.72149
  79039635.47409  20141521.76249        49.000          53.900          54.500  
  24864443.55504  24864451.53505  24864451.90206 130663541.40004 101815778.15347
  97573449.81506  24864451.82447        34.300          26.500          39.500  
  23614826.46106  23614831.89805                 124096730.87406  96698780.00046
                  23614831.69146        38.800          21.800                  
  21497681.48408  21497686.19108                 112971068.88808  88029418.10049
                  21497685.96549        47.000          47.800                  
  21194420.30509  21194427.58208  21194426.73009 111377481.15409  86787650.26649
  83171495.35409  21194427.19549        49.100          51.300          50.700  
 20 04 21 00 13 45.0000000  0 10G03G10G14G16G22G26G27G29G31G32       0.000000000
  23485523.36706  23485530.64806  23485531.68407 123417229.35606  96169315.57449
  92162264.65507  23485530.62549        38.400          34.000          44.600  
  24936502.82805  24936511.58605  24936511.72306 131042246.79705 102110809.80745
  97856186.70606  24936511.41445        37.300          16.900          40.600  
  20564935.39808                                 108069476.60108  84209973.57249
                  20564940.12549        46.600          38.500                  
  21299854.57808                                 111931516.13008  87219362.64849
                  21299858.60949        46.200          34.600                  
  22923261.56307                                 120462535.27607  93866917.83047
                  22923263.70747        41.600          27.900                  
  20141448.25809  20141455.84409  20141455.09009 105843993.86909  82475879.44149
  79039376.46309  20141455.90249        49.100          53.900          54.400  
  24861143.14103  24861152.03105  24861151.61706 130646199.12303 101802264.68547
  97560499.41906  24861152.11347        33.900          27.300          39.700  
  23615642.09406  23615648.15205                 124101020.18006  96702122.30246
                  23615648.00446        38.700          21.800                  
  21498233.58608  21498237.85508                 112973968.47108  88031677.51149
                  21498237.75449        47.500          47.800                  
  21195956.79709  21195964.29308  21195963.29309 111385556.55409  86793942.77949
  83177525.68309  21195963.83249        49.300          51.300          50.500  
 20 04 21 00 13 50.0000000  0 10G03G10G14G16G22G26G27G29G31G32       0.000000000
  23484204.96106  23484212.80506  23484213.83207 123410303.22406  96163918.59449
  92157092.55007  23484212.61749        38.800          34.000          44.600  
  24939783.22705  24939792.34405  24939792.21906 131059487.66805 102124244.18245
  97869061.34806  24939792.41845        37.600          16.900          39.200  
  20564841.93808                                 108068983.63708  84209589.44649
                  20564846.09849        46.600          38.300                  
  21297636.96108                                 111919863.07108  87210282.33549
                  21297641.00049        46.200          35.700                  
  22923153.96907                                 120461974.57207  93866480.91047
                  22923157.43847        41.800          28.300                  
  20141384.83609  20141392.39509  20141391.56609 105843660.50109  82475619.67649
  79039127.52009  20141392.37149        49.100          54.000          54.400  
  24857842.03904  24857850.39505  24857850.65206 130628852.65504 101788747.98847
  97547545.88606  24857850.98447        34.000          26.900          39.400  
  23616461.23406  23616467.07405                 124105323.66406  96705475.66146
                  23616466.65646        38.800          22.600                  
  21498785.68808  21498790.06308                 112976869.04308  88033937.69349
                  21498789.71149        47.400          47.800                  
  21197496.12509  21197503.00008  21197502.41009 111393643.85209  86800244.56149
  83183564.89009  21197502.80149        49.200          51.300          50.700  
 20 04 21 00 13 55.0000000  0 10G03G10G14G16G22G26G27G29G31G32       0.000000000
  23482890.85906  23482897.71506  23482898.52707 123403390.87006  96158532.32649
  92151930.72407  23482897.12949        38.900          34.000          44.900  
  24943062.89805  24943072.31604  24943070.85906 131076724.94205 102137675.84545
  97881933.35006  24943072.51245        36.800          17.400          38.300  
  20564750.02308                                 108068502.31208  84209214.38849
                  20564754.60949        46.800          38.700                  
  21295422.34408                                 111908222.91708  87201212.09549
                  21295425.91049        46.100          34.500                  
  22923050.55507                                 120461426.69707  93866054.00447
                  22923052.87547        41.700          27.900                  
  20141324.27309  20141331.36709  20141330.80109 105843340.77509  82475370.53649
  79038888.75709  20141331.59849        49.100          53.900          54.500  
  24854540.11704  24854549.27705  24854548.98406 130611502.15804 101775228.12147
  97534589.36006  24854549.04747        34.100          27.200          39.300  
  23617282.23406  23617288.48805                 124109641.47506  96708840.20346
                  23617288.36346        39.000          22.200                  
  21499337.71908  21499341.80508                 112979770.77808  88036198.78349
                  21499341.93049        47.300          48.000                  
  21199037.05509  21199044.46108  21199043.70709 111401743.20709  86806555.74749
  83189613.10409  21199044.05549        49.300          51.400          50.700  
 20 04 21 00 14 00.0000000  0 10G03G10G14G16G22G26G27G29G31G32       0.000000000
  23481577.43006  23481585.00006  23481585.82407 123396492.08006  96153156.64849
  92146779.02207  23481584.36349        38.800          34.500          44.500  
  24946343.10905  24946352.42605  24946350.96906 131093958.51005 102151104.56245
  97894802.55406  24946351.96945        37.500          17.400          39.400  
  20564661.16408                                 108068032.46708  84208848.26749
                  20564665.10549        46.700          38.700                  
  21293209.48408                                 111896595.48208  87192151.74749
                  21293213.39549        46.200          34.700                  
  22922948.51607                                 120460891.54807  93865636.98447
                  22922950.99647        42.000          28.900                  
  20141265.78909  20141272.90609  20141272.54309 105843034.49709  82475131.87549
  79038660.03709  20141273.23849        49.100          54.000          54.400  
  24851237.74203  24851246.16405  24851246.47306 130594147.41403 101761704.96247
  97521629.67606  24851246.42247        33.700          27.700          39.000  
  23618107.00806  23618112.38305                 124113973.42306  96712215.76246
                  23618112.76246        39.000          21.800                  
  21499889.81308  21499894.33608                 112982673.50608  88038460.65249
                  21499894.29349        47.200          47.900                  
  21200580.87509  21200587.91408  21200587.18809 111409854.45009  86812876.19049
  83195670.19409  21200587.62149        49.100          51.300          50.800  
 20 04 21 00 14 05.0000000  0 10G03G10G14G16G22G26G27G29G31G32       0.000000000
  23480267.37506  23480274.69506  23480275.67207 123389607.04906  96147791.68449
  92141637.60507  23480274.14549        39.400          34.700          44.500  
  24949621.68005  24949631.41805  24949630.62906 131111188.41505 102164530.43645
  97907669.02106  24949631.00045        37.200          17.800          39.600  
  20564573.71108                                 108067574.19308  84208491.16949
                  20564577.91849        46.500          38.300                  
  21290999.01608                                 111884980.93308  87183101.44149
                  21291003.29349        46.200          35.000                  
  22922848.68007                                 120460369.26507  93865230.00947
                  22922851.57847        42.100          28.500                  
  20141209.85909  20141217.66809  20141216.82809 105842741.82309  82474903.81649
  79038441.48109  20141217.60949        49.200          53.900          54.300  
  24847934.93804  24847943.40205  24847943.24606 130576788.72704 101748178.70847
  97508666.98306  24847943.29347        34.300          26.800          39.200  
  23618933.80506  23618940.16005                 124118319.71506  96715602.46446
                  23618939.77746        39.000          22.200                  
  21500443.10908  21500446.93408                 112985577.40708  88040723.42949
                  21500446.88749        47.200          47.800                  
  21202126.34409  21202133.98808  21202132.96109 111417977.71909  86819206.00549
  83201736.26209  21202133.37149        49.300          51.200          50.500  
 20 04 21 00 14 10.0000000  0 10G03G10G14G16G22G26G27G29G31G32       0.000000000
  23478959.20306  23478967.23006  23478968.03107 123382735.63606  96142437.33349
  92136506.35407  23478966.67249        38.900          34.200          44.300  
  24952900.19505  24952908.58604  24952907.48006 131128414.59705 102177953.41845
  97920532.70806  24952908.80545        37.400          17.400          38.900  
  20564488.96908                                 108067127.44808  84208143.05649
                  20564492.80149        46.600          38.500                  
  21288791.68808                                 111873379.15908  87174061.11249
                  21288795.32049        46.200          35.200                  
  22922751.85207                                 120459859.70907  93864832.95747
                  22922754.48847        41.800          27.900                  
  20141156.99209  20141164.38709  20141163.62909 105842462.63809  82474686.27049
  79038232.99609  20141164.37149        49.100          53.900          54.500  
  24844631.30503  24844639.60505  24844639.28506 130559425.83403 101734649.19047
  97495701.22206  24844639.15247        33.900          26.800          40.000  
  23619763.30506  23619769.92605                 124122680.15006  96719000.20046
                  23619769.24646        38.900          21.800                  
  21500995.27308  21500999.75008                 112988482.34208  88042987.01049
                  21500999.59049        47.200          47.800                  
  21203674.64809  21203681.64808  21203681.03909 111426112.91109  86825545.11049
  83207811.24509  21203681.40649        49.300          51.200          50.500  
 20 04 21 00 14 15.0000000  0 10G03G10G14G16G22G26G27G29G31G32       0.000000000
  23477655.09406  23477662.22306  23477662.88708 123375877.98706  96137093.70949
  92131385.34908  23477661.72349        38.700          34.000          45.200  
  24956178.04705  24956185.16005  24956184.85906 131145637.07805 102191373.55845
  97933393.66506  24956186.20345        37.100          19.300          38.900  
  20564405.56308                                 108066692.30608  84207803.97449
                  20564410.16449        46.600          38.600                  
  21286585.54708                                 111861790.28408  87165030.81349
                  21286590.19549        45.900          35.000                  
  22922657.17207                                 120459362.93207  93864445.84247
                  22922660.40247        42.000          28.100                  
  20141106.59409  20141114.02309  20141113.16009 105842197.02509  82474479.29849
  79038034.65009  20141113.95749        49.200          53.900          54.500  
  24841325.54704  24841335.00005  24841334.99606 130542058.98204 101721116.59147
  97482732.46806  24841334.35947        34.000          26.800          40.100  
  23620596.57006  23620602.10905                 124127054.86806  96722409.08446
                  23620601.93046        39.000          21.700                  
  21501548.51608  21501552.73408                 112991388.39508  88045251.46649
                  21501552.70749        47.200          47.900                  
  21205224.84409  21205232.17608  21205231.43009 111434260.10109  86831893.56849
  83213895.17709  21205231.80549        49.300          51.100          51.100  
 20 04 21 00 14 20.0000000  0 10G03G10G14G16G22G26G27G29G31G32       0.000000000
  23476351.76606  23476359.67206  23476360.59807 123369033.85506  96131760.62548
  92126274.48507  23476359.32848        38.800          33.600          44.400  
  24959453.70305  24959462.20705  24959462.78106 131162855.80405 102204790.71245
  97946251.74506  24959463.05145        37.600          19.000          40.000  
  20564325.07808                                 108066268.59808  84207473.81649
                  20564329.53149        46.600          38.300                  
  21284383.36708                                 111850214.14108  87156010.44349
                  21284387.11749        46.300          35.200                  
  22922565.37507                                 120458878.77907  93864068.58647
                  22922568.00047        41.900          27.700                  
  20141058.39109  20141065.90609  20141065.22309 105841944.81609  82474282.77649
  79037846.30809  20141065.89549        49.200          53.900          54.400  
  24838019.98403  24838029.06605  24838029.08606 130524687.87803 101707580.68547
  97469760.56706  24838028.81347        33.600          27.500          40.100  
  23621432.35906  23621437.65205                 124131443.73106  96725828.95546
                  23621436.87546        39.200          22.500                  
  21502101.68008  21502105.75007                 112994295.44508  88047516.69449
                  21502105.97749        47.200          47.800                  
  21206777.68009  21206784.66808  21206784.14109 111442419.15109  86838251.26349
  83219987.96609  21206784.47749        49.400          51.200          50.500  
