     2.10           OBSERVATION DATA    G                   RINEX VERSION / TYPE
teqc  2015Nov6                          20250421 01:55:36UTCPGM / RUN BY / DATE 
gfzrnx-2.1.12       FILE PROCESSING     20250424 022036 UTC COMMENT             
INITIAL_RINEX_VERSION: 2.11                                 COMMENT             
KYC1                                                        MARKER NAME         
23002M001                                                   MARKER NUMBER       
HYDRO               Marine Department HKSAR                 OBSERVER / AGENCY   
5304K50018          TRIMBLE NETR9       5.37                REC # / TYPE / VERS 
5000117587          TRM57971.00     NONE                    ANT # / TYPE        
        0.1200        0.0000        0.0000                  ANTENNA: DELTA H/E/N
 -2408855.2574  5391043.2386  2403591.1306                  APPROX POSITION XYZ 
     7    C1    C2    C5    L1    L2    L5    P2            # / TYPES OF OBSERV 
Linux2.6.32-279.el6.x86_64|x86_64|gcc|Win64-MinGW64|=       COMMENT             
R3Converter 1.25    SMO                 20250421 015512 UTC COMMENT             
----------------------------------------------------------- COMMENT             
     1     1                                                WAVELENGTH FACT L1/2
     0                                                      RCV CLOCK OFFS APPL 
    18                                                      LEAP SECONDS        
CARRIER PHASE MEASUREMENTS: PHASE SHIFTS REMOVED            COMMENT             
----------------------------------------------------------- COMMENT             
cnvtToRINEX 3.12.0  SMO                 21-Apr-25 01:55 UTC COMMENT             
Forced Modulo Decimation to 5 seconds                       COMMENT             
----------------------------------------------------------- COMMENT             
         C1    C2    C5    L1    L2    L5    P2             COMMENT             
        ----  ----  ----  ----  ----  ----  ----            COMMENT             
GFZRNX.NUM_EPOCHS: 720                                      COMMENT
    12                                                      # OF SATELLITES     
   G01   720   720   720   720   720   720   720            PRN / # OF OBS      
   G02   720               720   720         720            PRN / # OF OBS      
   G04   720   720   720   720   720   720   720            PRN / # OF OBS      
   G07   720   720         720   720         720            PRN / # OF OBS      
   G08   720   720   720   720   720   720   720            PRN / # OF OBS      
   G09   720   720   720   720   720   720   720            PRN / # OF OBS      
   G14   213   213   213   208   213   213   213            PRN / # OF OBS      
   G16   720               715   714         719            PRN / # OF OBS      
   G17   490   490         490   490         490            PRN / # OF OBS      
   G26   181   181   181   177   181   181   181            PRN / # OF OBS      
   G27   720   720   720   719   720   720   720            PRN / # OF OBS      
   G30   720   720   720   720   720   720   720            PRN / # OF OBS      
     5.000                                                  INTERVAL            
  2025     4    21     0     0    0.0000000     GPS         TIME OF FIRST OBS   
  2025     4    21     0    59   55.0000000     GPS         TIME OF LAST OBS    
                                                            END OF HEADER      
 25 04 21 00 00 00.0000000  0 10G01G02G04G07G08G09G16G26G27G30      
  22893891.031 5  22893900.320 8  22893905.461 9 120308195.728 5  93746647.973 8
  89840537.875 9  22893899.94946
  21041364.766 6                                 110573063.662 6  86160845.02548
                  21041371.11748
  22372823.586 5  22372833.602 9  22372837.266 9 117569962.434 5  91612947.334 9
  87795739.431 9  22372833.62147
  22378384.664 6  22378392.145 9                 117599179.153 6  91635719.055 9
                  22378392.43448
  20158203.469 6  20158213.188 9  20158211.926 9 105932092.036 6  82544473.782 9
  79105119.665 9  20158212.32049
  22124182.570 6  22124192.609 9  22124193.418 9 116263327.130 6  90594792.042 9
  86820005.885 9  22124192.61748
  23564919.648 5                                 123834579.777 5  96494510.74246
                  23564930.92646
  25161661.883 2  25161681.074 8  25161682.598 8 132225452.339 2 103032792.924 8
  98739762.859 8  25161681.00446
  22155123.992 5  22155135.027 9  22155134.426 9 116425952.248 5  90721525.940 9
  86941464.663 9  22155134.75848
  25157834.359 3  25157848.516 7  25157848.488 8 132205308.801 3 103017126.474 7
  98724746.449 8  25157847.71946
 25 04 21 00 00 05.0000000  0 10G01G02G04G07G08G09G16G26G27G30      
  22890896.398 5  22890906.133 8  22890911.105 9 120292460.266 5  93734386.561 8
  89828787.374 9  22890905.62146
  21039766.227 6                                 110564662.013 6  86154298.28448
                  21039772.32048
  22375435.727 6  22375445.551 9  22375449.766 9 117583690.718 6  91623644.673 9
  87805991.060 9  22375446.12547
  22375635.883 6  22375643.328 9                 117584734.199 6  91624463.258 9
                  22375643.68848
  20159374.109 6  20159384.164 9  20159383.039 9 105938246.620 6  82549269.545 9
  79109715.612 9  20159383.66049
  22125569.406 6  22125579.840 9  22125580.711 9 116270617.429 6  90600472.807 9
  86825449.936 9  22125579.94148
  23566640.805 5                                 123843625.672 5  96501559.43146
                  23566652.50046
  25163501.469 2  25163520.906 8  25163522.242 8 132235118.919 2 103040325.313 8
  98746981.384 8  25163520.75046
  22157988.688 5  22157999.516 9  22157999.137 9 116441006.265 5  90733256.333 9
  86952706.268 9  22157999.59848
  25154596.484 3  25154610.188 8  25154612.090 8 132188294.458 3 103003868.414 8
  98712040.905 8  25154609.85946
 25 04 21 00 00 10.0000000  0 10G01G02G04G07G08G09G16G26G27G30      
  22887902.484 5  22887912.020 8  22887916.965 9 120276727.315 5  93722127.126 8
  89817038.758 9  22887911.84446
  21038169.664 6                                 110556273.999 6  86147762.17248
                  21038176.25848
  22378049.391 6  22378059.164 9  22378062.926 9 117597423.812 6  91634345.756 9
  87816246.252 9  22378059.23447
  22372887.453 6  22372895.770 9                 117570294.077 6  91613211.220 9
                  22372895.77748
  20160547.703 6  20160557.461 9  20160556.258 9 105944411.782 6  82554073.568 9
  79114319.456 9  20160556.89849
  22126958.906 6  22126969.570 9  22126969.961 9 116277918.507 6  90606161.933 9
  86830902.011 9  22126969.22748
  23568362.383 5                                 123852671.651 5  96508608.22946
                  23568373.93046
  25165340.883 1  25165359.941 8  25165361.750 8 132244786.769 1 103047858.665 8
  98754200.845 8  25165360.21546
  22160853.953 5  22160864.945 9  22160864.652 9 116456064.011 5  90744989.604 9
  86963950.658 9  22160865.08648
  25151359.477 4  25151373.078 8  25151373.164 8 132171279.401 4 102990610.034 8
  98699334.894 8  25151372.16447
 25 04 21 00 00 15.0000000  0 10G01G02G04G07G08G09G16G26G27G30      
  22884908.641 5  22884919.246 8  22884923.625 9 120260996.845 5  93709869.643 8
  89805292.002 9  22884918.52346
  21036575.961 6                                 110547899.476 6  86141236.57148
                  21036582.51648
  22380663.391 6  22380672.883 9  22380676.973 9 117611161.598 6  91645050.510 9
  87826504.978 9  22380673.58247
  22370141.117 6  22370148.633 9                 117555858.767 6  91601962.920 9
                  22370148.69948
  20161722.656 6  20161732.789 9  20161731.570 9 105950587.433 6  82558885.757 9
  79118931.143 9  20161732.04349
  22128349.977 6  22128360.895 9  22128361.445 9 116285230.195 6  90611859.344 9
  86836362.032 9  22128360.65248
  23570084.063 4                                 123861717.712 4  96515657.06446
                  23570095.48446
  25167181.477 1  25167200.590 7  25167201.660 8 132254455.752 1 103055392.906 7
  98761421.142 8  25167199.99246
  22163719.742 5  22163731.238 9  22163730.805 9 116471125.416 5  90756725.759 9
  86975197.794 9  22163731.35548
  25148120.773 3  25148134.695 8  25148136.953 8 132154263.752 3 102977350.959 8
  98686628.354 8  25148133.86347
 25 04 21 00 00 20.0000000  0 10G01G02G04G07G08G09G16G26G27G30      
  22881916.320 5  22881926.371 8  22881930.641 9 120245268.921 5  93697614.127 8
  89793547.141 9  22881925.58646
  21034985.180 6                                 110539538.537 6  86134721.55848
                  21034991.52048
  22383278.695 5  22383288.305 9  22383292.195 9 117624904.153 5  91655758.982 9
  87836767.248 9  22383288.84047
  22367395.297 6  22367402.480 9                 117541428.323 6  91590718.432 9
                  22367402.66848
  20162899.719 6  20162910.215 9  20162908.734 9 105956773.629 6  82563706.171 9
  79123550.701 9  20162909.27349
  22129743.297 5  22129753.941 9  22129754.629 9 116292552.583 5  90617565.083 9
  86841830.039 9  22129754.13748
  23571804.922 4                                 123870763.827 4  96522705.96046
                  23571816.59846
  25169020.453 1  25169040.887 8  25169042.043 8 132264126.019 1 103062928.138 8
  98768642.401 8  25169040.09846
  22166586.984 5  22166598.262 9  22166597.488 9 116486190.522 5  90768464.796 9
  86986447.693 9  22166598.18848
  25144884.336 3  25144896.625 7  25144896.680 8 132137247.342 3 102964091.548 7
  98673921.336 8  25144896.17646
 25 04 21 00 00 25.0000000  0 10G01G02G04G07G08G09G16G26G27G30      
  22878923.789 5  22878933.512 8  22878938.254 9 120229543.452 5  93685360.521 8
  89781804.099 9  22878933.37546
  21033396.844 6                                 110531191.094 6  86128217.06848
                  21033403.18448
  22385894.984 6  22385904.488 9  22385908.020 9 117638651.310 6  91666471.035 9
  87847032.969 9  22385904.63747
  22364649.602 6  22364657.910 9                 117527002.614 6  91579477.625 9
                  22364657.59448
  20164079.195 6  20164089.035 9  20164087.926 9 105962970.221 6  82568534.686 9
  79128178.031 9  20164088.61349
  22131139.133 6  22131149.684 9  22131149.984 9 116299885.544 6  90623279.075 9
  86847305.941 9  22131149.60248
  23573526.883 4                                 123879809.960 4  96529754.84046
                  23573538.34446
  25170862.023 1  25170880.645 8  25170882.480 8 132273797.351 1 103070464.227 8
  98775864.467 8  25170880.61346
  22169454.109 5  22169465.453 9  22169465.094 9 116501259.196 5  90780206.601 9
  86997700.265 9  22169465.70748
  25141642.680 1  25141658.117 7  25141660.707 8 132120230.208 1 102950831.430 7
  98661213.760 8  25141657.66446
 25 04 21 00 00 30.0000000  0 10G01G02G04G07G08G09G16G26G27G30      
  22875931.484 5  22875941.719 8  22875946.176 9 120213820.502 5  93673108.869 8
  89770062.939 9  22875941.31346
  21031810.961 6                                 110522857.204 6  86121723.12248
                  21031817.27348
  22388511.547 6  22388521.066 9  22388524.953 9 117652403.157 6  91677186.751 9
  87857302.182 9  22388521.68447
  22361905.797 6  22361913.297 9                 117512581.733 6  91568240.590 9
                  22361913.37148
  20165260.227 6  20165270.375 9  20165269.094 9 105969177.305 6  82573371.371 9
  79132813.185 9  20165269.70349
  22132536.227 6  22132547.266 9  22132547.406 9 116307229.156 6  90629001.358 9
  86852789.791 9  22132547.10948
  23575248.281 4                                 123888856.205 4  96536803.83946
                  23575259.88746
  25172702.602 1  25172720.852 7  25172722.883 8 132283469.858 1 103078001.228 7
  98783087.405 8  25172720.77746
  22172322.594 5  22172334.105 9  22172333.305 9 116516331.527 5  90791951.260 9
  87008955.547 9  22172333.86348
  25138406.492 2  25138420.340 7  25138420.191 8 132103212.533 2 102937570.916 7
  98648505.705 8  25138419.55946
 25 04 21 00 00 35.0000000  0 10G01G02G04G07G08G09G16G26G27G30      
  22872940.367 5  22872950.352 8  22872954.832 9 120198100.134 5  93660859.248 8
  89758323.716 9  22872950.05546
  21030227.656 6                                 110514536.966 6  86115239.82248
                  21030233.90648
  22391129.602 6  22391138.984 9  22391142.605 9 117666159.720 6  91687906.121 9
  87867574.914 9  22391139.48847
  22359162.008 6  22359170.031 9                 117498165.772 6  91557007.374 9
                  22359170.05948
  20166443.750 6  20166453.500 9  20166452.324 9 105975394.896 6  82578216.254 9
  79137456.193 9  20166452.97749
  22133935.398 6  22133946.688 9  22133946.781 9 116314583.407 6  90634731.928 9
  86858281.592 9  22133946.71948
  23576969.438 4                                 123897902.543 4  96543852.89346
                  23576981.27746
  25174542.672 1  25174562.449 7  25174563.781 8 132293143.589 1 103085539.188 7
  98790311.277 8  25174561.53146
  22175191.688 5  22175202.742 8  22175202.012 9 116531407.530 5  90803698.779 8
  87020213.585 9  22175202.68848
  25135167.813 2  25135179.523 7  25135183.074 8 132086194.115 2 102924309.733 7
  98635797.180 8  25135180.81346
 25 04 21 00 00 40.0000000  0 10G01G02G04G07G08G09G16G26G27G30      
  22869949.445 5  22869959.660 8  22869963.770 9 120182382.142 5  93648611.462 8
  89746586.267 9  22869959.34846
  21028646.953 6                                 110506230.190 6  86108767.01348
                  21028653.15248
  22393747.633 6  22393757.949 9  22393761.250 9 117679920.751 6  91698628.987 9
  87877851.004 9  22393757.82847
  22356419.969 6  22356427.797 9                 117483754.469 6  91545777.803 9
                  22356427.68048
  20167628.516 6  20167638.520 9  20167637.270 9 105981622.766 6  82583069.134 9
  79142106.868 9  20167638.07849
  22135337.422 6  22135347.996 9  22135348.262 9 116321948.083 6  90640470.629 9
  86863781.183 9  22135348.24648
  23578691.250 5                                 123906948.755 5  96550901.85446
                  23578702.84046
  25176385.336 1  25176403.063 8  25176404.855 8 132302818.373 1 103093077.949 8
  98797535.916 8  25176402.84846
  22178060.922 5  22178072.344 9  22178071.605 9 116546486.979 5  90815448.970 9
  87031474.194 9  22178072.24648
  25131929.141 2  25131942.602 8  25131942.988 8 132069174.983 2 102911048.173 8
  98623088.078 8  25131942.32046
 25 04 21 00 00 45.0000000  0 10G01G02G04G07G08G09G16G26G27G30      
  22866959.297 5  22866969.129 8  22866973.242 9 120166667.000 5  93636365.909 8
  89734850.940 9  22866968.84046
  21027069.070 6                                 110497937.280 6  86102305.00648
                  21027075.11348
  22396367.414 6  22396377.070 9  22396380.809 9 117693686.691 6  91709355.683 9
  87888130.743 9  22396377.44147
  22353678.461 6  22353686.449 9                 117469348.345 6  91534552.249 9
                  22353686.21148
  20168815.859 6  20168825.895 9  20168824.559 9 105987861.359 6  82587930.359 9
  79146765.553 9  20168825.37149
  22136740.977 6  22136751.445 9  22136751.836 9 116329323.639 6  90646217.795 9
  86869288.885 9  22136751.71148
  23580412.586 5                                 123915995.304 5  96557951.07946
                  23580424.21146
  25178225.469 1  25178244.723 8  25178246.207 8 132312494.567 1 103100617.838 8
  98804761.631 8  25178244.26246
  22180930.922 5  22180942.297 9  22180941.977 9 116561570.275 5  90827202.201 9
  87042737.690 9  22180942.60548
  25128690.789 4  25128704.313 7  25128705.996 8 132052155.434 4 102897786.077 7
  98610378.688 8  25128703.63346
 25 04 21 00 00 50.0000000  0 10G01G02G04G07G08G09G16G26G27G30      
  22863968.758 5  22863978.516 8  22863983.199 9 120150954.294 5  93624122.249 8
  89723117.446 9  22863978.60546
  21025493.609 6                                 110489657.879 6  86095853.53348
                  21025499.47748
  22398988.211 6  22398997.414 9  22399001.082 9 117707457.103 6  91720085.860 9
  87898413.820 9  22398997.82047
  22350937.883 6  22350945.785 9                 117454946.981 6  91523330.425 9
                  22350945.70748
  20170005.313 6  20170015.031 9  20170013.723 9 105994110.236 6  82592799.620 9
  79151431.922 9  20170014.48449
  22138147.078 5  22138157.230 9  22138157.289 9 116336709.624 5  90651973.106 9
  86874804.386 9  22138157.16848
  23582133.945 4                                 123925041.749 4  96565000.22046
                  23582145.96546
  25180066.188 1  25180086.590 8  25180087.762 8 132322171.896 1 103108158.517 8
  98811988.123 8  25180086.36346
  22183802.141 5  22183813.242 9  22183812.816 9 116576657.037 5  90838958.094 9
  87054003.759 9  22183813.40248
  25125450.813 2  25125465.711 8  25125465.941 8 132035135.062 2 102884523.616 8
  98597668.740 8  25125464.99646
 25 04 21 00 00 55.0000000  0 10G01G02G04G07G08G09G16G26G27G30      
  22860979.266 5  22860989.141 9  22860993.703 9 120135244.143 5  93611880.587 9
  89711385.837 9  22860989.24646
  21023920.563 6                                 110481392.048 6  86089412.62948
                  21023926.68848
  22401609.609 6  22401618.969 9  22401622.426 9 117721232.064 6  91730819.583 9
  87908700.299 9  22401619.07447
  22348198.414 6  22348206.141 9                 117440550.435 6  91512112.344 9
                  22348206.10948
  20171195.977 6  20171206.109 9  20171204.781 9 106000369.463 6  82597676.946 9
  79156106.017 9  20171205.50049
  22139554.141 5  22139564.246 9  22139564.773 9 116344106.119 5  90657736.589 9
  86880327.728 9  22139564.68048
  23583856.000 4                                 123934088.223 4  96572049.39846
                  23583867.27046
  25181908.633 1  25181928.824 8  25181929.645 8 132331850.234 1 103115700.114 8
  98819215.472 8  25181928.35546
  22186673.625 5  22186685.008 9  22186684.379 9 116591747.288 5  90850716.731 9
  87065272.435 9  22186685.01248
  25122212.102 2  25122226.422 7  25122227.555 8 132018114.191 2 102871260.458 7
  98584958.285 8  25122225.75046
 25 04 21 00 01 00.0000000  0 10G01G02G04G07G08G09G16G26G27G30      
  22857990.531 5  22858000.027 8  22858004.656 9 120119536.781 5  93599641.093 8
  89699656.332 9  22858000.52046
  21022349.914 6                                 110473140.034 6  86082982.48948
                  21022356.44948
  22404231.484 6  22404241.238 9  22404244.813 9 117735011.794 6  91741557.020 9
  87918990.344 9  22404241.40247
  22345459.664 6  22345467.320 9                 117426158.996 6  91500898.236 9
                  22345467.50048
  20172388.930 6  20172399.180 9  20172397.883 9 106006639.313 6  82602562.528 9
  79160788.041 9  20172398.73049
  22140963.547 6  22140974.539 9  22140974.473 9 116351513.357 6  90663508.447 9
  86885859.090 9  22140974.18048
  23585577.188 4                                 123943134.952 4  96579098.76746
                  23585588.77746
  25183750.398 2  25183770.035 8  25183771.641 8 132341530.043 2 103123242.753 8
  98826443.861 8  25183770.27046
  22189546.766 5  22189557.203 9  22189556.727 9 116606841.319 5  90862478.290 9
  87076543.928 9  22189557.33248
  25118973.352 2  25118988.242 8  25118988.344 8 132001092.763 2 102857997.107 8
  98572247.519 8  25118986.58246
 25 04 21 00 01 05.0000000  0 10G01G02G04G07G08G09G16G26G27G30      
  22855002.242 5  22855011.816 8  22855016.352 9 120103831.902 5  93587403.523 8
  89687928.657 9  22855011.96546
  21020782.594 6                                 110464901.493 6  86076562.85848
                  21020788.65248
  22406854.898 6  22406864.273 9  22406867.613 9 117748795.963 6  91752297.914 9
  87929283.704 9  22406864.30547
  22342721.906 6  22342729.883 9                 117411772.335 6  91489687.845 9
                  22342729.92248
  20173584.063 6  20173594.270 9  20173592.781 9 106012919.386 6  82607456.084 9
  79165477.702 9  20173593.68849
  22142375.156 6  22142385.570 9  22142385.945 9 116358930.976 6  90669288.415 9
  86891398.219 9  22142385.72348
  23587298.484 5                                 123952181.608 5  96586148.04846
                  23587310.12946
  25185591.969 1  25185612.594 8  25185614.168 8 132351210.929 1 103130786.244 8
  98833673.030 8  25185612.95346
  22192419.016 5  22192430.402 9  22192429.695 9 116621938.757 5  90874242.503 9
  87087817.974 9  22192430.28548
  25115733.789 2  25115747.176 7  25115748.957 8 131984070.697 2 102844733.097 7
  98559536.185 8  25115747.27046
 25 04 21 00 01 10.0000000  0 10G01G02G04G07G08G09G16G26G27G30      
  22852013.703 5  22852024.270 8  22852028.352 9 120088129.671 5  93575168.022 8
  89676202.976 9  22852024.04347
  21019217.234 6                                 110456676.638 6  86070153.88648
                  21019223.53548
  22409478.555 6  22409488.410 9  22409491.723 9 117762584.712 6  91763042.378 9
  87939580.468 9  22409488.04347
  22339985.258 6  22339993.215 9                 117397390.593 6  91478481.317 9
                  22339993.12948
  20174781.242 6  20174791.398 9  20174789.867 9 106019209.873 6  82612357.767 9
  79170175.146 9  20174790.74249
  22143788.688 6  22143799.223 9  22143799.438 9 116366359.155 6  90675076.598 9
  86896945.228 9  22143799.16048
  23589020.742 5                                 123961228.389 5  96593197.45846
                  23589031.77046
  25187434.719 1  25187454.848 8  25187456.539 8 132360892.947 1 103138330.690 8
  98840903.109 8  25187455.18446
  22195292.672 5  22195304.430 9  22195303.332 9 116637039.761 5  90886009.508 9
  87099094.676 9  22195303.92648
  25112495.258 3  25112509.164 8  25112509.895 8 131967047.918 3 102831468.640 8
  98546824.429 8  25112508.10246
 25 04 21 00 01 15.0000000  0 10G01G02G04G07G08G09G16G26G27G30      
  22849027.047 5  22849036.176 8  22849040.844 9 120072430.137 5  93562934.630 8
  89664479.295 9  22849036.68046
  21017655.094 6                                 110448465.499 6  86063755.59148
                  21017660.81648
  22412103.633 5  22412113.188 9  22412116.648 9 117776378.049 5  91773790.421 9
  87949880.678 9  22412112.95347
  22337249.305 6  22337257.238 9                 117383013.874 6  91467278.678 9
                  22337257.29748
  20175980.570 6  20175990.000 9  20175988.906 9 106025510.790 6  82617267.570 9
  79174880.371 9  20175989.71949
  22145204.320 6  22145214.949 9  22145215.086 9 116373797.911 6  90680873.008 9
  86902500.120 9  22145214.82448
  23590742.117 4                                 123970275.329 4  96600246.99346
                  23590753.61346
  25189277.797 1  25189297.480 8  25189299.063 8 132370576.300 1 103145876.098 8
  98848134.136 8  25189297.73446
  22198167.406 5  22198178.574 8  22198177.637 9 116652144.358 5  90897779.298 8
  87110374.062 9  22198178.14148
  25109254.313 1  25109269.625 7  25109270.223 8 131950024.685 1 102818203.764 7
  98534112.283 8  25109268.84846
 25 04 21 00 01 20.0000000  0 10G01G02G04G07G08G09G16G26G27G30      
  22846039.586 5  22846049.219 8  22846054.055 9 120056733.270 5  93550703.312 8
  89652757.625 9  22846049.42246
  21016094.844 6                                 110440268.039 6  86057367.96648
                  21016101.01248
  22414729.055 6  22414738.633 9  22414742.332 9 117790175.923 6  91784541.999 9
  87960184.265 9  22414738.65247
  22334514.492 6  22334522.496 9                 117368642.109 6  91456079.913 9
                  22334522.48048
  20177181.008 6  20177190.973 9  20177189.859 9 106031822.074 6  82622185.441 9
  79179593.328 9  20177190.84849
  22146622.125 6  22146632.418 9  22146632.648 9 116381247.151 6  90686677.613 9
  86908062.851 9  22146632.38748
  23592463.703 5                                 123979322.340 5  96607296.57046
                  23592475.09846
  25191121.125 1  25191140.668 8  25191141.988 8 132380260.871 1 103153422.482 8
  98855366.058 8  25191140.42646
  22201042.227 5  22201053.430 8  22201052.551 9 116667252.439 5  90909551.823 8
  87121656.060 9  22201053.19148
  25106015.805 3  25106030.816 8  25106031.387 8 131933000.886 3 102804938.453 8
  98521399.704 8  25106029.56346
 25 04 21 00 01 25.0000000  0 10G01G02G04G07G08G09G16G26G27G30      
  22843052.359 5  22843063.133 9  22843067.309 9 120041038.935 5  93538473.981 9
  89641037.839 9  22843062.93046
  21014537.609 6                                 110432084.130 6  86050990.89948
                  21014543.69948
  22417355.555 5  22417365.465 9  22417368.926 9 117803978.179 5  91795296.986 9
  87970491.130 9  22417365.38347
  22331780.531 6  22331788.703 9                 117354275.159 6  91444884.897 9
                  22331788.55548
  20178384.523 6  20178394.422 9  20178392.789 9 106038143.589 6  82627111.295 9
  79184313.933 9  20178393.80949
  22148041.602 6  22148051.512 9  22148052.117 9 116388706.761 6  90692490.301 9
  86913633.342 9  22148051.83248
  23594185.297 5                                 123988369.371 5  96614346.17846
                  23594196.93446
  25192965.133 1  25192983.586 8  25192985.270 8 132389946.477 1 103160969.696 8
  98862598.802 8  25192983.52046
  22203917.398 5  22203928.746 8  22203928.234 9 116682363.921 5  90921326.992 8
  87132940.593 9  22203928.62548
  25102776.023 3  25102790.184 7  25102790.746 8 131915976.344 3 102791672.633 7
  98508686.612 8  25102789.83246
 25 04 21 00 01 30.0000000  0 10G01G02G04G07G08G09G16G26G27G30      
  22840066.727 5  22840076.863 9  22840081.352 9 120025347.441 5  93526246.846 9
  89629320.176 9  22840076.94946
  21012983.016 6                                 110423914.043 6  86044624.60548
                  21012988.87148
  22419982.609 5  22419992.859 9  22419996.434 9 117817785.060 5  91806055.566 9
  87980801.440 9  22419992.90247
  22329047.414 6  22329055.785 9                 117339913.324 6  91433693.862 9
                  22329055.67648
  20179589.164 6  20179599.117 9  20179597.746 9 106044475.560 6  82632045.297 9
  79189042.359 9  20179598.69149
  22149462.867 6  22149473.188 9  22149473.707 9 116396176.971 6  90698311.241 9
  86919211.743 9  22149473.48448
  23595906.891 5                                 123997416.531 5  96621395.86046
                  23595918.61746
  25194807.563 1  25194827.359 8  25194828.625 8 132399633.453 1 103168517.937 8
  98869832.542 8  25194826.66446
  22206793.844 5  22206805.813 9  22206804.453 9 116697479.035 5  90933104.984 9
  87144227.832 9  22206805.10948
  25099535.578 2  25099551.598 8  25099551.980 8 131898951.430 2 102778406.467 8
  98495973.189 8  25099550.02746
 25 04 21 00 01 35.0000000  0 10G01G02G04G07G08G09G16G26G27G30      
  22837081.250 5  22837091.547 9  22837095.871 9 120009658.593 5  93514021.772 9
  89617604.476 9  22837091.80146
  21011430.609 6                                 110415757.610 6  86038268.93748
                  21011436.71948
  22422611.219 5  22422621.355 9  22422624.629 9 117831596.360 5  91816817.616 9
  87991115.052 9  22422621.16047
  22326315.492 6  22326323.605 9                 117325556.430 6  91422506.685 9
                  22326323.61348
  20180796.328 6  20180806.215 9  20180804.582 9 106050817.802 6  82636987.305 9
  79193778.450 9  20180805.56349
  22150886.461 6  22150897.063 9  22150897.250 9 116403657.606 6  90704140.288 9
  86924797.919 9  22150896.86748
  23597629.023 4                                 124006463.710 4  96628445.59946
                  23597640.05946
  25196651.438 1  25196670.711 8  25196672.215 8 132409321.578 1 103176067.125 8
  98877067.144 8  25196670.59046
  22209671.148 5  22209682.012 9  22209681.473 9 116712597.556 5  90944885.627 9
  87155517.613 9  22209681.97348
  25096296.445 3  25096310.617 7  25096310.961 8 131881925.906 3 102765139.793 7
  98483259.314 8  25096309.89146
 25 04 21 00 01 40.0000000  0 10G01G02G04G07G08G09G16G26G27G30      
  22834095.867 5  22834106.375 9  22834110.754 9 119993972.638 5  93501798.930 9
  89605890.928 9  22834106.83246
  21009880.961 6                                 110407615.021 6  86031924.06648
                  21009887.15648
  22425240.203 5  22425250.219 9  22425253.805 9 117845412.284 5  91827583.251 9
  88001432.125 9  22425250.31647
  22323584.109 6  22323592.703 9                 117311204.690 6  91411323.523 9
                  22323592.55148
  20182005.203 6  20182014.828 9  20182013.625 9 106057170.544 6  82641937.486 9
  79198522.366 9  20182014.46549
  22152311.898 6  22152322.371 9  22152322.793 9 116411148.853 6  90709977.620 9
  86930392.002 9  22152322.28948
  23599350.000 5                                 124015511.091 5  96635495.45546
                  23599361.77746
  25198494.344 2  25198515.266 8  25198516.137 8 132419011.072 2 103183617.352 8
  98884302.792 8  25198514.63346
  22212548.680 5  22212560.004 9  22212559.023 9 116727719.694 5  90956669.094 9
  87166810.102 9  22212559.62148
  25093057.898 4  25093070.816 8  25093072.371 8 131864899.930 4 102751872.864 8
  98470545.168 8  25093070.31646
 25 04 21 00 01 45.0000000  0 10G01G02G04G07G08G09G16G26G27G30      
  22831111.453 5  22831121.824 8  22831126.473 9 119978289.278 5  93489578.160 8
  89594179.340 9  22831122.41446
  21008334.219 6                                 110399486.076 6  86025589.82748
                  21008340.25848
  22427869.813 5  22427879.980 9  22427883.738 9 117859232.569 5  91838352.280 9
  88011752.435 9  22427880.09847
  22320854.281 6  22320862.406 9                 117296857.900 6  91400144.205 9
                  22320862.31348
  20183216.094 6  20183226.043 9  20183224.430 9 106063533.488 6  82646895.617 9
  79203273.915 9  20183225.24649
  22153739.406 6  22153750.117 9  22153750.125 9 116418650.443 6  90715822.993 9
  86935993.839 9  22153749.87948
  23601071.758 5                                 124024558.460 5  96642545.30446
                  23601083.71146
  25200339.008 1  25200359.207 8  25200360.410 8 132428701.646 1 103191168.464 8
  98891539.250 8  25200359.13346
  22215426.711 5  22215438.273 9  22215437.438 9 116742845.191 5  90968455.184 9
  87178105.103 9  22215437.96948
  25089815.844 2  25089829.422 7  25089830.656 8 131847873.384 2 102738605.413 7
  98457830.559 8  25089830.23047
 25 04 21 00 01 50.0000000  0 10G01G02G04G07G08G09G16G26G27G30      
  22828127.844 5  22828137.828 9  22828142.539 9 119962608.678 5  93477359.494 9
  89582469.808 9  22828138.40646
  21006789.969 6                                 110391370.881 6  86019266.30848
                  21006795.88348
  22430500.203 5  22430510.238 9  22430514.578 9 117873057.299 5  91849124.770 9
  88022076.074 9  22430511.16847
  22318124.875 6  22318133.375 9                 117282516.109 6  91388968.807 9
                  22318133.31648
  20184428.688 6  20184438.809 9  20184437.309 9 106069906.739 6  82651861.778 9
  79208033.156 9  20184438.04349
  22155169.125 6  22155179.457 9  22155179.633 9 116426162.456 6  90721676.500 9
  86941603.443 9  22155179.21948
  23602793.750 5                                 124033605.903 5  96649595.23646
                  23602805.48046
  25202183.547 2  25202202.879 8  25202204.688 8 132438393.515 2 103198720.506 8
  98898776.605 8  25202203.48446
  22218305.758 5  22218317.477 9  22218316.359 9 116757974.113 5  90980243.948 9
  87189402.674 9  22218317.10548
  25086576.789 4  25086590.055 8  25086591.906 8 131830846.385 4 102725337.612 8
  98445115.576 8  25086590.39847
 25 04 21 00 01 55.0000000  0 10G01G02G04G07G08G09G16G26G27G30      
  22825144.445 5  22825154.980 9  22825159.086 9 119946930.860 5  93465143.048 9
  89570762.374 9  22825155.15246
  21005248.078 6                                 110383269.487 6  86012953.53948
                  21005254.41048
  22433132.398 5  22433142.109 9  22433146.117 9 117886886.510 5  91859900.751 9
  88032403.061 9  22433142.59846
  22315396.898 6  22315405.098 9                 117268179.401 6  91377797.342 9
                  22315405.03548
  20185642.938 6  20185653.582 9  20185652.059 9 106076290.317 6  82656836.000 9
  79212800.116 9  20185652.77049
  22156600.430 6  22156610.895 9  22156611.004 9 116433684.918 6  90727538.153 9
  86947220.861 9  22156610.80148
  23604515.438 5                                 124042653.493 5  96656645.26146
                  23604527.01646
  25204028.313 1  25204047.973 8  25204048.957 8 132448086.591 1 103206273.544 8
  98906014.944 8  25204048.07447
  22221185.172 5  22221196.730 9  22221195.848 9 116773106.559 5  90992035.432 9
  87200702.835 9  22221196.61348
  25083336.320 4  25083349.996 7  25083350.617 8 131813818.797 4 102712069.379 7
  98432400.208 8  25083350.09447
 25 04 21 00 02 00.0000000  0 10G01G02G04G07G08G09G16G26G27G30      
  22822162.227 5  22822171.891 9  22822176.070 9 119931255.927 5  93452928.815 9
  89559057.064 9  22822172.16846
  21003709.352 6                                 110375181.940 6  86006651.55048
                  21003715.42248
  22435764.625 5  22435774.695 9  22435778.555 9 117900720.200 5  91870680.240 9
  88042733.387 9  22435775.01247
  22312669.844 6  22312677.805 9                 117253847.842 6  91366629.894 9
                  22312677.75448
  20186859.734 6  20186870.000 9  20186868.758 9 106082684.266 6  82661818.289 9
  79217574.808 9  20186869.52049
  22158033.570 6  22158044.609 9  22158044.398 9 116441217.874 6  90733407.986 9
  86952846.109 9  22158044.24248
  23606237.031 5                                 124051701.225 5  96663695.42146
                  23606248.60946
  25205873.266 1  25205893.020 8  25205893.676 8 132457780.980 1 103213827.595 8
  98913254.237 8  25205893.38346
  22224065.961 5  22224076.992 9  22224076.207 9 116788242.487 5  91003829.661 9
  87212005.634 9  22224077.02048
  25080094.875 3  25080110.703 8  25080111.176 8 131796790.857 3 102698800.896 8
  98419684.534 8  25080109.86747
 25 04 21 00 02 05.0000000  0 10G01G02G04G07G08G09G16G26G27G30      
  22819179.422 5  22819190.051 9  22819193.973 9 119915583.731 5  93440716.726 9
  89547353.823 9  22819189.71946
  21002172.883 6                                 110367108.134 6  86000360.27748
                  21002179.09048
  22438398.000 5  22438407.949 9  22438411.902 9 117914558.239 5  91881463.120 9
  88053066.971 9  22438408.63747
  22309943.633 6  22309951.438 9                 117239521.307 6  91355466.378 9
                  22309951.50848
  20188078.781 6  20188088.879 9  20188087.523 9 106089088.445 6  82666808.560 9
  79222357.150 9  20188088.19149
  22159469.383 6  22159479.520 9  22159479.766 9 116448761.175 6  90739285.869 9
  86958479.080 9  22159479.66448
  23607958.563 4                                 124060749.019 4  96670745.60746
                  23607970.19146
  25207717.313 1  25207737.590 8  25207738.867 8 132467476.604 1 103221382.589 8
  98920494.435 8  25207738.35946
  22226946.367 5  22226957.820 9  22226956.992 9 116803381.780 5  91015626.508 9
  87223310.942 9  22226958.09448
  25076853.898 3  25076868.852 7  25076869.906 8 131779762.357 3 102685531.943 7
  98406968.481 8  25076869.28546
 25 04 21 00 02 10.0000000  0 10G01G02G04G07G08G09G16G26G27G30      
  22816197.570 5  22816207.836 8  22816212.176 9 119899914.374 5  93428506.839 8
  89535652.673 9  22816207.75446
  21000638.820 6                                 110359048.125 6  85994079.75648
                  21000645.31648
  22441032.492 5  22441042.094 9  22441045.902 9 117928400.672 5  91892249.414 9
  88063403.841 9  22441042.69947
  22307218.055 6  22307226.598 9                 117225199.829 6  91344306.785 9
                  22307226.27748
  20189299.570 6  20189309.234 9  20189308.148 9 106095502.875 6  82671806.813 9
  79227147.141 9  20189308.74249
  22160906.625 6  22160917.434 9  22160917.023 9 116456314.885 6  90745171.872 9
  86964119.827 9  22160917.13748
  23609681.039 5                                 124069796.915 5  96677795.88546
                  23609691.73846
  25209563.758 1  25209582.969 8  25209584.391 8 132477173.465 1 103228938.534 8
  98927735.561 8  25209583.40247
  22229827.844 5  22229839.883 9  22229838.605 9 116818524.485 5  91027425.992 9
  87234618.785 9  22229839.61748
  25073614.008 2  25073628.930 8  25073629.652 8 131762733.422 2 102672262.640 8
  98394252.066 8  25073628.86346
 25 04 21 00 02 15.0000000  0 10G01G02G04G07G08G09G16G26G27G30      
  22813216.258 5  22813226.379 9  22813231.055 9 119884247.913 5  93416299.223 9
  89523953.714 9  22813226.47746
  20999108.016 6                                 110351002.025 6  85987810.07648
                  20999114.17648
  22443667.516 5  22443677.152 9  22443680.879 9 117942247.577 5  91903039.187 9
  88073744.044 9  22443677.30547
  22304494.172 6  22304502.148 9                 117210883.555 6  91333151.250 9
                  22304501.84848
  20190521.977 6  20190531.754 9  20190530.789 9 106101927.683 6  82676813.148 9
  79231944.874 9  20190531.37549
  22162346.328 6  22162356.652 9  22162356.387 9 116463879.036 6  90751065.991 9
  86969768.380 9  22162356.56648
  23611402.367 5                                 124078845.013 5  96684846.30146
                  23611413.78546
  25211408.953 1  25211428.836 8  25211429.953 8 132486871.687 1 103236495.581 8
  98934977.678 8  25211429.03146
  22232710.453 5  22232722.223 9  22232721.000 9 116833670.680 5  91039228.195 9
  87245929.227 9  22232721.89548
  25070373.844 2  25070388.340 8  25070389.051 8 131745704.092 2 102658993.083 8
  98381535.390 8  25070388.44146
 25 04 21 00 02 20.0000000  0 10G01G02G04G07G08G09G16G26G27G30      
  22810235.180 5  22810246.008 9  22810250.168 9 119868584.162 5  93404093.732 9
  89512256.783 9  22810245.60946
  20997579.688 6                                 110342969.613 6  85981551.05048
                  20997585.55148
  22446303.273 5  22446312.773 9  22446316.723 9 117956098.717 5  91913832.282 9
  88084087.400 9  22446313.25447
  22301770.914 6  22301778.730 9                 117196572.293 6  91321999.607 9
                  22301778.63348
  20191746.305 6  20191756.742 9  20191755.199 9 106108362.588 6  82681827.353 9
  79236750.155 9  20191755.90649
  22163787.938 5  22163797.965 9  22163797.984 9 116471453.456 5  90756968.136 9
  86975424.582 9  22163797.95348
  23613124.484 4                                 124087893.130 4  96691896.74346
                  23613135.40246
  25213255.039 2  25213274.563 8  25213275.480 8 132496570.960 2 103244053.429 8
  98942220.652 8  25213274.77047
  22235593.805 5  22235604.898 9  22235603.738 9 116848820.125 5  91051032.956 9
  87257242.121 9  22235604.75448
  25067134.031 2  25067148.219 8  25067148.090 8 131728674.168 2 102645722.989 8
  98368818.248 8  25067147.78546
 25 04 21 00 02 25.0000000  0 10G01G02G04G07G08G09G16G26G27G30      
  22807255.070 5  22807265.508 8  22807269.969 9 119852923.200 5  93391890.387 8
  89500561.924 9  22807265.49246
  20996054.000 6                                 110334950.958 6  85975302.75548
                  20996059.78548
  22448940.188 5  22448948.922 9  22448952.961 9 117969954.125 5  91924628.694 9
  88094433.972 9  22448949.73047
  22299047.805 6  22299056.117 9                 117182266.047 6  91310851.920 9
                  22299056.34048
  20192972.953 6  20192982.910 9  20192981.672 9 106114807.665 6  82686849.492 9
  79241563.040 9  20192982.64549
  22165230.805 6  22165241.512 9  22165241.305 9 116479038.153 6  90762878.284 9
  86981088.478 9  22165241.11348
  23614846.070 5                                 124096941.291 5  96698947.26646
                  23614857.15646
  25215100.625 2  25215120.383 8  25215121.770 8 132506271.476 2 103251612.250 8
  98949464.504 8  25215120.48846
  22238476.547 5  22238488.367 9  22238487.422 9 116863972.886 5  91062840.271 9
  87268557.471 9  22238488.21148
  25063891.430 2  25063906.832 7  25063907.453 8 131711643.757 2 102632452.597 7
  98356100.756 8  25063906.78546
 25 04 21 00 02 30.0000000  0 10G01G02G04G07G08G09G16G26G27G30      
  22804275.406 5  22804285.633 8  22804290.273 9 119837265.188 5  93379689.340 8
  89488869.244 9  22804285.66846
  20994530.453 6                                 110326946.198 6  85969065.28548
                  20994536.49648
  22451577.367 5  22451587.125 9  22451590.250 9 117983813.935 5  91935428.527 9
  88104783.810 9  22451587.40247
  22296326.875 6  22296335.086 9                 117167965.023 6  91299708.264 9
                  22296334.74248
  20194201.078 6  20194211.254 9  20194210.098 9 106121263.038 6  82691879.649 9
  79246383.614 9  20194210.91049
  22166676.250 6  22166686.688 9  22166686.563 9 116486633.241 6  90768796.519 9
  86986760.126 9  22166686.43848
  23616568.430 4                                 124105989.636 4  96705997.87646
                  23616579.35546
  25216947.008 2  25216966.563 8  25216967.875 8 132515973.308 2 103259172.076 8
  98956709.317 8  25216966.44947
  22241360.313 5  22241372.824 9  22241371.414 9 116879129.052 5  91074650.270 9
  87279875.391 9  22241372.56648
  25060652.398 3  25060666.156 8  25060666.641 8 131694612.982 3 102619181.841 8
  98343382.976 8  25060665.85946
 25 04 21 00 02 35.0000000  0 10G01G02G04G07G08G09G16G26G27G30      
  22801296.828 5  22801306.500 8  22801311.047 9 119821610.017 5  93367490.504 8
  89477178.711 9  22801306.56346
  20993009.672 6                                 110318955.259 6  85962838.58448
                  20993015.80148
  22454215.578 5  22454225.219 9  22454228.539 9 117997678.049 5  91946231.709 9
  88115136.852 9  22454225.45747
  22293606.203 6  22293614.293 9                 117153669.141 6  91288568.626 9
                  22293614.42248
  20195431.719 6  20195441.582 9  20195440.406 9 106127728.582 6  82696917.737 9
  79251211.772 9  20195441.24649
  22168123.133 6  22168133.438 9  22168134.152 9 116494238.642 6  90774722.807 9
  86992439.479 9  22168133.61348
  23618289.852 5                                 124115038.062 5  96713048.54846
                  23618301.23046
  25218793.383 2  25218812.879 8  25218813.988 8 132525676.328 2 103266732.858 8
  98963955.065 8  25218812.77047
  22244245.945 5  22244257.234 9  22244256.324 9 116894288.581 5  91086462.863 9
  87291195.783 9  22244257.21948
  25057412.133 2  25057425.668 7  25057425.336 8 131677581.702 2 102605910.785 7
  98330664.856 8  25057424.79347
 25 04 21 00 02 40.0000000  0 10G01G02G04G07G08G09G16G26G27G30      
  22798317.836 5  22798328.363 9  22798332.652 9 119805957.746 5  93355293.907 9
  89465490.307 9  22798328.09446
  20991491.938 6                                 110310978.159 6  85956622.66748
                  20991497.75448
  22456854.633 5  22456864.781 9  22456867.418 9 118011546.417 5  91957038.212 9
  88125493.102 9  22456864.49647
  22290887.359 6  22290895.273 9                 117139378.388 6  91277432.963 9
                  22290894.93848
  20196663.844 6  20196674.102 9  20196672.625 9 106134204.337 6  82701963.761 9
  79256047.548 9  20196673.64149
  22169572.594 6  22169583.305 9  22169583.332 9 116501854.346 6  90780657.116 9
  86998126.508 9  22169582.80148
  23620011.961 4                                 124124086.583 4  96720099.32646
                  23620023.17246
  25220639.680 2  25220659.359 8  25220660.531 8 132535380.595 2 103274294.581 8
  98971201.709 8  25220659.14847
  22247130.883 5  22247142.543 9  22247141.656 9 116909451.396 5  91098278.053 9
  87302518.664 9  22247142.75848
  25054168.164 2  25054184.883 8  25054184.492 8 131660550.034 2 102592639.313 8
  98317946.411 8  25054183.91046
 25 04 21 00 02 45.0000000  0 10G01G02G04G07G08G09G16G26G27G30      
  22795340.516 5  22795350.539 9  22795354.496 9 119790308.276 5  93343099.546 9
  89453804.047 9  22795350.08646
  20989976.188 6                                 110303014.873 6  85950417.50648
                  20989982.49648
  22459494.297 5  22459503.684 9  22459507.344 9 118025419.047 5  91967848.049 9
  88135852.501 9  22459504.24246
  22288168.391 6  22288176.930 9                 117125092.734 6  91266301.288 9
                  22288176.41048
  20197898.242 6  20197907.941 9  20197906.906 9 106140690.202 6  82707017.679 9
  79260890.886 9  20197907.89149
  22171023.742 6  22171034.430 9  22171034.520 9 116509480.287 6  90786599.382 9
  87003821.197 9  22171033.90648
  23621734.156 4                                 124133135.198 4  96727150.14846
                  23621745.11746
  25222486.938 2  25222506.375 8  25222507.434 8 132545086.056 2 103281857.241 8
  98978449.258 8  25222506.10246
  22250016.617 5  22250028.988 9  22250027.699 9 116924617.500 5  91110095.752 9
  87313843.963 9  22250028.68848
  25050928.555 4  25050942.270 8  25050943.383 8 131643517.891 4 102579367.570 8
  98305227.612 8  25050942.57046
 25 04 21 00 02 50.0000000  0 10G01G02G04G07G08G09G16G26G27G30      
  22792362.984 5  22792372.617 8  22792377.133 9 119774661.905 5  93330907.567 8
  89442120.063 9  22792372.83646
  20988463.320 6                                 110295065.553 6  85944223.23748
                  20988469.80548
  22462135.188 5  22462145.148 8  22462148.016 8 118039296.069 5  91978661.311 8
  88146215.200 8  22462144.69947
  22285451.047 6  22285459.480 9                 117110812.392 6  91255173.750 9
                  22285459.06648
  20199134.570 6  20199144.586 9  20199143.059 9 106147186.391 6  82712079.654 9
  79265741.941 9  20199143.81349
  22172477.180 6  22172487.184 9  22172487.645 9 116517116.674 6  90792549.802 9
  87009523.686 9  22172487.18048
  23623455.422 5                                 124142184.072 5  96734201.18546
                  23623467.19146
  25224334.297 2  25224353.551 8  25224354.570 8 132554792.962 2 103289421.056 8
  98985697.892 8  25224353.44546
  22252903.469 5  22252915.418 9  22252914.402 9 116939787.034 5  91121916.189 9
  87325171.865 9  22252915.39148
  25047687.094 3  25047702.043 8  25047701.949 8 131626485.488 3 102566095.542 8
  98292508.624 8  25047701.61746
 25 04 21 00 02 55.0000000  0 10G01G02G04G07G08G09G16G26G27G30      
  22789386.078 5  22789396.012 8  22789400.051 9 119759018.320 5  93318717.762 8
  89430438.175 9  22789395.89546
  20986953.461 6                                 110287130.017 6  85938039.71448
                  20986959.52348
  22464776.609 5  22464786.844 8  22464789.426 8 118053177.239 5  91989477.781 8
  88156580.988 8  22464786.31346
  22282734.656 6  22282742.371 9                 117096537.091 6  91244050.155 9
                  22282742.59448
  20200372.805 6  20200382.426 9  20200381.207 9 106153692.636 6  82717149.436 9
  79270600.482 9  20200381.98849
  22173932.617 6  22173942.410 9  22173942.781 9 116524763.203 6  90798508.130 9
  87015233.743 9  22173942.07848
  23625178.008 5                                 124151232.954 5  96741252.21946
                  23625189.21546
  25226181.172 2  25226201.039 8  25226201.453 8 132564501.000 2 103296985.740 8
  98992947.348 8  25226200.92647
  22255790.711 5  22255802.836 9  22255801.609 9 116954959.748 5  91133739.055 9
  87336502.130 9  22255802.73048
  25044445.742 3  25044460.391 7  25044461.242 8 131609452.562 3 102552823.140 7
  98279789.248 8  25044460.38746
 25 04 21 00 03 00.0000000  0 10G01G02G04G07G08G09G16G26G27G30      
  22786409.633 5  22786419.211 8  22786423.832 9 119743377.684 5  93306530.249 8
  89418758.487 9  22786419.29346
  20985445.813 6                                 110279208.379 6  85931867.01348
                  20985452.18848
  22467419.273 5  22467429.125 8  22467431.793 8 118067062.623 5  92000297.553 8
  88166949.931 8  22467428.54746
  22280019.039 6  22280026.941 9                 117082266.984 6  91232930.603 9
                  22280027.03548
  20201612.516 6  20201622.551 9  20201621.168 9 106160209.026 6  82722227.150 9
  79275466.626 9  20201621.93049
  22175389.391 5  22175399.484 9  22175399.785 9 116532419.973 5  90804474.429 9
  87020951.451 9  22175399.27348
  23626899.484 4                                 124160281.922 4  96748303.35746
                  23626910.84846
  25228029.258 2  25228048.559 8  25228048.922 8 132574210.286 2 103304551.378 8
  99000197.780 8  25228048.60547
  22258679.070 5  22258690.875 9  22258689.500 9 116970135.763 5  91145564.487 9
  87347834.829 9  22258690.54748
  25041205.914 3  25041219.051 8  25041219.137 8 131592419.218 3 102539550.460 8
  98267069.604 8  25041218.89546
 25 04 21 00 03 05.0000000  0 10G01G02G04G07G08G09G16G26G27G30      
  22783433.352 5  22783443.441 8  22783448.133 9 119727740.097 5  93294345.130 8
  89407081.070 9  22783443.73846
  20983941.258 6                                 110271300.732 6  85925705.20948
                  20983947.35248
  22470061.766 5  22470071.629 9  22470074.918 9 118080952.349 5  92011120.705 9
  88177322.095 9  22470071.79746
  22277304.414 6  22277312.453 9                 117068002.233 6  91221815.214 9
                  22277312.51248
  20202854.813 6  20202864.402 9  20202863.156 9 106166735.650 6  82727312.841 9
  79280340.397 9  20202863.89549
  22176848.078 6  22176858.855 9  22176859.043 9 116540087.113 6  90810448.815 9
  87026676.901 9  22176858.48048
  23628621.117 4                                 124169331.150 4  96755354.64746
                  23628632.91046
  25229876.172 2  25229896.715 8  25229897.027 8 132583920.956 2 103312118.095 8
  99007449.204 8  25229896.82047
  22261566.680 5  22261579.449 9  22261578.203 9 116985315.125 5  91157392.568 9
  87359170.052 9  22261579.21948
  25037963.008 2  25037977.539 7  25037978.137 8 131575385.648 2 102526277.567 7
  98254349.725 8  25037977.60947
 25 04 21 00 03 10.0000000  0 10G01G02G04G07G08G09G16G26G27G30      
  22780458.563 5  22780468.855 8  22780472.977 9 119712105.428 5  93282162.281 8
  89395405.852 9  22780468.62546
  20982439.242 6                                 110263406.964 6  85919554.22748
                  20982445.35548
  22472706.266 5  22472715.754 9  22472718.785 8 118094846.237 5  92021947.074 9
  88187697.389 8  22472715.68846
  22274590.805 6  22274599.598 9                 117053742.629 6  91210703.845 9
                  22274599.03148
  20204098.219 6  20204108.469 9  20204107.090 9 106173272.347 6  82732406.359 9
  79285221.699 9  20204107.76249
  22178308.914 6  22178319.398 9  22178320.164 9 116547764.414 6  90816431.131 9
  87032409.939 9  22178319.48448
  23630343.719 4                                 124178380.436 4  96762406.02146
                  23630354.86746
  25231725.234 3  25231744.926 8  25231745.266 8 132593632.786 3 103319685.738 8
  99014701.537 8  25231744.79347
  22264456.609 5  22264468.523 9  22264467.398 9 117000497.735 5  91169223.128 9
  87370507.677 9  22264468.38348
  25034721.500 3  25034736.531 8  25034736.289 8 131558351.636 3 102513004.313 8
  98241629.529 8  25034736.03946
 25 04 21 00 03 15.0000000  0 10G01G02G04G07G08G09G16G26G27G30      
  22777484.109 5  22777494.469 9  22777498.398 9 119696473.798 5  93269981.795 9
  89383732.884 9  22777494.07047
  20980939.680 6                                 110255527.172 6  85913414.13548
                  20980945.73448
  22475351.234 5  22475360.488 8  22475363.574 9 118108744.355 5  92032776.768 8
  88198075.834 9  22475360.54747
  22271878.633 6  22271886.613 9                 117039488.334 6  91199596.610 9
                  22271886.53548
  20205344.523 6  20205354.406 9  20205352.969 9 106179819.227 6  82737507.816 9
  79290110.600 9  20205353.58649
  22179771.766 6  22179782.363 9  22179783.066 9 116555451.979 6  90822421.432 9
  87038150.645 9  22179782.37148
  23632065.992 5                                 124187429.910 5  96769457.53746
                  23632077.12146
  25233573.281 3  25233593.359 8  25233593.574 8 132603346.026 3 103327254.447 8
  99021954.878 8  25233593.28947
  22267346.555 5  22267358.402 9  22267357.066 9 117015683.608 5  91181056.268 9
  87381847.762 9  22267358.23848
  25031481.438 3  25031494.230 7  25031495.270 8 131541317.340 3 102499730.828 7
  98228909.118 8  25031494.43846
 25 04 21 00 03 20.0000000  0 10G01G02G04G07G08G09G16G26G27G30      
  22774509.992 5  22774520.070 9  22774524.469 9 119680845.149 5  93257803.629 9
  89372062.150 9  22774520.32846
  20979442.813 6                                 110247661.272 6  85907284.86548
                  20979448.97348
  22477996.414 5  22478006.254 9  22478009.023 8 118122646.629 5  92043609.707 9
  88208457.387 8  22478006.08247
  22269166.961 6  22269175.156 9                 117025239.282 6  91188493.444 9
                  22269175.05948
  20206592.000 6  20206601.688 9  20206600.785 9 106186376.209 6  82742617.152 9
  79295007.047 9  20206601.43849
  22181236.977 6  22181247.156 9  22181248.012 9 116563149.753 6  90828419.698 9
  87043898.968 9  22181247.25048
  23633787.586 4                                 124196479.516 4  96776509.14046
                  23633799.26646
  25235422.578 3  25235442.164 8  25235442.297 8 132613060.473 3 103334824.111 8
  99029209.142 8  25235441.95747
  22270236.539 5  22270248.922 9  22270247.633 9 117030872.710 5  91192891.924 9
  87393190.271 9  22270248.44948
  25028238.523 2  25028253.059 8  25028253.137 8 131524282.609 2 102486457.041 8
  98216188.420 8  25028252.93446
 25 04 21 00 03 25.0000000  0 10G01G02G04G07G08G09G16G26G27G30      
  22771536.711 5  22771546.254 9  22771550.793 9 119665219.501 5  93245627.804 9
  89360393.640 9  22771546.86746
  20977948.453 6                                 110239809.290 6  85901166.44848
                  20977954.74248
  22480642.250 5  22480652.891 9  22480655.465 8 118136553.034 5  92054445.838 9
  88218842.033 8  22480652.53147
  22266456.180 6  22266464.340 9                 117010995.445 6  91177394.367 9
                  22266464.54748
  20207841.781 6  20207851.883 9  20207850.387 9 106192943.269 6  82747734.339 9
  79299911.012 9  20207850.85249
  22182703.664 6  22182714.004 9  22182714.781 9 116570857.696 6  90834425.865 9
  87049654.895 9  22182714.19148
  23635510.141 4                                 124205529.218 4  96783560.79346
                  23635521.35246
  25237271.266 3  25237290.465 8  25237291.645 8 132622776.181 3 103342394.786 8
  99036464.360 8  25237290.93847
  22273127.648 5  22273139.637 9  22273138.660 9 117046065.011 5  91204730.070 9
  87404535.162 9  22273139.58248
  25024998.117 3  25025011.188 7  25025012.039 8 131507247.630 3 102473183.060 7
  98203467.502 8  25025011.16447
 25 04 21 00 03 30.0000000  0 10G01G02G04G07G08G09G16G26G27G30      
  22768563.867 5  22768573.766 9  22768578.207 9 119649596.983 5  93233454.412 9
  89348727.487 9  22768574.00846
  20976456.992 6                                 110231971.443 6  85895059.03948
                  20976463.26648
  22483289.602 5  22483299.883 9  22483302.613 9 118150463.742 5  92065285.337 9
  88229229.863 9  22483299.54747
  22263747.102 6  22263755.379 9                 116996757.011 6  91166299.485 9
                  22263755.02048
  20209093.625 6  20209103.316 9  20209102.016 9 106199520.542 6  82752859.488 9
  79304822.616 9  20209102.63749
  22184172.250 6  22184182.844 9  22184183.551 9 116578575.948 6  90840440.095 9
  87055418.527 9  22184182.92248
  23637231.898 5                                 124214579.226 5  96790612.74346
                  23637243.44146
  25239119.914 2  25239139.379 8  25239140.723 8 132632493.286 2 103349966.541 8
  99043720.635 8  25239139.90647
  22276019.266 5  22276031.469 9  22276030.324 9 117061260.688 5  91216570.827 9
  87415882.550 9  22276031.13748
  25021755.961 3  25021770.180 8  25021769.559 8 131490212.358 3 102459908.834 8
  98190746.385 8  25021769.46546
 25 04 21 00 03 35.0000000  0 10G01G02G04G07G08G09G16G26G27G30      
  22765591.133 5  22765601.328 9  22765605.902 9 119633977.420 5  93221283.313 9
  89337063.515 9  22765601.79346
  20974968.430 6                                 110224147.432 6  85888962.41148
                  20974974.46148
  22485936.938 5  22485948.164 9  22485950.707 8 118164378.437 5  92076127.935 9
  88239620.703 8  22485947.83646
  22261038.375 6  22261046.645 9                 116982523.721 6  91155208.627 9
                  22261046.73848
  20210347.227 7  20210356.730 9  20210355.531 9 106206107.781 7  82757992.405 9
  79309741.652 9  20210356.18849
  22185643.313 6  22185653.559 9  22185654.375 9 116586304.280 6  90846462.155 9
  87061189.661 9  22185653.66848
  23638953.805 5                                 124223629.231 5  96797664.65646
                  23638965.72746
  25240969.906 2  25240988.902 8  25240990.176 8 132642211.559 2 103357539.174 8
  99050977.749 8  25240989.18046
  22278911.594 5  22278923.289 9  22278922.547 9 117076459.425 5  91228413.994 9
  87427232.251 9  22278923.37948
  25018513.539 4  25018527.832 7  25018528.684 8 131473176.700 4 102446634.302 7
  98178024.971 8  25018527.59846
 25 04 21 00 03 40.0000000  0 10G01G02G04G07G08G09G16G26G27G30      
  22762619.750 5  22762629.781 9  22762634.273 9 119618360.802 5  93209114.530 9
  89325401.773 9  22762630.07846
  20973482.391 6                                 110216337.314 6  85882876.61248
                  20973488.26648
  22488586.250 5  22488596.379 9  22488599.316 8 118178297.208 5  92086973.726 9
  88250014.556 8  22488597.07847
  22258330.617 6  22258338.988 9                 116968295.695 6  91144121.865 9
                  22258339.06648
  20211602.195 7  20211612.523 9  20211611.012 9 106212704.999 7  82763133.090 9
  79314668.144 9  20211611.63749
  22187115.547 6  22187126.445 9  22187126.973 9 116594042.671 6  90852492.055 9
  87066968.312 9  22187126.19148
  23640676.750 5                                 124232679.300 5  96804716.62446
                  23640687.94546
  25242818.656 2  25242839.539 8  25242839.770 8 132651931.068 2 103365112.825 8
  99058235.788 8  25242838.68046
  22281804.508 5  22281816.520 9  22281815.414 9 117091661.299 5  91240259.591 9
  87438584.282 9  22281816.18048
  25015272.969 4  25015286.527 8  25015286.227 8 131456140.660 4 102433359.456 8
  98165303.250 8  25015285.42247
 25 04 21 00 03 45.0000000  0 10G01G02G04G07G08G09G16G26G27G30      
  22759648.281 5  22759658.336 9  22759663.211 9 119602747.401 5  93196948.271 9
  89313742.437 9  22759658.77046
  20971998.766 6                                 110208541.347 6  85876801.84048
                  20972004.57848
  22491236.016 5  22491245.863 9  22491248.844 8 118192220.218 5  92097822.797 9
  88260411.588 8  22491246.30147
  22255624.109 6  22255632.473 9                 116954073.116 6  91133039.339 9
                  22255632.57448
  20212859.703 6  20212869.336 9  20212868.363 9 106219312.430 6  82768281.740 9
  79319602.266 9  20212869.00849
  22188590.586 6  22188600.305 9  22188601.445 9 116601791.367 6  90858529.997 9
  87072754.673 9  22188600.78148
  23642399.195 5                                 124241729.661 5  96811768.82146
                  23642410.05946
  25244669.352 2  25244688.438 7  25244689.773 8 132661652.029 2 103372687.530 7
  99065494.899 8  25244688.34846
  22284697.641 5  22284709.980 9  22284708.813 9 117106866.483 5  91252107.772 9
  87449938.781 9  22284709.57048
  25012029.516 2  25012043.977 7  25012044.570 8 131439104.454 2 102420084.539 7
  98152581.421 8  25012043.49647
 25 04 21 00 03 50.0000000  0 10G01G02G04G07G08G09G16G26G27G30      
  22756678.219 5  22756687.949 9  22756692.691 9 119587137.073 5  93184784.379 9
  89302085.378 9  22756688.21547
  20970517.688 6                                 110200759.337 6  85870737.93948
                  20970523.76648
  22493886.086 5  22493896.180 9  22493899.184 9 118206147.277 5  92108675.027 9
  88270811.650 9  22493896.81346
  22252918.844 6  22252926.770 9                 116939855.839 6  91121960.943 9
                  22252927.09048
  20214118.477 6  20214128.836 9  20214127.629 9 106225929.891 6  82773438.198 9
  79324543.859 9  20214128.27349
  22190066.828 6  22190077.082 9  22190077.930 9 116609550.155 6  90864575.797 9
  87078548.567 9  22190077.19148
  23644121.313 5                                 124250780.116 5  96818821.12046
                  23644132.40246
  25246519.547 2  25246538.465 8  25246539.801 8 132671374.232 2 103380263.240 8
  99072754.933 8  25246538.27046
  22287591.469 5  22287603.840 9  22287603.039 9 117122074.792 5  91263958.386 9
  87461295.615 9  22287603.56348
  25008788.203 3  25008801.949 7  25008802.344 8 131422067.942 3 102406809.284 7
  98139859.353 8  25008801.33646
 25 04 21 00 03 55.0000000  0 10G01G02G04G07G08G09G16G26G27G30      
  22753708.484 5  22753718.012 9  22753722.949 9 119571529.742 5  93172622.821 9
  89290430.558 9  22753718.46546
  20969039.531 6                                 110192991.186 6  85864684.83548
                  20969045.63748
  22496537.188 5  22496547.051 9  22496550.359 9 118220078.320 5  92119530.367 9
  88281214.678 9  22496547.68447
  22250214.742 6  22250222.723 9                 116925643.777 6  91110886.616 9
                  22250222.58248
  20215379.797 7  20215390.109 9  20215388.836 9 106232557.262 7  82778602.383 9
  79329492.879 9  20215389.54349
  22191544.820 6  22191555.371 9  22191556.180 9 116617318.972 6  90870629.410 9
  87084349.945 9  22191555.45748
  23645843.672 4                                 124259830.572 4  96825873.39946
                  23645854.89846
  25248368.781 2  25248388.289 7  25248390.117 8 132681097.647 2 103387839.880 7
  99080015.880 8  25248388.54746
  22290486.336 5  22290498.609 9  22290497.637 9 117137286.175 5  91275811.404 9
  87472654.751 9  22290498.30548
  25005545.922 3  25005559.898 7  25005560.871 8 131405030.978 3 102393533.818 7
  98127136.972 8  25005559.07847
 25 04 21 00 04 00.0000000  0 10G01G02G04G07G08G09G16G26G27G30      
  22750739.531 5  22750748.926 9  22750753.520 9 119555925.659 5  93160463.812 9
  89278778.157 9  22750748.92246
  20967563.852 6                                 110185237.163 6  85858642.74948
                  20967569.87148
  22499188.961 5  22499199.219 9  22499202.230 9 118234013.536 5  92130388.970 9
  88291620.842 9  22499199.43047
  22247510.977 6  22247519.156 9                 116911437.191 6  91099816.561 9
                  22247518.98048
  20216643.203 6  20216653.242 9  20216651.801 9 106239194.790 6  82783774.467 9
  79334449.473 9  20216652.56649
  22193024.797 6  22193035.316 9  22193036.672 9 116625098.057 6  90876691.020 9
  87090158.987 9  22193035.73448
  23647565.008 4                                 124268881.388 4  96832925.92346
                  23647577.32846
  25250219.227 2  25250238.875 7  25250241.145 8 132690822.466 2 103395417.623 7
  99087277.890 8  25250239.11346
  22293381.805 5  22293393.891 9  22293392.828 9 117152500.831 5  91287666.969 9
  87484016.340 9  22293393.48048
  25002304.281 3  25002317.734 8  25002318.457 8 131387993.851 3 102380258.183 8
  98114414.489 8  25002317.07046
 25 04 21 00 04 05.0000000  0 10G01G02G04G07G08G09G16G26G27G30      
  22747769.695 5  22747779.688 9  22747784.820 9 119540324.632 5  93148307.161 9
  89267128.052 9  22747780.15647
  20966090.906 6                                 110177497.119 6  85852611.55348
                  20966096.91848
  22501841.227 5  22501851.594 9  22501854.945 9 118247952.786 5  92141250.697 9
  88302029.990 9  22501852.14147
  22244808.797 6  22244816.617 9                 116897235.927 6  91088750.632 9
                  22244816.81348
  20217907.898 7  20217918.379 9  20217916.781 9 106245842.184 7  82788954.250 9
  79339413.425 9  20217917.68049
  22194507.641 6  22194517.625 9  22194518.836 9 116632887.153 6  90882760.443 9
  87095975.517 9  22194517.76648
  23649287.961 4                                 124277932.246 4  96839978.49746
                  23649299.82846
  25252071.031 2  25252090.543 8  25252091.531 8 132700548.499 2 103402996.353 8
  99094540.806 8  25252090.20346
  22296277.609 5  22296289.527 9  22296288.711 9 117167718.579 5  91299524.946 9
  87495380.207 9  22296289.38348
  24999061.383 3  24999076.082 7  24999076.473 8 131370956.480 3 102366982.265 7
  98101691.772 8  24999075.00447
 25 04 21 00 04 10.0000000  0 10G01G02G04G07G08G09G16G26G27G30      
  22744801.492 5  22744812.074 9  22744816.660 9 119524726.667 5  93136152.893 9
  89255480.218 9  22744811.84446
  20964620.742 6                                 110169770.989 6  85846591.19748
                  20964626.69148
  22504494.664 5  22504505.270 9  22504508.289 9 118261895.956 5  92152115.482 9
  88312442.065 9  22504505.34446
  22242107.250 6  22242115.277 9                 116883039.945 6  91077688.840 9
                  22242115.37148
  20219175.195 6  20219184.898 9  20219183.590 9 106252499.595 6  82794141.841 9
  79344384.870 9  20219184.47749
  22195991.539 6  22196002.184 9  22196002.910 9 116640686.266 6  90888837.677 9
  87101799.514 9  22196001.88348
  23651010.141 4                                 124286983.190 4  96847031.15146
                  23651022.12146
  25253920.930 2  25253940.805 8  25253942.770 8 132710275.759 2 103410576.008 8
  99101804.635 8  25253941.54346
  22299174.383 5  22299186.102 9  22299185.012 9 117182939.371 5  91311385.287 9
  87506746.378 9  22299185.85248
  24995819.438 3  24995832.824 8  24995834.148 8 131353918.715 3 102353706.133 8
  98088968.802 8  24995832.66847
 25 04 21 00 04 15.0000000  0 10G01G02G04G07G08G09G16G26G27G30      
  22741834.508 5  22741844.117 9  22741849.051 9 119509131.905 5  93124001.165 9
  89243834.801 9  22741844.32446
  20963153.203 6                                 110162059.004 6  85840581.86348
                  20963158.97748
  22507149.211 5  22507158.707 9  22507162.332 8 118275843.218 5  92162983.480 9
  88322857.213 8  22507159.55546
  22239406.563 6  22239415.375 9                 116868849.433 6  91066631.309 9
                  22239415.08648
  20220443.750 6  20220453.941 9  20220452.352 9 106259167.060 6  82799337.271 9
  79349363.820 9  20220453.32449
  22197477.688 6  22197488.258 9  22197489.012 9 116648495.521 6  90894922.779 9
  87107631.095 9  22197487.80948
  23652733.211 4                                 124296034.420 4  96854084.00946
                  23652744.37946
  25255773.352 2  25255792.848 8  25255793.828 8 132720004.432 2 103418156.777 8
  99109069.532 8  25255792.63346
  22302071.500 5  22302083.359 9  22302082.223 9 117198163.346 5  91323248.096 9
  87518114.910 9  22302082.59448
  24992577.422 3  24992591.410 8  24992591.754 8 131336880.821 3 102340429.846 8
  98076245.705 8  24992590.69946
 25 04 21 00 04 20.0000000  0 10G01G02G04G07G08G09G16G26G27G30      
  22738867.047 5  22738876.941 8  22738882.313 9 119493540.366 5  93111851.914 8
  89232191.763 9  22738877.29746
  20961688.516 6                                 110154361.082 6  85834583.49048
                  20961694.10248
  22509803.172 5  22509813.770 9  22509817.434 9 118289794.507 5  92173854.573 9
  88333275.370 9  22509814.21146
  22236707.344 6  22236715.961 9                 116854664.346 6  91055577.999 9
                  22236715.53548
  20221714.617 6  20221724.301 9  20221722.910 9 106265844.543 6  82804540.504 9
  79354350.242 9  20221723.97349
  22198965.438 6  22198976.109 9  22198976.852 9 116656314.865 6  90901015.781 9
  87113470.197 9  22198975.85948
  23654455.391 4                                 124305085.844 4  96861137.07346
                  23654466.60546
  25257624.320 2  25257644.301 8  25257645.699 8 132729734.438 2 103425738.566 8
  99116335.405 8  25257644.43046
  22304968.156 5  22304980.434 8  22304979.840 9 117213390.444 5  91335113.359 8
  87529485.791 9  22304980.35548
  24989336.336 4  24989349.059 8  24989349.691 8 131319842.696 4 102327153.393 8
  98063522.437 8  24989348.38347
 25 04 21 00 04 25.0000000  0 10G01G02G04G07G08G09G16G26G27G30      
  22735901.508 5  22735910.578 9  22735915.758 9 119477951.987 5  93099705.113 9
  89220551.094 9  22735911.04346
  20960226.242 6                                 110146677.207 6  85828596.06548
                  20960232.07048
  22512459.344 5  22512469.336 9  22512473.145 9 118303749.762 5  92184728.796 9
  88343696.480 9  22512469.64846
  22234009.023 6  22234017.121 9                 116840484.646 6  91044528.889 9
                  22234017.34848
  20222987.344 6  20222997.039 9  20222995.586 9 106272531.968 6  82809751.468 9
  79359344.089 9  20222996.58249
  22200455.680 6  22200466.152 9  22200466.730 9 116664144.214 6  90907116.599 9
  87119316.805 9  22200465.79748
  23656178.234 4                                 124314137.386 4  96868190.14446
                  23656189.09846
  25259476.141 2  25259496.809 8  25259497.363 8 132739465.704 2 103433321.329 8
  99123602.232 8  25259496.41047
  22307866.930 5  22307878.777 9  22307878.031 9 117228620.623 5  91346981.018 9
  87540858.953 9  22307878.55948
  24986093.055 4  24986105.938 7  24986107.492 8 131302804.268 4 102313876.779 7
  98050798.972 8  24986106.05147
 25 04 21 00 04 30.0000000  0 10G01G02G04G07G08G09G16G26G27G30      
  22732935.188 5  22732945.223 9  22732949.992 9 119462366.875 5  93087560.894 9
  89208912.874 9  22732945.04347
  20958766.859 6                                 110139007.519 6  85822619.69148
                  20958772.64148
  22515115.539 5  22515125.363 9  22515129.582 9 118317709.102 5  92195606.177 9
  88354120.632 9  22515126.20347
  22231312.273 6  22231320.258 9                 116826310.465 6  91033484.086 9
                  22231319.96548
  20224261.734 6  20224271.758 9  20224269.961 9 106279229.444 6  82814970.285 9
  79364345.454 9  20224271.01649
  22201947.336 6  22201957.344 9  22201958.578 9 116671983.703 6  90913225.265 9
  87125170.954 9  22201957.64848
  23657900.117 3                                 124323189.135 3  96875243.45146
                  23657911.62946
  25261327.078 1  25261348.527 8  25261349.406 8 132749198.388 1 103440905.203 8
  99130870.105 8  25261348.69946
  22310765.953 5  22310777.324 9  22310777.090 9 117243853.941 5  91358851.134 9
  87552234.465 9  22310777.32048
  24982850.828 3  24982864.238 7  24982865.727 8 131285765.779 3 102300599.938 7
  98038075.423 8  24982863.60246
 25 04 21 00 04 35.0000000  0 10G01G02G04G07G08G09G16G26G27G30      
  22729969.977 5  22729979.586 9  22729984.777 9 119446784.937 5  93075419.116 9
  89197277.010 9  22729979.61746
  20957309.961 6                                 110131351.807 6  85816654.20848
                  20957315.70348
  22517772.602 5  22517782.430 9  22517786.512 9 118331672.344 5  92206486.595 9
  88364547.703 9  22517783.19146
  22228615.867 6  22228624.168 9                 116812141.658 6  91022443.453 9
                  22228623.81348
  20225537.867 7  20225548.152 9  20225546.379 9 106285936.822 7  82820196.803 9
  79369354.202 9  20225547.50049
  22203441.164 6  22203451.762 9  22203452.297 9 116679833.156 6  90919341.711 9
  87131032.560 9  22203451.19548
  23659622.492 3                                 124332240.964 3  96882296.79146
                  23659634.43046
  25263180.258 1  25263200.559 8  25263201.758 8 132758932.328 1 103448490.056 8
  99138138.926 8  25263201.08246
  22313665.313 5  22313676.766 8  22313676.238 9 117259090.276 5  91370723.577 8
  87563612.245 9  22313676.63748
  24979610.055 4  24979622.297 8  24979622.699 8 131268727.002 4 102287323.043 8
  98025351.665 8  24979621.10246
 25 04 21 00 04 40.0000000  0 10G01G02G04G07G08G09G16G26G27G30      
  22727004.922 5  22727014.977 9  22727020.195 9 119431206.230 5  93063279.879 9
  89185643.577 9  22727015.09846
  20955855.859 6                                 110123710.218 6  85810699.72448
                  20955861.71548
  22520430.023 5  22520440.141 9  22520444.758 9 118345639.534 5  92217370.115 9
  88374977.727 9  22520440.72347
  22225920.445 6  22225928.484 9                 116797978.342 6  91011407.114 9
                  22225928.53148
  20226816.336 6  20226826.023 9  20226824.559 9 106292654.151 6  82825431.089 9
  79374370.396 9  20226825.80549
  22204936.875 6  22204947.227 9  22204947.973 9 116687692.668 6  90925466.021 9
  87136901.669 9  22204946.73448
  23661345.180 3                                 124341293.052 3  96889350.34145
                  23661357.06645
  25265033.148 1  25265053.914 8  25265054.113 8 132768667.612 1 103456075.973 8
  99145408.758 8  25265053.62546
  22316564.883 5  22316576.648 8  22316576.359 9 117274329.692 5  91382598.462 8
  87574992.313 9  22316576.57848
  24976365.508 4  24976379.332 7  24976380.766 8 131251688.024 4 102274045.935 7
  98012627.797 8  24976378.71147
 25 04 21 00 04 45.0000000  0 10G01G02G04G07G08G09G16G26G27G30      
  22724041.633 5  22724050.898 8  22724056.129 9 119415630.850 5  93051143.213 8
  89174012.594 9  22724051.37947
  20954404.617 6                                 110116082.826 6  85804756.30948
                  20954410.23048
  22523089.086 5  22523098.754 9  22523103.305 9 118359610.739 5  92228256.760 9
  88385410.747 9  22523099.48846
  22223226.531 6  22223234.363 9                 116783820.536 6  91000375.064 9
                  22223234.15248
  20228096.078 6  20228106.414 9  20228104.750 9 106299381.495 6  82830673.181 9
  79379394.050 9  20228105.97749
  22206433.969 6  22206444.316 8  22206445.602 9 116695562.215 6  90931598.136 8
  87142778.277 9  22206444.44948
  23663067.609 3                                 124350345.394 3  96896404.08745
                  23663079.71145
  25266884.961 1  25266905.703 8  25266907.215 8 132778404.311 1 103463662.966 8
  99152679.611 8  25266906.87946
  22319465.531 5  22319477.234 9  22319476.992 9 117289572.256 5  91394475.757 9
  87586374.718 9  22319477.22348
  24973123.203 3  24973136.699 7  24973138.043 8 131234648.996 3 102260768.809 7
  97999903.834 8  24973136.11747
 25 04 21 00 04 50.0000000  0 10G01G02G04G07G08G09G16G26G27G30      
  22721077.945 5  22721088.094 9  22721092.605 9 119400058.603 5  93039009.016 9
  89162383.987 9  22721087.99246
  20952955.805 6                                 110108469.482 6  85798823.84348
                  20952961.59848
  22525748.148 5  22525758.570 8  22525762.680 9 118373585.752 5  92239146.378 8
  88395846.631 9  22525758.81646
  22220533.172 6  22220541.305 9                 116769668.101 6  90989347.203 9
                  22220541.16048
  20229378.523 6  20229388.621 9  20229386.719 9 106306118.672 6  82835922.913 9
  79384425.052 9  20229388.06349
  22207933.766 6  22207944.207 9  22207944.953 9 116703441.703 6  90937737.982 9
  87148662.293 9  22207943.86748
  23664789.945 3                                 124359397.816 3  96903457.89546
                  23664802.23446
  25268738.664 1  25268759.652 8  25268760.324 8 132788142.212 1 103471250.910 8
  99159951.404 8  25268759.80546
  22322366.859 5  22322378.898 9  22322378.148 9 117304817.747 5  91406355.343 9
  87597759.316 9  22322378.53148
  24969882.016 4  24969893.602 8  24969895.711 8 131217609.640 4 102247491.364 8
  97987179.673 8  24969893.73447
 25 04 21 00 04 55.0000000  0 10G01G02G04G07G08G09G16G26G27G30      
  22718115.281 5  22718125.555 8  22718129.902 9 119384489.664 5  93026877.393 8
  89150757.847 9  22718125.39146
  20951509.422 6                                 110100870.238 6  85792902.36348
                  20951515.52048
  22528408.289 5  22528418.656 8  22528422.926 9 118387564.732 5  92250039.050 8
  88406285.452 9  22528419.04746
  22217840.961 6  22217849.262 9                 116755521.211 6  90978323.661 9
                  22217849.01648
  20230662.609 6  20230672.641 9  20230670.738 9 106312865.784 6  82841180.405 9
  79389463.480 9  20230671.92649
  22209435.398 6  22209445.688 9  22209446.438 9 116711331.191 6  90943885.637 9
  87154553.788 9  22209445.41848
  23666513.289 3                                 124368450.495 3  96910511.87946
                  23666524.71546
  25270592.859 1  25270612.453 8  25270613.813 8 132797881.508 1 103478839.918 8
  99167224.190 8  25270613.02746
  22325268.273 5  22325279.949 9  22325279.883 9 117320066.296 5  91418237.310 9
  87609146.212 9  22325280.04348
  24966637.664 3  24966652.250 7  24966652.953 8 131200570.243 3 102234213.910 7
  97974455.438 8  24966651.37946
 25 04 21 00 05 00.0000000  0 10G01G02G04G07G08G09G16G26G27G30      
  22715153.102 5  22715163.133 9  22715167.645 9 119368923.998 5  93014748.287 9
  89139134.135 9  22715163.11346
  20950066.242 6                                 110093285.116 6  85786991.88748
                  20950071.98848
  22531069.805 5  22531079.078 9  22531083.691 9 118401547.574 5  92260934.750 9
  88416727.150 9  22531079.67246
  22215150.117 6  22215158.012 9                 116741379.784 6  90967304.347 9
                  22215158.06348
  20231948.063 6  20231958.258 9  20231956.441 9 106319622.740 6  82846445.563 9
  79394509.263 9  20231957.78549
  22210937.938 6  22210948.969 9  22210949.543 9 116719230.597 6  90950040.997 9
  87160452.684 9  22210948.52348
  23668235.070 3                                 124377503.251 3  96917565.94246
                  23668247.68846
  25272445.891 1  25272465.855 8  25272467.371 8 132807622.107 1 103486429.968 8
  99174497.947 8  25272466.32046
  22328170.578 5  22328182.691 8  22328182.160 9 117335317.837 5  91430121.602 8
  87620535.331 9  22328182.59448
  24963396.758 4  24963409.859 8  24963410.941 8 131183530.604 4 102220936.253 8
  97961731.040 8  24963408.53547
 25 04 21 00 05 05.0000000  0 10G01G02G04G07G08G09G16G26G27G30      
  22712191.906 5  22712201.930 8  22712206.027 9 119353361.650 5  93002621.766 8
  89127512.884 9  22712202.04746
  20948625.305 6                                 110085714.151 6  85781092.44348
                  20948631.34448
  22533730.672 5  22533741.066 8  22533745.383 9 118415534.270 5  92271833.464 8
  88427171.746 9  22533741.43846
  22212460.258 6  22212468.426 9                 116727243.881 6  90956289.373 9
                  22212467.91848
  20233236.063 6  20233246.031 9  20233244.273 9 106326389.635 6  82851718.457 9
  79399562.448 9  20233245.48449
  22212442.852 6  22212453.660 9  22212454.809 9 116727139.983 6  90956204.141 9
  87166359.031 9  22212453.67648
  23669958.258 3                                 124386556.228 3  96924620.19046
                  23669970.03546
  25274299.938 1  25274320.156 8  25274321.465 8 132817363.985 1 103494021.063 8
  99181772.746 8  25274320.17646
  22331074.250 5  22331085.574 9  22331085.078 9 117350572.365 5  91442008.247 9
  87631926.674 9  22331085.29348
  24960153.164 4  24960166.887 8  24960167.949 8 131166490.798 4 102207658.564 8
  97949006.529 8  24960166.15646
 25 04 21 00 05 10.0000000  0 10G01G02G04G07G08G09G16G26G27G30      
  22709230.891 5  22709241.098 9  22709245.359 9 119337802.489 5  92990497.785 9
  89115894.041 9  22709241.06347
  20947187.367 6                                 110078157.238 6  85775203.94148
                  20947193.37548
  22536393.641 5  22536403.582 8  22536407.555 9 118429524.745 5  92282735.130 8
  88437619.165 9  22536403.73046
  22209771.297 6  22209779.480 9                 116713113.416 6  90945278.643 9
                  22209778.93448
  20234525.398 7  20234535.355 9  20234533.930 9 106333166.290 7  82856998.958 9
  79404622.930 9  20234535.03149
  22213950.336 6  22213960.805 9  22213961.598 9 116735059.201 6  90962374.962 9
  87172272.724 9  22213960.77048
  23671681.344 3                                 124395609.271 3  96931674.45845
                  23671692.80145
  25276153.203 1  25276174.027 8  25276175.301 8 132827107.201 1 103501613.106 8
  99189048.450 8  25276174.41046
  22333977.047 5  22333989.070 9  22333988.473 9 117365829.804 5  91453897.136 9
  87643320.189 9  22333988.78148
  24956910.148 2  24956924.992 8  24956925.902 8 131149450.741 2 102194380.500 8
  97936281.835 8  24956923.39546
 25 04 21 00 05 15.0000000  0 10G01G02G04G07G08G09G16G26G27G30      
  22706270.734 5  22706280.969 9  22706285.105 9 119322246.771 5  92978376.447 9
  89104277.782 9  22706280.98046
  20945752.266 6                                 110070614.599 6  85769326.57048
                  20945757.85948
  22539056.109 5  22539066.648 9  22539070.418 9 118443519.197 5  92293639.864 9
  88448069.545 9  22539066.96146
  22207083.328 6  22207091.211 9                 116698988.606 6  90934272.300 9
                  22207091.12548
  20235816.711 6  20235826.961 9  20235825.391 9 106339952.916 6  82862287.231 9
  79409690.862 9  20235826.34449
  22215459.391 5  22215469.348 9  22215470.391 9 116742988.473 5  90968553.597 9
  87178193.922 9  22215469.62548
  23673404.125 2                                 124404662.619 2  96938728.97745
                  23673415.70745
  25278007.211 1  25278028.523 8  25278029.473 8 132836851.806 1 103509206.301 8
  99196325.243 8  25278028.82846
  22336881.484 5  22336893.039 9  22336892.492 9 117381090.329 5  91465788.445 9
  87654716.027 9  22336892.95348
  24953669.422 3  24953682.461 8  24953682.625 8 131132410.694 3 102181102.627 8
  97923557.106 8  24953680.85246
 25 04 21 00 05 20.0000000  0 10G01G02G04G07G08G09G16G26G27G30      
  22703310.875 5  22703321.496 9  22703325.648 9 119306694.470 5  92966257.768 9
  89092664.043 9  22703321.32846
  20944319.609 6                                 110063086.216 6  85763460.29648
                  20944325.30948
  22541720.289 5  22541730.504 9  22541734.332 9 118457517.521 5  92304547.655 9
  88458522.827 9  22541730.77346
  22204396.523 6  22204404.789 9                 116684869.392 6  90923270.308 9
                  22204404.27348
  20237110.063 6  20237120.691 9  20237118.773 9 106346749.453 6  82867583.229 9
  79414766.188 9  20237119.63349
  22216969.578 6  22216980.023 9  22216981.012 9 116750927.697 6  90974739.999 9
  87184122.560 9  22216980.33648
  23675125.430 3                                 124413716.187 3  96945783.69146
                  23675138.69146
  25279862.414 1  25279883.066 8  25279884.133 8 132846597.819 1 103516800.566 8
  99203603.065 8  25279883.46946
  22339786.250 5  22339797.750 9  22339797.207 9 117396353.885 5  91477682.108 9
  87666114.110 9  22339797.54348
  24950425.883 3  24950438.020 7  24950440.473 8 131115370.562 3 102167824.575 7
  97910832.365 8  24950438.63347
 25 04 21 00 05 25.0000000  0 10G01G02G04G07G08G09G16G26G27G30      
  22700352.914 5  22700362.742 9  22700366.664 9 119291145.385 5  92954141.609 9
  89081052.720 9  22700362.41446
  20942889.391 6                                 110055571.888 6  85757604.97548
                  20942895.43848
  22544384.750 5  22544394.668 8  22544398.688 9 118471519.547 5  92315458.295 8
  88468978.862 9  22544395.29746
  22201710.758 6  22201718.801 9                 116670755.578 6  90912272.552 9
                  22201718.53948
  20238405.117 7  20238415.484 9  20238414.023 9 106353555.723 7  82872886.809 9
  79419848.784 9  20238414.74249
  22218482.102 6  22218492.922 9  22218493.805 9 116758876.718 6  90980934.046 9
  87190058.520 9  22218493.00448
  23676850.148 3                                 124422769.861 3  96952838.46345
                  23676861.41445
  25281718.102 1  25281738.277 8  25281738.844 8 132856345.038 1 103524395.793 8
  99210881.830 8  25281738.68046
  22342691.234 5  22342702.988 9  22342702.410 9 117411620.281 5  91489577.993 9
  87677514.316 9  22342702.64148
  24947182.469 3  24947196.000 8  24947197.629 8 131098330.262 3 102154546.437 8
  97898107.443 8  24947195.97347
 25 04 21 00 05 30.0000000  0 10G01G02G04G07G08G09G16G26G27G30      
  22697394.539 5  22697404.145 9  22697408.594 9 119275599.748 5  92942028.123 9
  89069443.973 9  22697404.58246
  20941462.227 6                                 110048071.836 6  85751760.78548
                  20941468.26248
  22547050.391 5  22547060.348 9  22547063.957 9 118485525.438 5  92326371.962 9
  88479437.785 9  22547060.60246
  22199026.727 6  22199033.664 9                 116656647.412 6  90901279.173 9
                  22199033.76648
  20239702.031 6  20239712.785 9  20239711.020 9 106360371.905 6  82878198.113 9
  79424938.779 9  20239711.85549
  22219997.250 6  22220007.613 9  22220008.172 9 116766835.692 6  90987135.810 9
  87196001.882 9  22220007.55148
  23678573.039 3                                 124431823.787 3  96959893.42846
                  23678584.67246
  25283573.273 1  25283593.672 8  25283594.105 8 132866093.727 1 103531992.112 8
  99218161.647 8  25283593.49646
  22345596.906 5  22345608.613 9  22345608.063 9 117426889.701 5  91501476.212 9
  87688916.786 9  22345608.41848
  24943940.422 3  24943953.305 7  24943954.836 8 131081289.852 3 102141268.185 7
  97885382.500 8  24943953.02747
 25 04 21 00 05 35.0000000  0 10G01G02G04G07G08G09G16G26G27G30      
  22694436.984 5  22694446.965 9  22694451.125 9 119260057.505 5  92929917.271 9
  89057837.749 9  22694446.74246
  20940037.578 6                                 110040585.970 6  85745927.65348
                  20940043.65248
  22549715.977 5  22549725.766 9  22549730.066 8 118499535.114 5  92337288.589 9
  88489899.546 8  22549726.24246
  22196342.430 6  22196350.570 9                 116642544.802 6  90890290.143 9
                  22196350.06648
  20241001.180 7  20241011.746 9  20241010.063 9 106367197.905 7  82883517.071 9
  79430036.107 9  20241010.72349
  22221513.672 6  22221524.082 9  22221524.613 9 116774804.545 6  90993345.314 9
  87201952.640 9  22221523.95348
  23680295.320 3                                 124440877.887 3  96966948.56945
                  23680307.69945
  25285427.883 1  25285448.965 8  25285449.125 8 132875843.798 1 103539589.501 8
  99225442.481 8  25285449.02746
  22348502.852 5  22348514.926 9  22348514.262 9 117442162.031 5  91513376.720 9
  87700321.433 9  22348514.62148
  24940697.523 3  24940711.961 7  24940712.039 8 131064249.373 3 102127989.994 7
  97872657.487 8  24940710.16047
 25 04 21 00 05 40.0000000  0 10G01G02G04G07G08G09G16G26G27G30      
  22691479.391 5  22691489.570 9  22691494.176 9 119244518.548 5  92917809.033 9
  89046234.009 9  22691490.05146
  20938615.625 6                                 110033114.212 6  85740105.50748
                  20938621.92248
  22552381.820 5  22552392.984 9  22552396.770 9 118513548.498 5  92348208.094 9
  88500364.057 9  22552392.94546
  22193660.109 6  22193667.766 9                 116628447.762 6  90879305.443 9
                  22193667.62148
  20242302.016 6  20242312.289 9  20242310.832 9 106374033.655 6  82888843.618 9
  79435140.723 9  20242311.65249
  22223031.344 6  22223041.816 8  22223042.969 9 116782783.163 6  90999562.429 8
  87207910.709 9  22223042.25848
  23682018.828 3                                 124449932.129 3  96974003.77046
                  23682030.77346
  25287282.891 2  25287304.770 8  25287305.324 8 132885595.053 2 103547187.908 8
  99232724.285 8  25287305.06347
  22351410.508 5  22351421.293 8  22351421.008 9 117457437.212 5  91525279.444 8
  87711728.191 9  22351421.44148
  24937455.039 3  24937468.871 7  24937469.445 8 131047208.771 3 102114711.531 7
  97859932.365 8  24937467.50047
 25 04 21 00 05 45.0000000  0 10G01G02G04G07G08G09G16G26G27G30      
  22688523.555 5  22688533.316 9  22688538.082 9 119228982.973 5  92905703.409 9
  89034632.789 9  22688533.48446
  20937196.516 6                                 110025656.706 6  85734294.45848
                  20937202.75448
  22555049.227 5  22555059.875 9  22555064.063 9 118527565.578 5  92359130.492 9
  88510831.369 9  22555060.44146
  22190978.094 6  22190986.457 9                 116614356.294 6  90868325.083 9
                  22190986.06648
  20243604.766 6  20243614.805 9  20243613.539 9 106380879.171 6  82894177.787 9
  79440252.639 9  20243614.13749
  22224552.422 6  22224562.656 9  22224563.102 9 116790771.621 6  91005787.181 9
  87213876.096 9  22224562.46548
  23683741.594 4                                 124458986.553 4  96981059.14146
                  23683753.74646
  25289139.703 1  25289161.246 8  25289161.246 8 132895347.726 1 103554787.333 8
  99240007.079 8  25289161.37147
  22354316.836 5  22354328.910 9  22354328.297 9 117472715.264 5  91537184.395 9
  87723137.110 9  22354328.87948
  24934211.883 3  24934226.316 8  24934226.746 8 131030168.085 3 102101433.096 8
  97847207.166 8  24934224.98847
 25 04 21 00 05 50.0000000  0 10G01G02G04G07G08G09G16G26G27G30      
  22685567.922 5  22685577.504 9  22685582.219 9 119213450.874 5  92893600.461 9
  89023034.145 9  22685578.16046
  20935780.086 6                                 110018213.455 6  85728494.53248
                  20935786.23848
  22557717.672 5  22557728.375 9  22557732.102 9 118541586.491 5  92370055.836 9
  88521301.493 9  22557728.46546
  22188297.961 6  22188305.500 9                 116600270.469 6  90857349.118 9
                  22188305.69548
  20244909.383 7  20244919.465 9  20244918.137 9 106387734.500 7  82899519.612 9
  79445371.875 9  20244918.73049
  22226074.195 6  22226084.566 9  22226085.113 9 116798769.941 6  91012019.630 9
  87219848.867 9  22226084.66448
  23685464.477 3                                 124468041.206 3  96988114.67046
                  23685477.03946
  25290995.625 1  25291016.957 8  25291017.340 8 132905101.746 1 103562387.826 8
  99247290.894 8  25291017.21146
  22357225.016 5  22357236.996 9  22357236.156 9 117487996.256 5  91549091.628 9
  87734548.210 9  22357236.79748
  24930969.320 3  24930982.879 8  24930984.047 8 131013127.338 3 102088154.559 8
  97834481.930 8  24930982.16446
 25 04 21 00 05 55.0000000  0 10G01G02G04G07G08G09G16G26G27G30      
  22682612.344 5  22682622.660 9  22682627.336 9 119197922.200 5  92881500.205 9
  89011438.062 9  22682623.23046
  20934366.781 6                                 110010784.448 6  85722705.69548
                  20934372.51248
  22560387.133 4  22560396.746 9  22560400.977 9 118555611.091 4  92380984.077 9
  88531774.373 9  22560397.18446
  22185618.406 6  22185626.648 9                 116586190.298 6  90846377.576 9
                  22185626.06348
  20246215.750 6  20246225.820 9  20246224.473 9 106394599.612 6  82904869.034 9
  79450498.413 9  20246225.15249
  22227597.734 6  22227608.566 9  22227608.973 9 116806778.078 6  91018259.743 9
  87225828.963 9  22227608.52048
  23687188.227 4                                 124477096.066 4  96995170.38546
                  23687200.00846
  25292852.289 1  25292873.543 8  25292873.922 8 132914857.110 1 103569989.417 8
  99254575.721 8  25292873.49246
  22360132.844 5  22360145.441 9  22360144.613 9 117503280.131 5  91561001.130 9
  87745961.468 9  22360145.16848
  24927726.430 3  24927740.715 8  24927741.023 8 130996086.549 3 102074876.075 8
  97821756.684 8  24927739.48846
 25 04 21 00 06 00.0000000  0 10G01G02G04G07G08G09G16G26G27G30      
  22679657.867 5  22679668.375 9  22679673.055 9 119182396.993 5  92869402.646 9
  88999844.578 9  22679668.51247
  20932955.766 6                                 110003369.745 6  85716928.00848
                  20932961.65248
  22563056.336 4  22563066.684 9  22563070.426 9 118569639.397 4  92391915.206 9
  88542250.062 9  22563066.58246
  22182940.203 6  22182948.270 9                 116572115.796 6  90835410.431 9
                  22182947.93448
  20247523.969 6  20247534.180 9  20247532.711 9 106401474.528 6  82910226.114 9
  79455632.272 9  20247533.39149
  22229123.500 6  22229133.641 9  22229134.848 9 116814796.048 6  91024507.493 9
  87231816.402 9  22229134.23848
  23688911.383 3                                 124486151.156 3  97002226.25846
                  23688923.07046
  25294708.664 2  25294730.043 8  25294730.902 8 132924613.926 2 103577592.074 8
  99261861.601 8  25294729.88346
  22363042.836 5  22363054.035 9  22363053.465 9 117518566.903 5  91572912.887 9
  87757376.906 9  22363054.14548
  24924483.563 3  24924497.887 7  24924498.445 8 130979045.735 3 102061597.530 7
  97809031.403 8  24924496.93046
 25 04 21 00 06 05.0000000  0 10G01G02G04G07G08G09G16G26G27G30      
  22676704.422 5  22676714.488 9  22676719.324 9 119166875.141 5  92857307.705 9
  88988253.599 9  22676714.61346
  20931547.219 6                                 109995969.181 6  85711161.34048
                  20931553.24248
  22565726.047 4  22565736.910 9  22565740.738 9 118583671.349 4  92402849.158 9
  88552728.424 9  22565736.92646
  22180263.508 6  22180271.121 9                 116558046.843 6  90824447.629 9
                  22180270.62548
  20248834.063 6  20248843.945 9  20248842.859 9 106408359.075 6  82915590.681 9
  79460773.338 9  20248843.43049
  22230651.641 6  22230661.660 8  22230662.539 9 116822823.727 6  91030762.821 8
  87237811.089 9  22230661.77348
  23690633.969 4                                 124495206.359 4  97009282.23146
                  23690646.17246
  25296565.852 2  25296586.836 8  25296588.051 8 132934371.994 2 103585195.724 8
  99269148.417 8  25296586.96946
  22365951.742 5  22365964.074 9  22365963.094 9 117533856.460 5  91584826.795 9
  87768794.386 9  22365963.63748
  24921239.945 3  24921254.879 8  24921255.621 8 130962004.794 3 102048318.831 8
  97796306.016 8  24921254.19147
 25 04 21 00 06 10.0000000  0 10G01G02G04G07G08G09G16G26G27G30      
  22673751.547 5  22673761.621 9  22673766.340 9 119151356.880 5  92845215.568 9
  88976665.304 9  22673761.75046
  20930142.117 6                                 109988583.014 6  85705405.88748
                  20930147.73048
  22568397.305 5  22568407.820 9  22568411.445 9 118597707.052 5  92413786.052 9
  88563209.615 9  22568407.71146
  22177586.828 6  22177594.492 9                 116543983.634 6  90813489.286 9
                  22177594.41848
  20250146.094 6  20250156.121 9  20250154.816 9 106415253.481 6  82920962.948 9
  79465921.741 9  20250155.34849
  22232180.977 6  22232191.484 9  22232191.906 9 116830861.283 6  91037025.838 9
  87243813.146 9  22232191.24648
  23692357.539 4                                 124504261.884 4  97016338.42946
                  23692369.40246
  25298423.242 1  25298443.727 8  25298445.074 8 132944131.476 1 103592800.509 8
  99276436.325 8  25298443.77346
  22368862.070 5  22368873.727 9  22368872.977 9 117549148.950 5  91596742.989 9
  87780214.078 9  22368873.49648
  24917999.055 4  24918011.863 8  24918012.699 8 130944963.898 4 102035040.213 8
  97783580.689 8  24918011.30547
 25 04 21 00 06 15.0000000  0 10G01G02G04G07G08G09G16G26G27G30      
  22670799.109 5  22670809.066 9  22670814.063 9 119135842.178 5  92833126.191 9
  88965079.660 9  22670809.62146
  20928738.891 6                                 109981211.142 6  85699661.57348
                  20928744.78548
  22571069.227 5  22571079.086 8  22571083.133 9 118611746.503 5  92424725.845 8
  88573693.587 9  22571079.11746
  22174911.352 6  22174919.766 9                 116529926.161 6  90802535.422 9
                  22174919.49248
  20251459.992 7  20251469.996 9  20251468.652 9 106422157.654 7  82926342.829 9
  79471077.457 9  20251469.28949
  22233712.594 6  22233722.309 9  22233723.223 9 116838908.666 6  91043296.533 9
  87249822.546 9  22233722.51248
  23694080.625 4                                 124513317.658 4  97023394.87946
                  23694092.59846
  25300280.453 1  25300301.559 8  25300302.543 8 132953892.429 1 103600406.408 8
  99283725.298 8  25300301.10246
  22371772.891 5  22371784.516 9  22371783.688 9 117564444.343 5  91608661.459 9
  87791635.943 9  22371784.43048
  24914753.734 2  24914769.043 8  24914770.141 8 130927923.012 2 102021761.695 8
  97770855.391 8  24914768.50046
 25 04 21 00 06 20.0000000  0 10G01G02G04G07G08G09G16G26G27G30      
  22667848.078 5  22667857.504 9  22667862.301 9 119120330.808 5  92821039.430 9
  88953496.524 9  22667858.07847
  20927339.031 6                                 109973853.407 6  85693928.27248
                  20927344.62548
  22573741.883 5  22573751.895 8  22573755.348 9 118625789.439 5  92435668.368 8
  88584180.172 9  22573751.55946
  22172237.719 6  22172245.809 9                 116515874.242 6  90791585.862 9
                  22172245.37548
  20252775.539 6  20252785.609 9  20252784.371 9 106429071.410 6  82931730.175 9
  79476240.324 9  20252784.85549
  22235245.336 6  22235255.723 9  22235256.480 9 116846965.642 6  91049574.701 9
  87255839.113 9  22235255.61348
  23695803.914 4                                 124522373.505 4  97030451.34646
                  23695816.24246
  25302138.180 2  25302158.469 8  25302160.395 8 132963654.603 2 103608013.276 8
  99291015.187 8  25302159.10946
  22374683.445 5  22374695.926 9  22374694.742 9 117579742.403 5  91620582.014 9
  87803059.795 9  22374695.45348
  24911512.648 3  24911526.434 8  24911527.043 8 130910882.035 3 102008482.959 8
  97758129.969 8  24911525.63747
 25 04 21 00 06 25.0000000  0 10G01G02G04G07G08G09G16G26G27G30      
  22664896.523 5  22664906.328 9  22664911.215 9 119104822.995 5  92808955.429 9
  88941916.014 9  22664906.76247
  20925941.742 6                                 109966510.020 6  85688206.16248
                  20925947.24248
  22576414.422 5  22576424.648 8  22576428.512 9 118639836.038 5  92446613.782 8
  88594669.504 9  22576424.37946
  22169564.922 6  22169572.355 9                 116501828.049 6  90780640.784 9
                  22169572.52748
  20254092.898 6  20254103.113 9  20254101.773 9 106435994.932 6  82937125.114 9
  79481410.478 9  20254102.51649
  22236780.438 6  22236791.008 8  22236791.594 9 116855032.412 6  91055860.479 8
  87261862.992 9  22236790.56648
  23697528.133 4                                 124531429.603 4  97037508.01946
                  23697539.38346
  25303996.633 2  25304017.074 8  25304018.469 8 132973418.176 2 103615621.207 8
  99298306.122 8  25304017.07846
  22377595.609 5  22377607.477 8  22377606.344 9 117595043.313 5  91632504.794 8
  87814485.774 9  22377607.21148
  24908269.852 3  24908284.121 8  24908284.598 8 130893841.093 3 101995204.312 8
  97745404.571 8  24908282.94946
 25 04 21 00 06 30.0000000  0 10G01G02G04G07G08G09G16G26G27G30      
  22661946.211 5  22661956.336 9  22661960.961 9 119089318.678 5  92796874.155 9
  88930338.127 9  22661956.42246
  20924546.688 6                                 109959180.909 6  85682495.16848
                  20924552.60248
  22579087.734 5  22579098.566 8  22579102.133 9 118653886.240 5  92457561.953 8
  88605161.504 9  22579097.83246
  22166892.820 6  22166900.633 9                 116487787.551 6  90769700.151 9
                  22166900.73048
  20255412.273 7  20255422.328 9  20255421.125 9 106442928.111 7  82942527.586 9
  79486587.839 9  20255421.71549
  22238318.031 6  22238328.059 8  22238328.512 9 116863108.884 6  91062153.823 8
  87267894.118 9  22238327.55948
  23699250.820 4                                 124540485.896 4  97044564.83346
                  23699262.86746
  25305855.086 2  25305875.047 8  25305876.086 8 132983183.050 2 103623230.189 8
  99305598.048 8  25305875.34846
  22380507.711 5  22380519.727 9  22380518.645 9 117610346.995 5  91644429.716 9
  87825913.841 9  22380519.40648
  24905025.391 2  24905040.391 8  24905041.234 8 130876800.088 2 101981925.618 8
  97732679.157 8  24905040.10546
 25 04 21 00 06 35.0000000  0 10G01G02G04G07G08G09G16G26G27G30      
  22658996.773 5  22659006.645 9  22659011.242 9 119073817.954 5  92784795.682 9
  88918762.925 9  22659006.66447
  20923154.672 6                                 109951866.169 6  85676795.37648
                  20923160.59448
  22581762.672 4  22581772.891 8  22581776.516 9 118667940.085 4  92468513.002 8
  88615656.250 9  22581772.30946
  22164222.531 6  22164230.129 9                 116473752.819 6  90758763.993 9
                  22164230.05948
  20256733.711 6  20256743.832 9  20256742.266 9 106449871.005 6  82947937.647 9
  79491772.483 9  20256742.85549
  22239855.813 6  22239866.410 9  22239867.457 9 116871195.137 6  91068454.799 9
  87273932.535 9  22239866.31348
  23700974.672 4                                 124549542.449 4  97051621.83546
                  23700986.43046
  25307713.633 1  25307734.566 8  25307734.414 8 132992949.380 1 103630840.268 8
  99312891.026 8  25307734.19946
  22383420.609 5  22383432.219 9  22383431.395 9 117625653.551 5  91656356.880 9
  87837344.031 9  22383432.12548
  24901784.320 3  24901798.746 8  24901798.484 8 130859759.167 3 101968646.954 8
  97719953.801 8  24901797.34447
 25 04 21 00 06 40.0000000  0 10G01G02G04G07G08G09G16G26G27G30      
  22656047.594 5  22656057.699 9  22656062.043 9 119058320.777 5  92772719.963 9
  88907190.365 9  22656057.88346
  20921765.477 6                                 109944565.709 6  85671106.71148
                  20921771.34448
  22584437.719 5  22584447.531 9  22584451.621 9 118681997.541 5  92479466.835 9
  88626153.672 9  22584447.74646
  22161552.680 6  22161560.664 9                 116459723.820 6  90747832.318 9
                  22161560.35948
  20258056.781 6  20258066.539 9  20258065.305 9 106456823.588 6  82953355.242 9
  79496964.341 9  20258065.98449
  22241397.188 5  22241407.242 9  22241408.215 9 116879291.053 5  91074763.301 9
  87279978.186 9  22241407.02348
  23702697.703 4                                 124558599.214 4  97058679.02946
                  23702709.63746
  25309571.984 1  25309592.793 8  25309593.535 8 133002717.080 1 103638451.418 8
  99320185.070 8  25309593.17646
  22386333.930 5  22386345.609 9  22386344.664 9 117640962.869 5  91668286.174 9
  87848776.268 9  22386345.46948
  24898541.258 3  24898554.758 8  24898555.992 8 130842718.251 3 101955368.339 8
  97707228.441 8  24898554.47747
 25 04 21 00 06 45.0000000  0 10G01G02G04G07G08G09G16G26G27G30      
  22653099.203 5  22653108.820 9  22653113.598 9 119042827.173 5  92760647.047 9
  88895620.473 9  22653109.37147
  20920379.273 6                                 109937279.600 6  85665429.23148
                  20920384.76648
  22587113.023 5  22587123.551 8  22587127.426 9 118696058.555 5  92490423.465 8
  88636653.776 9  22587123.16046
  22158884.117 6  22158891.801 9                 116445700.581 6  90736905.125 9
                  22158891.92248
  20259381.617 6  20259391.453 9  20259390.145 9 106463785.837 6  82958780.365 9
  79502163.424 9  20259390.92649
  22242938.898 6  22242950.078 9  22242950.805 9 116887396.683 6  91081079.368 9
  87286031.079 9  22242949.65248
  23704421.867 4                                 124567656.194 4  97065736.37746
                  23704432.91846
  25311431.695 1  25311451.953 8  25311452.465 8 133012486.171 1 103646063.706 8
  99327480.145 8  25311452.19946
  22389248.055 5  22389259.465 9  22389258.488 9 117656274.937 5  91680217.635 9
  87860210.586 9  22389259.22348
  24895298.203 3  24895312.164 7  24895313.059 8 130825677.424 3 101942089.747 7
  97694503.117 8  24895311.90247
 25 04 21 00 06 50.0000000  0 10G01G02G04G07G08G09G16G26G27G30      
  22650151.484 5  22650161.188 9  22650165.805 9 119027337.165 5  92748576.928 9
  88884053.276 9  22650161.74247
  20918995.531 6                                 109930007.909 6  85659762.97548
                  20919001.14548
  22589789.609 5  22589799.402 8  22589803.785 9 118710123.168 5  92501382.865 8
  88647156.533 9  22589799.36746
  22156216.711 6  22156224.508 9                 116431683.104 6  90725982.418 9
                  22156224.46548
  20260708.219 6  20260718.070 9  20260716.855 9 106470757.771 6  82964213.037 9
  79507369.726 9  20260717.57849
  22244483.727 6  22244494.469 9  22244495.000 9 116895512.017 6  91087402.996 9
  87292091.210 9  22244493.94148
  23706145.227 4                                 124576713.468 4  97072793.94646
                  23706156.44146
  25313290.539 1  25313310.641 8  25313311.309 8 133022256.683 1 103653677.091 8
  99334776.250 8  25313311.26246
  22392162.070 5  22392174.035 9  22392172.832 9 117671589.776 5  91692151.278 9
  87871646.985 9  22392173.47748
  24892055.461 3  24892070.148 7  24892070.109 8 130808636.549 3 101928811.171 7
  97681777.844 8  24892069.26647
 25 04 21 00 06 55.0000000  0 10G01G02G04G07G08G09G16G26G27G30      
  22647204.484 5  22647214.313 9  22647218.625 9 119011850.700 5  92736509.547 9
  88872488.724 9  22647214.59847
  20917614.547 6                                 109922750.439 6  85654107.81248
                  20917620.16048
  22592466.844 5  22592476.711 8  22592480.773 9 118724191.231 5  92512344.987 8
  88657661.879 9  22592476.44946
  22153550.516 6  22153558.227 9                 116417671.345 6  90715064.169 9
                  22153558.09848
  20262036.664 7  20262046.648 9  20262045.309 9 106477739.270 7  82969653.168 9
  79512583.188 9  20262046.17249
  22246030.125 6  22246040.371 9  22246041.047 9 116903636.930 6  91093734.094 9
  87298158.512 9  22246040.26648
  23707868.242 4                                 124585771.005 4  97079851.74446
                  23707880.22346
  25315150.039 1  25315170.574 8  25315170.691 8 133032028.507 1 103661291.426 8
  99342073.366 8  25315170.92646
  22395076.984 5  22395088.055 9  22395087.664 9 117686907.342 5  91704086.997 9
  87883085.383 9  22395088.23448
  24888812.727 3  24888827.723 8  24888827.438 8 130791595.761 3 101915532.632 8
  97669052.569 8  24888826.29747
 25 04 21 00 07 00.0000000  0 10G01G02G04G07G08G09G16G26G27G30      
  22644257.828 5  22644267.930 9  22644272.398 9 118996367.901 5  92724445.048 9
  88860926.902 9  22644268.53947
  20916235.922 6                                 109915507.386 6  85648463.88248
                  20916241.71548
  22595144.227 5  22595154.555 8  22595158.363 9 118738262.869 5  92523309.871 8
  88668169.910 9  22595154.31346
  22150884.609 6  22150893.164 9                 116403665.383 6  90704150.429 9
                  22150892.89548
  20263366.805 6  20263376.621 9  20263375.836 9 106484730.404 6  82975100.800 9
  79517803.832 9  20263376.46549
  22247577.859 6  22247588.367 9  22247588.926 9 116911771.541 6  91100072.742 9
  87304233.062 9  22247588.25448
  23709591.711 4                                 124594828.728 4  97086909.67446
                  23709603.83246
  25317009.266 1  25317030.527 8  25317030.434 8                 103668906.905 8
  99349371.543 8  25317030.51646
  22397992.281 5  22398004.141 9  22398003.117 9 117702227.637 5  91716024.882 9
  87894525.841 9  22398003.61348
  24885569.688 3  24885583.918 8  24885584.594 8 130774555.050 3 101902254.176 8
  97656327.372 8  24885583.50847
 25 04 21 00 07 05.0000000  0 10G01G02G04G07G08G09G16G26G27G30      
  22641312.367 5  22641322.625 9  22641326.703 9 118980888.731 5  92712383.366 9
  88849367.800 9  22641322.88746
  20914860.195 6                                 109908278.698 6  85642831.13948
                  20914866.26648
  22597822.789 5  22597833.215 8  22597836.777 9 118752338.046 5  92534277.538 8
  88678680.565 9  22597832.71946
  22148220.891 6  22148228.965 9                 116389665.236 6  90693241.228 9
                  22148228.86748
  20264699.211 6  20264709.398 9  20264707.984 9 106491731.186 6  82980555.951 9
  79523031.687 9  20264708.68049
  22249127.695 6  22249137.816 9  22249138.754 9 116919915.801 6  91106418.908 9
  87310314.805 9  22249137.96148
  23711315.688 4                                 124603886.740 4  97093967.83046
                  23711327.62946
  25318869.766 1  25318889.543 8  25318890.785 8 133051576.446 1 103676523.489 8
  99356670.759 8  25318890.23046
  22400908.359 5  22400920.078 8  22400918.879 9 117717550.686 5  91727964.901 8
  87905968.354 9  22400919.49648
  24882327.734 3  24882341.117 8  24882341.871 8 130757514.408 3 101888975.764 8
  97643602.240 8  24882340.99647
 25 04 21 00 07 10.0000000  0 10G01G02G04G07G08G09G16G26G27G30      
  22638367.852 5  22638377.395 9  22638381.957 9 118965413.145 5  92700324.503 9
  88837811.367 9  22638377.64146
  20913487.461 6                                 109901064.315 6  85637209.54648
                  20913493.25048
  22600502.000 5  22600512.063 8  22600515.828 9 118766416.655 5  92545247.879 8
  88689193.802 9  22600511.92246
  22145557.516 6  22145565.859 9                 116375670.860 6  90682336.540 9
                  22145565.80948
  20266033.383 6  20266043.055 9  20266042.094 9 106498741.540 6  82986018.559 9
  79528266.689 9  20266042.74249
  22250679.188 6  22250689.652 9  22250690.207 9 116928069.629 6  91112772.534 9
  87316403.694 9  22250689.77048
  23713039.742 4                                 124612944.931 4  97101026.11446
                  23713051.01246
  25320729.055 1  25320750.203 7  25320751.023 8 133061352.446 1 103684141.128 7
  99363970.979 8  25320750.42646
  22403824.844 5  22403836.012 9  22403835.277 9 117732876.380 5  91739906.994 9
  87917412.842 9  22403836.02748
  24879084.586 3  24879098.242 8  24879099.086 8 130740473.791 3 101875697.378 8
  97630877.119 8  24879098.32847
 25 04 21 00 07 15.0000000  0 10G01G02G04G07G08G09G16G26G27G30      
  22635423.094 5  22635433.859 9  22635437.387 9 118949941.324 5  92688268.548 9
  88826257.756 9  22635433.65646
  20912117.445 6                                 109893864.431 6  85631599.24948
                  20912123.27348
  22603182.055 4  22603190.875 8  22603195.535 9 118780498.900 4  92556221.019 8
  88699709.720 9  22603191.56646
  22142895.969 6  22142903.891 9                 116361682.414 6  90671436.470 9
                  22142903.76248
  20267369.211 6  20267379.113 9  20267377.934 9 106505761.591 6  82991488.729 9
  79533508.927 9  20267378.61349
  22252232.727 6  22252243.375 9  22252243.668 9 116936233.204 6  91119133.753 9
  87322499.857 9  22252243.14548
  23714763.695 4                                 124622003.446 4  97108084.67146
                  23714774.94546
  25322589.414 1  25322610.348 7  25322611.441 8 133071129.97011 103691759.910 7
  99371272.313 8  25322610.90246
  22406741.734 5  22406752.977 9  22406752.402 9 117748204.914 5  91751851.251 9
  87928859.446 9  22406752.95348
  24875842.414 4  24875856.363 8  24875856.363 8 130723433.462 4 101862419.144 8
  97618152.166 8  24875855.83247
 25 04 21 00 07 20.0000000  0 10G01G02G04G07G08G09G16G26G27G30      
  22632480.398 5  22632490.129 9  22632493.832 9 118934473.176 5  92676215.441 9
  88814706.871 9  22632490.00447
  20910750.172 6                                 109886678.900 6  85626000.14048
                  20910755.87148
  22605862.156 5  22605871.891 8  22605875.871 9 118794584.572 5  92567196.851 8
  88710228.217 9  22605872.04346
  22140234.789 6  22140242.949 9                 116347699.812 6  90660540.911 9
                  22140242.99648
  20268706.469 6  20268717.016 9  20268715.652 9 106512791.209 6  82996966.360 9
  79538758.327 9  20268716.22749
  22253787.883 6  22253798.652 9  22253798.879 9 116944406.362 6  91125502.418 9
  87328603.166 9  22253798.34048
  23716487.914 4                                 124631062.178 4  97115143.39546
                  23716498.98046
  25324452.055 1  25324471.449 7  25324472.977 8 133080908.847 1 103699379.801 7
  99378574.711 8  25324471.34446
  22409659.055 5  22409670.191 8  22409669.809 9 117763536.108 5  91763797.628 8
  87940308.036 9  22409670.38748
  24872600.023 4  24872613.258 7  24872613.660 8 130706393.122 4 101849141.003 7
  97605427.263 8  24872613.24647
 25 04 21 00 07 25.0000000  0 10G01G02G04G07G08G09G16G26G27G30      
  22629537.539 5  22629547.043 9  22629550.977 9 118919008.650 5  92664165.195 9
  88803158.720 9  22629547.12146
  20909385.695 6                                 109879507.782 6  85620412.26048
                  20909391.35248
  22608543.570 5  22608553.488 8  22608556.977 9 118808673.671 5  92578175.351 8
  88720749.285 9  22608553.12946
  22137575.531 6  22137583.246 9                 116333723.020 6  90649649.923 9
                  22137583.35948
  20270046.188 7  20270056.398 9  20270055.078 9 106519830.399 7  83002451.430 9
  79544014.840 9  20270055.81649
  22255345.211 6  22255355.680 9  22255355.883 9 116952589.068 6  91131878.560 9
  87334713.630 9  22255355.47748
  23718211.727 4                                 124640121.113 4  97122202.28946
                  23718222.81646
  25326312.625 2  25326332.902 7  25326334.551 8 133090689.13312 103707000.754 7
  99385878.112 8  25326332.28946
  22412576.586 5  22412588.289 9  22412587.715 9 117778869.947 5  91775746.045 9
  87951758.604 9  22412588.42248
  24869356.758 2  24869371.109 8  24869371.215 8 130689352.883 2 101835862.911 8
  97592702.421 8  24869370.60947
 25 04 21 00 07 30.0000000  0 10G01G02G04G07G08G09G16G26G27G30      
  22626594.461 5  22626605.227 9  22626608.648 9 118903547.742 5  92652117.770 9
  88791613.271 9  22626604.99247
  20908023.953 6                                 109872350.991 6  85614835.54948
                  20908029.65248
  22611225.086 4  22611234.902 8  22611238.773 9 118822766.147 4  92589156.485 8
  88731272.881 9  22611234.64546
  22134916.914 6  22134924.664 9                 116319752.000 6  90638763.431 9
                  22134924.77748
  20271387.367 6  20271397.816 9  20271396.465 9 106526879.063 6  83007943.897 9
  79549278.457 9  20271397.18449
  22256904.266 6  22256914.375 9  22256915.027 9 116960781.263 6  91138262.086 9
  87340831.180 9  22256914.31348
  23719934.852 4                                 124649180.238 4  97129261.31846
                  23719946.68046
  25328173.414 1  25328193.488 7  25328195.465 8 133100470.749 1 103714622.792 7
  99393182.524 8  25328193.59046
  22415495.789 5  22415507.117 8  22415506.070 9 117794206.398 5  91787696.498 8
  87963211.119 9  22415506.87948
  24866114.398 4  24866128.363 7  24866128.586 8 130672312.727 4 101822584.854 7
  97579977.632 8  24866127.81347
 25 04 21 00 07 35.0000000  0 10G01G02G04G07G08G09G16G26G27G30      
  22623653.805 5  22623663.613 9  22623667.129 9 118888090.685 5  92640073.294 9
  88780070.648 9  22623663.37547
  20906664.523 6                                 109865208.685 6  85609270.11648
                  20906670.39148
  22613906.984 4  22613917.645 8  22613921.043 9 118836862.166 4  92600140.351 8
  88741799.095 9  22613917.30146
  22132259.563 6  22132267.238 9                 116305786.944 6  90627881.575 9
                  22132267.23448
  20272730.781 6  20272741.023 9  20272739.574 9 106533937.357 6  83013443.868 9
  79554549.262 9  20272740.37149
  22258464.586 6  22258474.891 9  22258475.793 9 116968983.148 6  91144653.127 9
  87346955.945 9  22258475.11348
  23721659.133 4                                 124658239.677 4  97136320.58746
                  23721670.74646
  25330035.977 2  25330055.672 8  25330057.168 8 133110253.830 2 103722245.934 8
  99400488.041 8  25330055.21546
  22418414.250 5  22418426.039 9  22418425.031 9 117809545.593 5  91799649.112 9
  87974665.698 9  22418425.80548
  24862872.164 4  24862885.844 8  24862885.773 8 130655272.761 4 101809307.006 8
  97567252.988 8  24862885.21147
 25 04 21 00 07 40.0000000  0 10G01G02G04G07G08G09G16G26G27G30      
  22620713.320 5  22620722.813 9  22620726.336 9 118872637.303 5  92628031.721 9
  88768530.803 9  22620722.87547
  20905308.109 6                                 109858080.824 6  85603715.94248
                  20905314.00848
  22616590.414 4  22616600.156 8  22616603.918 9 118850961.575 4  92611126.895 8
  88752327.829 9  22616600.07046
  22129603.328 6  22129611.250 9                 116291827.755 6  90617004.285 9
                  22129611.06648
  20274075.742 6  20274086.055 9  20274084.609 9 106541005.191 6  83018951.273 9
  79559827.176 9  20274085.18049
  22260027.586 6  22260037.637 9  22260038.559 9 116977194.545 6  91151051.629 9
  87353087.825 9  22260037.67648
  23723383.617 4                                 124667299.323 4  97143380.01646
                  23723394.84846
  25331898.602 2  25331918.316 8  25331919.875 8 133120038.297 2 103729870.190 8
  99407794.599 8  25331917.31346
  22421333.969 5  22421345.180 9  22421344.477 9 117824887.403 5  91811603.761 9
  87986122.221 9  22421345.30948
  24859628.703 3  24859642.602 7  24859643.414 8 130638232.909 3 101796029.177 7
  97554528.461 8  24859642.48847
 25 04 21 00 07 45.0000000  0 10G01G02G04G07G08G09G16G26G27G30      
  22617772.961 5  22617783.344 9  22617786.273 9 118857187.624 5  92615993.040 9
  88756993.746 9  22617783.05146
  20903954.219 6                                 109850967.412 6  85598173.02848
                  20903960.41048
  22619274.242 4  22619284.109 8  22619287.895 9 118865064.386 4  92622116.077 8
  88762859.121 9  22619283.87546
  22126947.797 6  22126956.098 9                 116277874.464 6  90606131.563 9
                  22126955.87548
  20275422.570 6  20275432.957 9  20275431.461 9 106548082.566 6  83024466.094 9
  79565112.218 9  20275432.12549
  22261591.711 6  22261602.031 9  22261603.059 9 116985415.483 6  91157457.558 9
  87359226.829 9  22261601.96148
  23725107.234 4                                 124676359.206 4  97150439.63846
                  23725118.83646
  25333759.125 1  25333780.297 8  25333781.582 8 133129824.230 1 103737495.542 8
  99415102.197 8  25333780.04746
  22424253.820 5  22424264.957 9  22424264.555 9 117840231.888 5  91823560.461 9
  87997580.718 9  22424265.42248
  24856387.063 4  24856400.289 8  24856400.520 8 130621193.283 4 101782751.526 8
  97541804.040 8  24856400.09046
 25 04 21 00 07 50.0000000  0 10G01G02G04G07G08G09G16G26G27G30      
  22614833.852 5  22614843.512 9  22614846.840 9 118841741.803 5  92603957.336 9
  88745459.523 9  22614844.08647
  20902603.180 6                                 109843868.510 6  85592641.42448
                  20902609.55148
  22621958.242 5  22621968.445 8  22621972.309 9 118879170.628 5  92633107.923 8
  88773392.991 9  22621967.97346
  22124293.836 6  22124301.621 9                 116263927.120 6  90595263.529 9
                  22124301.71948
  20276770.828 6  20276781.434 9  20276779.813 9 106555169.495 6  83029988.373 9
  79570404.402 9  20276780.70349
  22263157.516 6  22263168.129 8  22263169.270 9 116993645.988 6  91163870.922 8
  87365372.974 9  22263168.12148
  23726831.531 4                                 124685419.415 4  97157499.51446
                  23726843.12546
  25335622.773 1  25335642.762 8  25335644.020 8 133139611.609 1 103745122.014 8
  99422410.915 8  25335642.71546
  22427173.891 5  22427185.871 9  22427185.043 9 117855578.994 5  91835519.237 9
  88009041.218 9  22427185.77048
  24853144.625 4  24853157.605 7  24853158.535 8 130604153.787 4 101769474.039 7
  97529079.785 8  24853157.38347
 25 04 21 00 07 55.0000000  0 10G01G02G04G07G08G09G16G26G27G30      
  22611895.031 5  22611905.188 9  22611908.418 9 118826299.764 5  92591924.588 9
  88733928.136 9  22611905.27047
  20901255.359 6                                 109836784.105 6  85587121.10948
                  20901261.44148
  22624642.891 5  22624653.676 8  22624657.484 9 118893280.270 5  92644102.441 8
  88783929.397 9  22624653.34846
  22121640.680 6  22121648.750 9                 116249985.734 6  90584400.118 9
                  22121648.58648
  20278121.422 6  20278131.480 9  20278130.324 9 106562265.983 6  83035518.095 9
  79575703.720 9  20278131.15649
  22264725.922 6  22264736.566 9  22264737.332 9 117001886.050 6  91170291.747 9
  87371526.260 9  22264736.29348
  23728555.695 5                                 124694479.920 5  97164559.63246
                  23728567.25046
  25337482.797 1  25337505.738 8  25337506.758 8 133149400.477 1 103752749.661 8
  99429720.743 8  25337505.56646
  22430095.438 5  22430106.703 9  22430106.090 9 117870928.777 5  91847480.069 9
  88020503.677 9  22430106.82448
  24849901.297 3  24849916.227 8  24849915.766 8 130587114.537 3 101756196.749 8
  97516355.678 8  24849915.07447
 25 04 21 00 08 00.0000000  0 10G01G02G04G07G08G09G16G26G27G30      
  22608957.297 5  22608967.082 9  22608970.508 9 118810861.471 5  92579894.762 9
  88722399.552 9  22608967.37547
  20899910.391 6                                 109829714.139 6  85581612.05148
                  20899916.23848
  22627329.227 5  22627339.613 8  22627342.977 9 118907393.253 5  92655099.541 8
  88794468.286 9  22627339.20746
  22118988.820 6  22118996.992 9                 116236050.302 6  90573541.346 9
                  22118996.78548
  20279473.586 6  20279484.223 9  20279482.449 9 106569371.946 6  83041055.202 9
  79581010.113 9  20279483.34049
  22266296.055 6  22266306.430 9  22266307.059 9 117010135.596 6  91176719.967 9
  87377686.627 9  22266306.06648
  23730279.992 4                                 124703540.659 4  97171619.91746
                  23730291.38346
  25339347.563 1  25339368.172 8  25339370.020 8 133159190.694 1 103760378.387 8
  99437031.593 8  25339368.96546
  22433016.031 5  22433028.305 8  22433027.527 9 117886281.132 5  91859442.916 8
  88031968.068 9  22433028.40648
  24846659.695 4  24846673.656 8  24846673.566 8 130570075.491 4 101742919.525 8
  97503631.682 8  24846672.66447
 25 04 21 00 08 05.0000000  0 10G01G02G04G07G08G09G16G26G27G30      
  22606020.039 5  22606029.992 9  22606033.281 9 118795426.960 5  92567867.908 9
  88710873.812 9  22606030.34847
  20898567.227 6                                 109822658.620 6  85576114.24948
                  20898573.69548
  22630014.547 5  22630025.648 8  22630029.336 9 118921509.582 5  92666099.273 8
  88805009.664 9  22630025.51646
  22116338.234 6  22116346.133 9                 116222120.764 6  90562687.167 9
                  22116346.16048
  20280827.297 6  20280838.129 9  20280836.477 9 106576487.387 6  83046599.698 9
  79586323.581 9  20280837.40249
  22267866.844 6  22267878.188 9  22267878.777 9 117018394.614 6  91183155.542 9
  87383854.066 9  22267877.69948
  23732004.305 4                                 124712601.638 4  97178680.39546
                  23732015.80146
  25341210.648 1  25341232.348 8  25341233.457 8 133168982.363 1 103768008.199 8
  99444343.501 8  25341232.60546
  22435938.906 5  22435950.305 9  22435949.676 9 117901636.045 5  91871407.768 9
  88043434.389 9  22435950.37548
  24843416.406 3  24843430.645 8  24843431.098 8 130553036.561 3 101729642.443 8
  97490907.849 8  24843430.03947
 25 04 21 00 08 10.0000000  0 10G01G02G04G07G08G09G16G26G27G30      
  22603083.625 5  22603093.383 9  22603097.059 9 118779996.211 5  92555843.929 9
  88699350.858 9  22603093.87146
  20897227.414 6                                 109815617.525 6  85570627.68548
                  20897233.81348
  22632702.445 5  22632712.539 9  22632716.316 9 118935629.154 5  92677101.505 9
  88815553.483 9  22632712.53146
  22113688.859 6  22113696.461 9                 116208197.179 6  90551837.628 9
                  22113696.47348
  20282183.508 6  20282193.949 9  20282192.352 9 106583612.254 6  83052151.520 9
  79591644.080 9  20282193.30149
  22269440.969 5  22269451.805 9  22269452.063 9 117026663.030 5  91189598.460 9
  87390028.516 9  22269451.23448
  23733727.891 4                                 124721662.832 4  97185741.00246
                  23733739.93446
  25343074.961 2  25343095.793 8  25343096.488 8 133178775.369 2 103775639.066 8
  99451656.423 8  25343096.25446
  22438861.078 5  22438872.617 8  22438872.152 9 117916993.509 5  91883374.578 8
  88054902.586 9  22438872.70348
  24840174.648 3  24840188.773 7  24840188.930 8 130535997.848 3 101716365.533 7
  97478184.103 8  24840187.66847
 25 04 21 00 08 15.0000000  0 10G01G02G04G07G08G09G16G26G27G30      
  22600148.227 5  22600157.926 9  22600161.469 9 118764569.299 5  92543822.980 9
  88687830.783 9  22600158.41447
  20895890.430 6                                 109808591.007 6  85565152.48148
                  20895896.78148
  22635389.453 5  22635399.434 8  22635403.629 9 118949752.048 5  92688106.360 8
  88826099.796 9  22635399.97746
  22111040.289 6  22111048.063 9                 116194279.632 6  90540992.796 9
                  22111048.10548
  20283541.531 6  20283551.773 9  20283549.855 9 106590746.608 6  83057710.761 9
  79596971.676 9  20283550.75849
  22271016.156 6  22271026.176 9  22271027.309 9 117034940.945 6  91196048.766 9
  87396210.066 9  22271026.69148
  23735453.047 5                                 124730724.395 5  97192801.94246
                  23735464.61746
  25344938.938 2  25344960.156 8  25344960.613 8 133188569.850 2 103783271.097 8
  99458970.440 8  25344960.30146
  22441783.945 5  22441796.066 8  22441794.977 9 117932353.535 5  91895343.421 8
  88066372.712 9  22441795.75048
  24836932.938 4  24836946.828 8  24836946.391 8 130518959.281 4 101703088.766 8
  97465460.533 8  24836945.37947
 25 04 21 00 08 20.0000000  0 10G01G02G04G07G08G09G16G26G27G30      
  22597213.313 5  22597223.375 9  22597226.531 9 118749146.259 5  92531805.027 9
  88676313.574 9  22597223.30546
  20894556.102 6                                 109801578.995 6  85559688.58248
                  20894562.42648
  22638077.500 5  22638088.316 8  22638092.090 9 118963878.313 5  92699113.797 8
  88836648.586 9  22638087.98446
  22108392.977 6  22108400.832 9                 116180368.059 6  90530152.600 9
                  22108400.78548
  20284900.344 6  20284910.906 9  20284909.348 9 106597890.461 6  83063277.379 9
  79602306.362 9  20284910.34849
  22272593.547 6  22272603.910 8  22272604.543 9 117043228.319 6  91202506.470 8
  87402398.684 9  22272603.99248
  23737177.266 4                                 124739786.200 4  97199863.05146
                  23737189.17646
  25346803.242 2  25346824.016 8  25346825.125 8 133198365.718 2 103790904.221 8
  99466285.542 8  25346824.38346
  22444707.742 5  22444719.215 8  22444718.434 9 117947716.166 5  91907314.267 8
  88077844.770 9  22444719.15648
  24833689.984 3  24833703.184 7  24833704.273 8 130501920.943 3 101689812.121 7
  97452737.131 8  24833702.98446
 25 04 21 00 08 25.0000000  0 10G01G02G04G07G08G09G16G26G27G30      
  22594279.664 5  22594289.031 8  22594292.137 9 118733727.015 5  92519790.011 8
  88664799.197 9  22594289.10546
  20893224.391 6                                 109794581.456 6  85554235.95548
                  20893230.90648
  22640766.445 5  22640776.137 8  22640780.891 9 118978007.768 5  92710123.748 8
  88847199.787 9  22640777.01646
  22105746.414 6  22105754.703 8                 116166462.407 6  90519317.041 8
                  22105754.41048
  20286262.031 6  20286272.156 9  20286270.582 9 106605043.668 6  83068851.299 9
  79607648.036 9  20286271.53149
  22274171.805 6  22274182.801 9  22274183.246 9 117051525.065 6  91208971.455 9
  87408594.289 9  22274182.79748
  23738901.789 5                                 124748848.198 5  97206924.32446
                  23738913.96146
  25348668.609 3  25348687.242 7  25348689.598 8 133208163.039 3 103798538.485 7
  99473601.662 8  25348688.19546
  22447630.961 5  22447642.816 8  22447642.445 9 117963081.265 5  91919287.040 8
  88089318.665 9  22447643.09848
  24830447.398 3  24830461.766 8  24830461.707 8 130484882.872 3 101676535.747 8
  97440013.872 8  24830460.73846
 25 04 21 00 08 30.0000000  0 10G01G02G04G07G08G09G16G26G27G30      
  22591345.383 5  22591355.133 9  22591358.957 9 118718311.703 5  92507778.103 9
  88653287.783 9  22591355.52346
  20891895.547 6                                 109787598.547 6  85548794.73548
                  20891901.87948
  22643456.188 5  22643466.719 8  22643470.262 9 118992140.595 5  92721136.315 8
  88857753.480 9  22643466.16846
  22103102.414 6  22103109.574 9                 116152562.853 6  90508486.233 9
                  22103109.35248
  20287624.727 6  20287635.027 9  20287633.590 9 106612206.396 6  83074432.655 9
  79612996.836 9  20287634.62949
  22275752.711 6  22275763.270 9  22275763.910 9 117059831.334 6  91215443.845 9
  87414797.013 9  22275763.52748
  23740626.555 5                                 124757910.573 5  97213985.87346
                  23740638.56646
  25350531.992 2  25350552.570 7  25350554.145 8 133217961.860 2 103806173.894 7
  99480918.919 8  25350552.19146
  22450555.125 5  22450567.777 8  22450566.898 9 117978448.979 5  91931261.856 8
  88100794.529 9  22450567.52048
  24827205.750 3  24827219.762 7  24827219.828 8 130467845.035 3 101663259.524 7
  97427290.867 8  24827218.86747
 25 04 21 00 08 35.0000000  0 10G01G02G04G07G08G09G16G26G27G30      
  22588413.133 5  22588422.352 9  22588426.203 9 118702900.137 5  92495769.106 9
  88641779.163 9  22588422.73847
  20890569.453 6                                 109780630.012 6  85543364.70948
                  20890575.83648
  22646146.578 5  22646156.203 8  22646160.176 9 119006276.529 5  92732151.328 8
  88868309.524 9  22646156.06646
  22100458.133 6  22100465.688 9                 116138669.174 6  90497659.982 9
                  22100465.66448
  20288989.570 6  20288999.906 9  20288998.359 9 106619378.423 6  83080021.241 9
  79618352.567 9  20288999.46549
  22277334.406 6  22277345.590 9  22277346.406 9 117068146.852 6  91221923.477 9
  87421006.654 9  22277345.85248
  23742351.141 5                                 124766973.157 5  97221047.57846
                  23742363.05946
  25352397.508 2  25352416.996 7  25352418.633 8 133227761.980 2 103813810.318 7
  99488237.182 8  25352416.93446
  22453480.336 5  22453491.965 8  22453491.844 9 117993819.085 5  91943238.541 8
  88112272.173 9  22453492.31348
  24823962.703 2  24823977.258 8  24823977.613 8 130450807.398 2 101649983.458 8
  97414567.951 8  24823976.76247
 25 04 21 00 08 40.0000000  0 10G01G02G04G07G08G09G16G26G27G30      
  22585480.930 5  22585490.754 9  22585494.270 9 118687492.562 5  92483763.193 9
  88630273.515 9  22585490.89546
  20889246.266 6                                 109773676.102 6  85537946.08448
                  20889252.69548
  22648836.352 5  22648847.324 8  22648850.969 9 119020415.782 5  92743168.899 8
  88878868.024 9  22648847.04746
  22097814.781 6  22097823.184 9                 116124781.590 6  90486838.498 9
                  22097822.99648
  20290356.250 6  20290366.711 9  20290364.883 9 106626559.954 6  83085617.233 9
  79623715.385 9  20290366.01649
  22278919.438 6  22278929.688 9  22278930.656 9 117076471.850 6  91228410.466 9
  87427223.350 9  22278930.12948
  23744074.969 5                                 124776036.084 5  97228109.55646
                  23744087.77346
  25354262.313 2  25354281.469 7  25354284.375 8 133237563.619 2 103821447.944 7
  99495556.544 8  25354282.29746
  22456405.719 5  22456417.266 8  22456417.121 9 118009191.772 5  91955217.243 8
  88123751.743 9  22456417.55548
  24820721.375 3  24820735.395 8  24820735.602 8 130433770.078 3 101636707.621 8
  97401845.293 8  24820734.43447
 25 04 21 00 08 45.0000000  0 10G01G02G04G07G08G09G16G26G27G30      
  22582549.570 5  22582559.480 9  22582562.961 9 118672088.904 5  92471760.364 9
  88618770.801 9  22582559.81646
  20887926.063 6                                 109766736.735 6  85532538.78648
                  20887931.96148
  22651528.078 5  22651538.570 8  22651542.324 9 119034558.289 5  92754189.007 8
  88889428.958 9  22651538.60546
  22095173.953 6  22095181.438 9                 116110900.068 6  90476021.726 9
                  22095181.28948
  20291724.500 6  20291734.770 9  20291733.336 9 106633750.883 6  83091220.561 9
  79629085.240 9  20291734.37549
  22280505.477 5  22280515.582 8  22280516.512 9 117084806.263 5  91234904.802 8
  87433447.076 9  22280515.84848
  23745800.336 5                                 124785099.337 5  97235171.82846
                  23745812.49246
  25356127.969 2  25356147.488 7  25356149.988 8 133247366.747 2 103829086.674 7
  99502877.012 8  25356147.46546
  22459331.352 5  22459343.473 8  22459342.918 9 118024567.023 5  91967197.916 8
  88135233.219 9  22459343.36348
  24817479.188 4  24817493.336 8  24817493.559 8 130416733.048 4 101623432.015 8
  97389122.850 8  24817492.18046
 25 04 21 00 08 50.0000000  0 10G01G02G04G07G08G09G16G26G27G30      
  22579618.992 5  22579629.152 9  22579632.645 9 118656689.168 5  92459760.586 9
  88607271.017 9  22579629.46146
  20886608.250 6                                 109759811.948 6  85527142.85148
                  20886614.21548
  22654219.461 5  22654229.844 8  22654233.949 9 119048704.020 5  92765211.648 8
  88899992.302 9  22654230.56646
  22092533.016 6  22092541.609 9                 116097024.630 6  90465209.698 9
                  22092540.88348
  20293094.953 6  20293105.234 9  20293103.594 9 106640951.221 6  83096831.212 9
  79634462.116 9  20293104.47749
  22282093.328 5  22282103.793 8  22282104.098 9 117093150.037 5  91241406.452 8
  87439677.811 9  22282103.67648
  23747525.406 4                                 124794162.815 4  97242234.23046
                  23747537.36346
  25357993.391 2  25358013.641 7  25358015.688 8 133257171.350 2 103836726.586 7
  99510198.579 8  25358013.02046
  22462257.961 5  22462269.742 8  22462269.375 9 118039944.763 5  91979180.571 8
  88146716.592 9  22462269.62548
  24814237.039 3  24814251.207 8  24814251.578 8 130399696.288 3 101610156.640 8
  97376400.612 8  24814250.13747
 25 04 21 00 08 55.0000000  0 10G01G02G04G07G08G09G16G26G27G30      
  22576689.055 5  22576699.379 9  22576702.668 9 118641293.374 5  92447763.871 9
  88595774.149 9  22576699.65646
  20885293.055 6                                 109752901.716 6  85521758.26648
                  20885299.40648
  22656912.539 5  22656922.668 8  22656926.313 9 119062852.904 5  92776236.732 8
  88910558.022 9  22656922.87546
  22089893.898 6  22089902.148 9                 116083155.250 6  90454402.384 9
                  22089901.50848
  20294466.867 6  20294477.203 9  20294475.520 9 106648160.919 6  83102449.138 9
  79639845.968 9  20294476.32449
  22283682.563 6  22283692.684 8  22283693.551 9 117101503.154 6  91247915.363 8
  87445915.528 9  22283693.05948
  23749250.180 4                                 124803226.558 4  97249296.85146
                  23749262.30146
  25359859.383 2  25359879.332 7  25359881.332 8 133266977.423 2 103844367.593 7
  99517521.189 8  25359879.18846
  22465185.078 5  22465196.344 8  22465196.070 9 118055324.967 5  91991165.108 8
  88158201.752 9  22465196.23848
  24810994.563 3  24811009.125 8  24811009.863 8 130382659.792 3 101596881.465 8
  97363678.551 8  24811008.35946
 25 04 21 00 09 00.0000000  0 10G01G02G04G07G08G09G16G26G27G30      
  22573760.414 5  22573770.648 9  22573773.895 9 118625901.555 5  92435770.250 9
  88584280.286 9  22573770.59046
  20883981.164 6                                 109746006.124 6  85516385.08348
                  20883987.07048
  22659605.828 5  22659615.453 8  22659619.566 9 119077005.040 5  92787264.342 8
  88921126.142 9  22659615.99246
  22087255.836 6  22087263.855 9                 116069292.001 6  90443599.860 9
                  22087263.42648
  20295840.781 6  20295850.973 9  20295849.266 9 106655380.013 6  83108074.405 9
  79645236.844 9  20295850.18849
  22285273.461 5  22285284.461 9  22285284.781 9 117109865.677 5  91254431.597 9
  87452160.252 9  22285284.34048
  23750975.648 5                                 124812290.640 5  97256359.76246
                  23750987.20346
  25361725.797 2  25361745.402 7  25361747.648 8 133276784.893 2 103852009.809 7
  99524844.953 8  25361745.60546
  22468111.328 5  22468123.398 8  22468123.305 9 118070707.668 5  92003151.595 8
  88169688.815 9  22468123.62948
  24807752.852 2  24807766.109 7  24807767.969 8 130365623.629 2 101583606.528 7
  97350956.773 8  24807766.24246
 25 04 21 00 09 05.0000000  0 10G01G02G04G07G08G09G16G26G27G30      
  22570832.383 5  22570842.379 9  22570845.566 9 118610513.739 5  92423779.770 9
  88572789.407 9  22570842.55546
  20882671.648 6                                 109739125.113 6  85511023.26048
                  20882677.76248
  22662298.922 5  22662309.535 8  22662313.246 9 119091160.391 5  92798294.464 8
  88931696.667 9  22662309.55946
  22084618.828 6  22084627.344 9                 116055434.866 6  90432802.097 9
                  22084626.66048
  20297216.273 6  20297226.457 9  20297224.824 9 106662608.510 6  83113706.995 9
  79650634.739 9  20297225.65249
  22286867.531 6  22286877.688 8  22286877.832 9 117118237.546 6  91260955.117 8
  87458411.964 9  22286877.42248
  23752699.430 4                                 124821355.016 4  97263422.90546
                  23752711.66446
  25363591.523 2  25363612.395 7  25363614.672 8 133286593.893 2 103859653.169 7
  99532169.813 8  25363612.39846
  22471040.055 5  22471050.945 8  22471051.031 9 118086092.864 5  92015140.022 8
  88181177.721 9  22471051.36348
  24804511.023 3  24804524.965 7  24804526.355 8 130348587.875 3 101570331.871 7
  97338235.254 8  24804524.42646
 25 04 21 00 09 10.0000000  0 10G01G02G04G07G08G09G16G26G27G30      
  22567905.188 5  22567914.945 9  22567918.188 9 118595129.872 5  92411792.352 9
  88561301.480 9  22567914.80947
  20881364.492 6                                 109732258.728 6  85505672.83448
                  20881370.91448
  22664994.320 5  22665003.418 8  22665007.293 9 119105318.847 5  92809327.004 8
  88942269.523 9  22665003.66846
  22081983.156 6  22081991.457 9                 116041583.829 6  90422009.086 9
                  22081990.87948
  20298593.328 6  20298604.105 9  20298602.266 9 106669846.319 6  83119346.831 9
  79656039.584 9  20298602.99649
  22288461.969 5  22288472.227 8  22288472.664 9 117126618.713 5  91267485.885 8
  87464670.600 9  22288472.34848
  23754423.688 5                                 124830419.664 5  97270486.21346
                  23754436.67246
  25365460.164 2  25365479.418 7  25365480.965 8 133296404.335 2 103867297.602 7
  99539495.750 8  25365479.64846
  22473967.852 5  22473979.590 8  22473979.297 9 118101480.483 5  92027130.367 8
  88192668.443 9  22473979.35948
  24801269.289 3  24801283.859 7  24801284.641 8 130331552.371 3 101557057.511 7
  97325513.973 8  24801282.83246
 25 04 21 00 09 15.0000000  0 10G01G02G04G07G08G09G16G26G27G30      
  22564978.523 5  22564987.594 9  22564991.531 9 118579750.051 5  92399808.076 9
  88549816.542 9  22564988.29746
  20880060.672 6                                 109725406.978 6  85500333.80948
                  20880067.20348
  22667688.469 5  22667698.348 8  22667702.406 9 119119480.472 5  92820362.016 8
  88952844.742 9  22667698.77746
  22079348.703 6  22079356.625 9                 116027738.939 6  90411220.871 9
                  22079356.12548
  20299972.531 6  20299982.980 9  20299981.328 9 106677093.504 6  83124993.993 9
  79661451.446 9  20299982.03149
  22290058.586 5  22290069.070 8  22290069.324 9 117135009.205 5  91274023.946 8
  87470936.245 9  22290069.05148
  23756149.477 4                                 124839484.621 4  97277549.76546
                  23756161.99246
  25367327.641 2  25367346.719 7  25367347.992 8 133306216.280 2 103874943.223 7
  99546822.808 8  25367346.96146
  22476896.172 5  22476907.875 8  22476907.941 9 118116870.589 5  92039122.617 8
  88204161.028 9  22476908.25448
  24798027.305 2  24798041.695 8  24798043.090 8 130314517.217 2 101543783.395 8
  97312792.922 8  24798041.18046
 25 04 21 00 09 20.0000000  0 10G01G02G04G07G08G09G16G26G27G30      
  22562052.156 5  22562062.113 9  22562065.875 9 118564374.212 5  92387826.921 9
  88538334.613 9  22562062.21946
  20878759.711 6                                 109718569.808 6  85495006.15548
                  20878766.16848
  22670383.711 5  22670393.652 8  22670397.652 9 119133645.234 5  92831399.484 8
  88963422.302 9  22670394.05946
  22076715.180 6  22076722.863 9                 116013900.196 6  90400437.445 9
                  22076722.80948
  20301353.758 6  20301363.891 9  20301362.172 9 106684350.033 6  83130648.419 9
  79666870.269 9  20301362.91049
  22291656.305 5  22291667.293 8  22291667.660 9 117143408.990 5  91280569.222 8
  87477208.805 9  22291667.46548
  23757874.813 4                                 124848549.908 4  97284613.63246
                  23757886.98446
  25369194.195 3  25369214.543 7  25369215.746 8 133316029.668 3 103882590.022 7
  99554150.953 8  25369214.36346
  22479825.859 5  22479837.789 8  22479837.016 9 118132263.099 5  92051116.759 8
  88215655.406 9  22479837.38748
  24794786.969 3  24794799.844 8  24794801.445 8 130297482.418 3 101530509.564 8
  97300072.152 8  24794799.88346
 25 04 21 00 09 25.0000000  0 10G01G02G04G07G08G09G16G26G27G30      
  22559127.211 5  22559137.016 9  22559140.668 9 118549002.370 5  92375848.894 9
  88526855.658 9  22559136.89546
  20877461.547 6                                 109711747.246 6  85489689.87148
                  20877467.78548
  22673080.109 5  22673090.352 8  22673093.840 9 119147813.072 5  92842439.339 8
  88974002.155 9  22673090.34446
  22074083.031 6  22074090.547 9                 116000067.546 6  90389658.776 9
                  22074090.50448
  20302736.453 6  20302746.086 9  20302744.805 9 106691615.825 6  83136310.083 9
  79672296.017 9  20302745.53949
  22293256.984 5  22293267.887 8  22293268.023 9 117151818.071 5  91287121.720 8
  87483488.275 9  22293267.59448
  23759599.836 5                                 124857615.408 5  97291677.60746
                  23759612.14846
  25371062.242 2  25371081.789 7  25371083.590 8 133325844.507 2 103890237.950 7
  99561480.198 8  25371082.22346
  22482755.391 5  22482766.805 8  22482766.523 9 118147657.998 5  92063112.761 8
  88227151.555 9  22482766.91448
  24791544.977 3  24791558.500 8  24791560.000 8 130280447.893 3 101517235.870 8
  97287351.597 8  24791558.09846
 25 04 21 00 09 30.0000000  0 10G01G02G04G07G08G09G16G26G27G30      
  22556202.844 5  22556212.180 9  22556216.340 9 118533634.633 5  92363874.025 9
  88515379.754 9  22556212.51246
  20876165.875 6                                 109704939.358 6  85484385.02848
                  20876172.26248
  22675776.266 5  22675786.734 8  22675790.504 9 119161984.050 5  92853481.646 8
  88984584.355 9  22675787.12146
  22071452.156 6  22071459.867 9                 115986241.151 6  90378884.935 9
                  22071459.43448
  20304120.961 6  20304130.445 9  20304129.246 9 106698890.988 6  83141979.029 9
  79677728.768 9  20304130.01249
  22294859.195 5  22294870.039 8  22294869.961 9 117160236.429 5  91293681.484 8
  87489774.712 9  22294869.75048
  23761325.531 5                                 124866681.304 5  97298741.93646
                  23761337.30946
  25372930.430 2  25372950.418 7  25372950.570 8 133335660.888 2 103897887.038 7
  99568810.584 8  25372949.98046
  22485685.461 5  22485697.109 8  22485696.738 9 118163055.357 5  92075110.668 8
  88238649.566 9  22485697.04348
  24788302.789 2  24788316.984 8  24788318.344 8 130263413.808 2 101503962.627 8
  97274631.355 8  24788316.64147
 25 04 21 00 09 35.0000000  0 10G01G02G04G07G08G09G16G26G27G30      
  22553279.070 5  22553289.391 9  22553292.859 9 118518270.909 5  92351902.328 9
  88503906.878 9  22553288.96546
  20874873.492 6                                 109698146.112 6  85479091.60048
                  20874879.37548
  22678473.047 5  22678483.910 8  22678487.887 9 119176158.111 5  92864526.349 8
  88995168.870 9  22678484.29746
  22068822.070 6  22068829.637 9                 115972420.921 6  90368115.926 9
                  22068829.47348
  20305506.914 6  20305516.805 9  20305515.441 9 106706175.434 6  83147655.225 9
  79683168.455 9  20305516.11749
  22296463.125 5  22296473.613 8  22296473.730 9 117168664.043 5  91300248.452 8
  87496068.055 9  22296473.26648
  23763049.648 5                                 124875747.502 5  97305806.47146
                  23763062.43446
  25374798.008 1  25374818.813 7  25374818.820 8 133345478.729 1 103905537.242 7
  99576142.064 8  25374818.71946
  22488616.266 5  22488627.438 8  22488627.043 9 118178455.116 5  92087110.470 8
  88250149.357 9  22488627.46948
  24785061.547 3  24785075.477 8  24785077.199 8 130246380.120 3 101490689.611 8
  97261911.400 8  24785075.21546
 25 04 21 00 09 40.0000000  0 10G01G02G04G07G08G09G16G26G27G30      
  22550356.578 5  22550366.195 9  22550369.957 9 118502911.253 5  92339933.774 9
  88492437.010 9  22550366.14546
  20873583.578 6                                 109691367.541 6  85473809.59348
                  20873589.25848
  22681171.602 5  22681181.441 8  22681185.777 9 119190335.220 5  92875573.432 8
  89005755.656 9  22681182.15646
  22066193.250 6  22066201.234 9                 115958606.807 6  90357351.685 9
                  22066200.77348
  20306894.672 6  20306904.609 9  20306903.391 9 106713469.126 6  83153338.618 9
  79688615.033 9  20306904.13749
  22298068.344 5  22298079.453 8  22298079.328 9 117177100.901 5  91306822.605 8
  87502368.284 9  22298078.80948
  23764775.594 5                                 124884814.015 5  97312871.24546
                  23764787.72346
  25376666.977 1  25376687.852 7  25376688.359 8 133355298.05711 103913188.634 7
  99583474.618 8  25376687.16046
  22491546.813 5  22491558.836 8  22491557.984 9 118193857.200 5  92099112.072 8
  88261650.889 9  22491558.41448
  24781820.156 3  24781834.316 7  24781835.691 8 130229346.789 3 101477416.847 7
  97249191.704 8  24781833.94146
 25 04 21 00 09 45.0000000  0 10G01G02G04G07G08G09G16G26G27G30      
  22547433.945 5  22547443.977 9  22547447.938 9 118487555.749 5  92327968.482 9
  88480970.265 9  22547444.28147
  20872296.070 6                                 109684603.734 6  85468539.10348
                  20872302.34848
  22683869.602 4  22683880.547 8  22683884.203 9 119204515.489 4  92886622.970 8
  89016344.790 9  22683880.57846
  22063565.930 6  22063573.473 9                 115944799.030 6  90346592.380 9
                  22063573.39848
  20308284.734 6  20308294.391 9  20308293.117 9 106720772.216 6  83159029.333 9
  79694068.643 9  20308293.81649
  22299675.727 5  22299686.293 8  22299686.477 9 117185547.077 5  91313404.028 8
  87508675.475 9  22299685.78948
  23766500.273 4                                 124893880.886 4  97319936.31346
                  23766513.16446
  25378535.328 2  25378556.031 7  25378557.438 8 133365118.955 2 103920841.230 7
  99590808.353 8  25378555.83646
  22494478.078 5  22494489.809 8  22494489.395 9 118209261.765 5  92111115.614 8
  88273154.285 9  22494490.00848
  24778577.703 2  24778592.621 8  24778594.680 8 130212313.878 2 101464144.515 8
  97236472.385 8  24778592.66046
 25 04 21 00 09 50.0000000  0 10G01G02G04G07G08G09G16G26G27G30      
  22544512.789 5  22544522.703 9  22544526.680 9 118472204.324 5  92316006.338 9
  88469506.563 9  22544523.02346
  20871012.211 6                                 109677854.555 6  85463280.00448
                  20871017.82448
  22686568.695 5  22686578.684 8  22686583.391 9 119218698.759 5  92897674.846 8
  89026936.167 9  22686579.55146
  22060939.406 6  22060947.355 9                 115930997.400 6  90335837.870 9
                  22060946.93848
  20309676.039 6  20309686.094 9  20309684.750 9 106728084.504 6  83164727.213 9
  79699529.105 9  20309685.32049
  22301285.180 5  22301295.215 8  22301295.484 9 117194002.424 5  91319992.587 8
  87514989.524 9  22301294.60248
  23768226.500 5                                 124902948.050 5  97327001.60446
                  23768238.53946
  25380404.219 2  25380424.961 8  25380425.840 8 133374941.278 2 103928494.946 8
  99598143.171 8  25380425.13346
  22497410.180 5  22497421.484 8  22497421.250 9 118224668.680 5  92123120.974 8
  88284659.407 9  22497421.65248
  24775337.633 3  24775351.660 7  24775353.301 8 130195281.396 3 101450872.460 7
  97223753.314 8  24775351.25047
 25 04 21 00 09 55.0000000  0 10G01G02G04G07G08G09G16G26G27G30      
  22541592.617 5  22541602.098 9  22541606.270 9 118456857.070 5  92304047.439 9
  88458045.962 9  22541602.16847
  20869730.094 6                                 109671120.136 6  85458032.41448
                  20869736.45348
  22689268.523 5  22689278.699 8  22689283.227 9 119232885.132 5  92908729.144 8
  89037529.853 9  22689279.04346
  22058314.094 6  22058322.156 9                 115917202.068 6  90325088.269 9
                  22058321.86348
  20311069.055 6  20311079.125 9  20311078.016 9 106735406.112 6  83170432.372 9
  79704996.537 9  20311078.61349
  22302895.164 5  22302905.762 8  22302906.305 9 117202467.038 5  91326588.402 8
  87521310.485 9  22302905.50848
  23769951.711 4                                 124912015.587 4  97334067.20646
                  23769964.06646
  25382273.703 1  25382294.930 7  25382295.641 8 133384765.136 1 103936149.890 7
  99605479.123 8  25382294.05946
  22500342.148 5  22500354.246 8  22500353.590 9 118240078.001 5  92135128.218 8
  88296166.346 9  22500353.83648
  24772097.125 3  24772110.688 8  24772112.305 8 130178249.348 3 101437600.727 8
  97211034.592 8  24772110.32046
 25 04 21 00 10 00.0000000  0 10G01G02G04G07G08G09G16G26G27G30      
  22538672.367 5  22538682.039 9  22538686.281 9 118441513.812 5  92292091.667 9
  88446588.341 9  22538682.63746
  20868451.789 6                                 109664400.287 6  85452796.17448
                  20868457.64148
  22691968.469 5  22691978.313 8  22691983.332 9 119247074.353 5  92919785.686 8
  89048125.693 9  22691979.02346
  22055690.250 6  22055698.488 9                 115903412.840 6  90314343.414 9
                  22055697.94948
  20312464.680 6  20312474.223 9  20312473.043 9 106742736.835 6  83176144.603 9
  79710470.778 9  20312473.53149
  22304508.180 5  22304518.523 8  22304518.707 9 117210940.715 5  91333191.242 8
  87527638.219 9  22304517.97748
  23771677.828 4                                 124921083.363 4  97341132.95346
                  23771689.60246
  25384143.219 2  25384164.297 7  25384165.902 8 133394590.369 2 103943805.864 7
  99612816.107 8  25384163.78946
  22503274.484 5  22503287.148 8  22503286.402 9 118255489.516 5  92147137.193 8
  88307674.925 9  22503286.68448
  24768855.258 2  24768869.211 7  24768871.059 8 130161217.667 2 101424329.321 7
  97198316.113 8  24768868.96946
 25 04 21 00 10 05.0000000  0 10G01G02G04G07G08G09G16G26G27G30      
  22535753.578 5  22535763.605 9  22535767.375 9 118426174.779 5  92280139.185 9
  88435133.870 9  22535763.71147
  20867175.664 6                                 109657695.211 6  85447571.44048
                  20867181.78948
  22694669.594 5  22694679.754 8  22694684.223 9 119261266.684 5  92930844.630 8
  89058723.837 9  22694679.67646
  22053067.359 6  22053075.461 9                 115889629.956 6  90303603.513 9
                  22053074.84448
  20313860.773 6  20313870.734 9  20313869.801 9 106750076.871 6  83181864.102 9
  79715951.961 9  20313870.43449
  22306122.156 5  22306132.500 8  22306133.031 9 117219423.657 5  91339801.314 8
  87533972.876 9  22306132.30548
  23773402.758 5                                 124930151.513 5  97348199.02746
                  23773415.39846
  25386013.563 2  25386033.691 7  25386036.164 8                 103951463.081 7
  99620154.240 8  25386033.85546
  22506208.859 5  22506219.961 8  22506219.559 9 118270903.458 5  92159148.021 8
  88319185.304 9  22506219.79748
  24765615.883 3  24765628.941 8  24765630.359 8 130144186.408 3 101411058.189 8
  97185598.020 8  24765627.88746
 25 04 21 00 10 10.0000000  0 10G01G02G04G07G08G09G16G26G27G30      
  22532835.250 5  22532845.730 9  22532849.176 9 118410839.861 5  92268189.928 9
  88423682.500 9  22532845.73446
  20865902.492 6                                 109651004.826 6  85442358.16048
                  20865908.59048
  22697371.016 5  22697380.902 8  22697385.477 9 119275461.982 5  92941905.874 8
  89069324.191 9  22697381.13746
  22050445.695 6  22050453.578 9                 115875853.308 6  90292868.457 9
                  22050453.31348
  20315259.406 6  20315269.738 9  20315268.332 9 106757426.115 6  83187590.787 9
  79721440.025 9  20315268.91849
  22307738.219 5  22307748.293 8  22307749.109 9 117227915.755 5  91346418.533 8
  87540314.366 9  22307748.34048
  23775129.039 4                                 124939219.983 4  97355265.31646
                  23775141.15246
  25387884.336 2  25387904.754 8  25387905.973 8 133414245.396 2 103959121.430 8
  99627493.480 8  25387904.62146
  22509142.180 5  22509153.488 8  22509153.277 9 118286319.730 5  92171160.659 8
  88330697.404 9  22509153.37948
  24762373.664 3  24762387.379 7  24762389.258 8 130127155.611 3 101397787.503 7
  97172880.236 8  24762387.03146
 25 04 21 00 10 15.0000000  0 10G01G02G04G07G08G09G16G26G27G30      
  22529917.508 5  22529927.715 9  22529931.992 9 118395509.093 5  92256243.880 9
  88412234.202 9  22529928.30947
  20864631.789 6                                 109644329.132 6  85437156.32048
                  20864638.36748
  22700073.422 5  22700083.121 8  22700087.320 9 119289660.232 5  92952969.415 8
  89079926.749 9  22700082.99246
  22047825.594 6  22047833.086 9                 115862082.901 6  90282138.277 9
                  22047833.07448
  20316659.938 6  20316669.906 9  20316668.563 9 106764784.535 6  83193324.609 9
  79726934.942 9  20316669.34449
  22309355.773 5  22309366.496 8  22309366.836 9 117236416.966 5  91353042.854 8
  87546662.666 9  22309366.23048
  23776854.844 5                                 124948288.731 5  97362331.82646
                  23776867.04346
  25389755.203 2  25389774.301 7  25389776.941 8 133424075.114 2 103966780.921 7
  99634833.808 8  25389775.21546
  22512075.813 5  22512087.727 8  22512087.336 9 118301738.257 5  92183175.071 8
  88342211.223 9  22512087.39548
  24759132.172 2  24759146.051 8  24759148.555 8 130110125.278 2 101384517.072 8
  97160162.766 8  24759146.44946
 25 04 21 00 10 20.0000000  0 10G01G02G04G07G08G09G16G26G27G30      
  22527001.539 5  22527011.637 9  22527015.391 9 118380182.532 5  92244301.110 9
  88400789.069 9  22527011.72747
  20863364.555 6                                 109637668.186 6  85431965.97548
                  20863370.84848
  22702775.328 5  22702785.508 8  22702789.785 9 119303861.454 5  92964035.277 8
  89090531.525 9  22702785.50846
  22045206.016 6  22045213.891 9                 115848318.801 6  90271413.008 9
                  22045213.80548
  20318061.648 6  20318071.453 9  20318070.605 9 106772152.175 6  83199065.622 9
  79732436.737 9  20318071.32849
  22310974.984 5  22310986.172 8  22310986.625 9 117244927.367 5  91359674.315 8
  87553017.825 9  22310985.78948
  23778580.305 5                                 124957357.882 5  97369398.70046
                  23778592.78146
  25391625.891 2  25391646.434 7  25391648.578 8 133433906.298 2 103974441.605 7
  99642175.285 8  25391646.04746
  22515010.125 5  22515022.258 8  22515021.879 9 118317159.110 5  92195191.311 8
  88353726.773 9  22515022.03548
  24755892.906 3  24755906.805 7  24755907.852 8 130093095.389 3 101371247.104 7
  97147445.688 8  24755905.66446
 25 04 21 00 10 25.0000000  0 10G01G02G04G07G08G09G16G26G27G30      
  22524085.961 5  22524096.078 9  22524099.664 9 118364860.135 5  92232361.595 9
  88389347.014 9  22524096.09847
  20862100.039 6                                 109631021.955 6  85426787.09748
                  20862106.01248
  22705477.969 5  22705488.551 8  22705492.867 9 119318065.565 5  92975103.397 8
  89101138.478 9  22705488.66446
  22042588.219 6  22042596.219 9                 115834560.975 6  90260692.638 9
                  22042595.77048
  20319465.195 6  20319475.691 9  20319474.254 9 106779528.958 6  83204813.757 9
  79737945.370 9  20319474.94549
  22312596.750 5  22312607.020 8  22312607.887 9 117253446.823 5  91366312.842 8
  87559379.743 9  22312607.12548
  23780306.492 4                                 124966427.335 4  97376465.77446
                  23780318.63346
  25393497.375 2  25393517.949 8  25393519.309 8 133443739.071 2 103982103.432 8
  99649517.868 8  25393517.48846
  22517945.148 5  22517957.531 8  22517956.902 9 118332582.231 5  92207209.298 8
  88365244.001 9  22517956.91848
  24752651.953 2  24752665.918 8  24752667.211 8 130076065.945 2 101357977.398 8
  97134728.928 8  24752665.13746
 25 04 21 00 10 30.0000000  0 10G01G02G04G07G08G09G16G26G27G30      
  22521171.336 5  22521180.309 9  22521184.930 9 118349541.949 5  92220425.355 9
  88377908.125 9  22521180.84047
  20860837.883 6                                 109624390.499 6  85421619.73848
                  20860844.18448
  22708181.367 5  22708192.090 8  22708196.129 9 119332272.635 5  92986173.820 8
  89111747.624 9  22708192.14846
  22039970.875 6  22039978.777 9                 115820809.440 6  90249977.142 9
                  22039978.99248
  20320870.891 6  20320881.031 9  20320879.879 9 106786914.919 6  83210569.040 9
  79743460.850 9  20320880.55549
  22314219.195 5  22314229.898 8  22314230.852 9 117261975.418 5  91372958.471 8
  87565748.489 9  22314230.02348
  23782031.953 5                                 124975497.105 5  97383533.07046
                  23782044.59046
  25395368.813 2  25395389.457 7  25395389.895 8 133453573.298 2 103989766.409 7
  99656861.572 8  25395389.25446
  22520881.289 5  22520892.824 8  22520892.047 9 118348007.614 5  92219229.062 8
  88376762.945 9  22520892.21948
  24749411.328 3  24749425.172 7  24749426.566 8 130059037.025 3 101344708.110 7
  97122012.508 8  24749424.37946
 25 04 21 00 10 35.0000000  0 10G01G02G04G07G08G09G16G26G27G30      
  22518256.523 5  22518266.656 9  22518270.844 9 118334228.006 5  92208492.441 9
  88366472.422 9  22518266.99247
  20859578.961 6                                 109617773.845 6  85416463.90248
                  20859585.16848
  22710886.180 5  22710896.313 8  22710900.125 9 119346482.652 5  92997246.525 8
  89122358.975 9  22710896.14846
  22037355.516 6  22037363.457 9                 115807064.281 6  90239266.638 9
                  22037363.30948
  20322278.172 6  20322288.363 9  20322287.125 9 106794310.118 6  83216331.523 9
  79748983.224 9  20322287.82849
  22315843.922 5  22315854.816 8  22315855.492 9 117270513.158 5  91379611.241 8
  87572124.056 9  22315854.69548
  23783758.148 5                                 124984567.259 5  97390600.69246
                  23783770.48046
  25397238.938 2  25397260.477 7  25397261.590 8 133463409.095 2 103997430.658 7
  99664206.440 8  25397260.78546
  22523816.797 5  22523828.148 8  22523828.070 9 118363435.317 5  92231250.631 8
  88388283.607 9  22523828.14548
  24746170.070 3  24746185.750 8  24746186.203 8 130042008.605 3 101331439.234 8
  97109296.507 8  24746183.76647
 25 04 21 00 10 40.0000000  0 10G01G02G04G07G08G09G16G26G27G30      
  22515343.258 5  22515353.414 9  22515357.281 9 118318918.269 5  92196562.768 9
  88355039.814 9  22515353.50047
  20858322.727 6                                 109611171.856 6  85411319.49748
                  20858328.77348
  22713590.602 5  22713600.383 8  22713604.887 9 119360695.474 5  93008321.449 8
  89132972.434 9  22713600.86746
  22034741.656 6  22034749.332 9                 115793325.365 6  90228560.991 9
                  22034748.94948
  20323687.234 6  20323697.203 9  20323695.914 9 106801714.387 6  83222101.078 9
  79754512.388 9  20323696.73849
  22317469.992 5  22317480.699 8  22317481.957 9 117279059.906 5  91386271.058 8
  87578506.365 9  22317481.12948
  23785484.391 5                                 124993637.702 5  97397668.53146
                  23785496.52046
  25399111.633 1  25399132.574 7  25399134.309 8 133473246.316 1 104005095.990 7
  99671552.365 8  25399132.30946
  22526752.883 5  22526764.457 8  22526764.254 9 118378865.216 5  92243273.904 8
  88399805.915 9  22526764.52048
  24742930.961 3  24742944.711 7  24742945.879 8 130024980.617 3 101318170.709 7
  97096580.827 8  24742943.54346
 25 04 21 00 10 45.0000000  0 10G01G02G04G07G08G09G16G26G27G30      
  22512430.438 5  22512441.059 9  22512444.957 9 118303612.715 5  92184636.381 9
  88343610.374 9  22512441.07446
  20857068.984 6                                 109604584.610 6  85406186.58548
                  20857075.41448
  22716295.836 5  22716305.898 8  22716309.961 9 119374911.185 5  93019398.596 8
  89143588.024 9  22716305.82046
  22032127.805 6  22032135.617 9                 115779592.772 6  90217860.292 9
                  22032135.82048
  20325097.859 6  20325108.105 9  20325106.820 9 106809127.764 6  83227877.746 9
  79760048.341 9  20325107.44149
  22319098.445 5  22319109.652 8  22319110.020 9 117287615.705 5  91392937.906 8
  87584895.417 9  22319109.07448
  23787211.250 4                                 125002708.437 4  97404736.61046
                  23787222.89146
  25400983.438 1  25401005.664 7  25401006.066 8 133483085.055 1 104012762.496 7
  99678899.426 8  25401004.39546
  22529689.070 5  22529701.344 8  22529700.848 9 118394297.324 5  92255298.924 8
  88411329.866 9  22529701.23048
  24739691.148 4  24739704.434 8  24739705.605 8 130007953.075 4 101304902.470 8
  97083865.474 8  24739703.30147
 25 04 21 00 10 50.0000000  0 10G01G02G04G07G08G09G16G26G27G30      
  22509519.242 5  22509528.625 9  22509533.180 9 118288311.588 5  92172713.437 9
  88332184.214 9  22509529.32846
  20855818.297 6                                 109598012.299 6  85401065.29848
                  20855824.68848
  22719001.563 5  22719011.508 8  22719015.711 9 119389129.922 5  93030478.096 8
  89154205.882 9  22719011.62546
  22029515.547 6  22029523.641 9                 115765866.722 6  90207164.661 9
                  22029523.71148
  20326510.469 6  20326520.492 9  20326519.160 9 106816550.437 6  83233661.634 9
  79765591.244 9  20326519.85249
  22320728.984 5  22320739.070 8  22320739.984 9 117296180.743 5  91399611.941 8
  87591291.377 9  22320739.18448
  23788937.000 5                                 125011779.700 5  97411805.11546
                  23788949.15246
  25402856.320 1  25402877.262 7  25402877.770 8 133492925.478 1 104020430.308 7
  99686247.749 8  25402877.00846
  22532626.469 5  22532638.066 8  22532638.027 9 118409731.823 5  92267325.775 8
  88422855.608 9  22532638.41848
  24736450.141 3  24736463.242 7  24736465.613 8 129990926.213 3 101291634.885 7
  97071150.646 8  24736463.28546
 25 04 21 00 10 55.0000000  0 10G01G02G04G07G08G09G16G26G27G30      
  22506608.375 5  22506617.824 9  22506622.211 9 118273014.688 5  92160793.776 9
  88320761.215 9  22506618.34047
  20854570.344 6                                 109591454.716 6  85395955.49648
                  20854576.79348
  22721707.602 5  22721717.594 8  22721721.949 9 119403351.424 5  93041559.781 8
  89164825.808 9  22721717.81346
  22026905.430 6  22026912.707 9                 115752146.983 6  90196473.950 9
                  22026912.96148
  20327924.617 6  20327934.883 9  20327933.355 9 106823982.154 6  83239452.583 9
  79771140.900 9  20327934.23049
  22322360.250 5  22322370.770 8  22322371.477 9 117304754.728 5  91406292.963 8
  87597694.017 9  22322370.67248
  23790662.914 5                                 125020851.280 5  97418873.82146
                  23790675.75046
  25404729.016 1  25404748.703 7  25404751.090 8 133502767.272 1 104028099.219 7
  99693597.138 8  25404749.38346
  22535563.836 5  22535575.977 8  22535575.539 9 118425168.494 5  92279354.331 8
  88434382.963 9  22535575.81648
  24733210.453 4  24733222.973 7  24733225.707 8 129973899.873 4 101278367.550 7
  97058436.138 8  24733223.30947
 25 04 21 00 11 00.0000000  0 10G01G02G04G07G08G09G16G26G27G30      
  22503697.977 5  22503707.816 9  22503712.133 9 118257722.140 5  92148877.513 9
  88309341.462 9  22503708.25047
  20853325.523 6                                 109584911.991 6  85390857.26848
                  20853331.53948
  22724415.156 5  22724424.348 8  22724428.773 9 119417575.826 5  93052643.711 8
  89175447.904 9  22724424.41846
  22024295.016 6  22024303.230 9                 115738433.668 6  90185788.252 9
                  22024303.41848
  20329340.734 6  20329350.727 9  20329349.371 9 106831423.015 6  83245250.651 9
  79776697.385 9  20329350.14549
  22323993.250 5  22324004.313 8  22324004.820 9 117313337.817 5  91412981.074 8
  87604103.463 9  22324004.12148
  23792389.383 5                                 125029923.199 5  97425942.82446
                  23792401.84046
  25406602.180 1  25406621.926 7  25406625.176 8                 104035769.399 7
  99700947.672 8  25406622.57446
  22538502.008 5  22538514.074 8  22538513.516 9 118440607.399 5  92291384.632 8
  88445911.991 9  22538513.91048
  24729970.375 3  24729984.055 7  24729985.746 8 129956874.055 3 101265100.726 7
  97045722.083 8  24729983.40646
 25 04 21 00 11 05.0000000  0 10G01G02G04G07G08G09G16G26G27G30      
  22500788.781 5  22500798.199 9  22500802.918 9 118242433.783 5  92136964.517 9
  88297924.847 9  22500798.91447
  20852083.031 6                                 109578383.950 6  85385770.48848
                  20852089.56648
  22727121.680 5  22727131.922 8  22727136.043 9 119431802.947 5  93063729.760 8
  89186072.032 9  22727131.73846
  22021687.344 6  22021695.055 9                 115724726.641 6  90175107.463 9
                  22021695.02048
  20330758.500 6  20330768.469 9  20330767.059 9 106838872.903 6  83251055.748 9
  79782260.606 9  20330767.85249
  22325628.711 5  22325638.672 8  22325640.004 9 117321929.837 5  91419676.143 8
  87610519.568 9  22325639.21948
  23794115.453 4                                 125038995.408 4  97433012.04246
                  23794127.96546
  25408476.469 2  25408496.586 7  25408498.434 8 133522455.516 2 104043440.650 7
  99708299.273 8  25408495.91846
  22541439.578 5  22541452.328 8  22541451.902 9 118456048.426 5  92303416.562 8
  88457442.606 9  22541452.24248
  24726730.555 3  24726744.055 8  24726745.926 8 129939848.691 3 101251834.199 8
  97033008.385 8  24726743.54746
 25 04 21 00 11 10.0000000  0 10G01G02G04G07G08G09G16G26G27G30      
  22497880.266 5  22497890.117 9  22497894.566 9 118227149.747 5  92125054.900 9
  88286511.449 9  22497890.68846
  20850843.828 6                                 109571870.727 6  85380695.24448
                  20850849.89148
  22729829.508 5  22729839.793 8  22729843.949 9 119446032.870 5  93074817.974 8
  89196698.248 9  22729839.65646
  22019080.234 6  22019088.188 9                 115711026.006 6  90164431.646 9
                  22019087.79348
  20332177.773 6  20332187.789 9  20332186.516 9 106846331.865 6  83256867.919 9
  79787830.593 9  20332187.24649
  22327264.664 5  22327276.168 8  22327276.887 9 117330530.826 5  91426378.198 8
  87616942.368 9  22327275.92248
  23795842.234 4                                 125048067.970 4  97440081.54646
                  23795854.21946
  25410349.898 1  25410370.145 7  25410371.582 8 133532301.912 1 104051113.087 7
  99715652.052 8  25410370.15646
  22544379.063 5  22544391.051 8  22544390.688 9 118471491.600 5  92315450.182 8
  88468974.817 9  22544391.19548
  24723490.539 3  24723504.555 7  24723506.258 8 129922823.933 3 101238568.231 7
  97020295.094 8  24723503.81646
 25 04 21 00 11 15.0000000  0 10G01G02G04G07G08G09G16G26G27G30      
  22494973.195 4  22494982.738 9  22494986.887 9 118211870.057 4  92113148.649 9
  88275101.306 9  22494982.84046
  20849606.953 6                                 109565372.334 6  85375631.57048
                  20849613.23448
  22732537.945 5  22732548.234 8  22732552.234 9 119460265.593 5  93085908.403 8
  89207326.562 9  22732548.11346
  22016474.055 6  22016481.531 9                 115697331.840 6  90153760.871 9
                  22016481.92648
  20333598.820 6  20333609.102 9  20333607.594 9 106853799.907 6  83262687.166 9
  79793407.375 9  20333608.37149
  22328903.344 5  22328913.898 8  22328915.270 9 117339140.862 5  91433087.314 8
  87623371.922 9  22328914.47348
  23797568.484 3                                 125057140.901 3  97447151.32546
                  23797581.06646
  25412223.648 2  25412244.848 7  25412245.621 8 133542149.819 2 104058786.757 7
  99723005.954 8  25412243.84446
  22547318.242 4  22547330.250 8  22547329.805 9 118486936.982 4  92327485.523 8
  88480508.685 9  22547330.44148
  24720252.023 4  24720265.391 8  24720266.848 8 129905799.751 4 101225302.591 8
  97007582.237 8  24720264.00046
 25 04 21 00 11 20.0000000  0 10G01G02G04G07G08G09G16G26G27G30      
  22492065.578 5  22492076.023 9  22492080.141 9 118196594.727 5  92101245.812 9
  88263694.420 9  22492075.83246
  20848373.516 6                                 109558888.785 6  85370579.45048
                  20848379.39148
  22735247.070 5  22735257.238 8  22735261.230 9 119474501.126 5  93097000.998 8
  89217956.964 9  22735257.35246
  22013869.281 6  22013877.008 9                 115683644.136 6  90143095.126 9
                  22013877.14548
  20335021.789 6  20335031.469 9  20335030.461 9 106861277.015 6  83268513.474 9
  79798990.925 9  20335031.12149
  22330544.164 5  22330554.617 8  22330555.461 9 117347759.864 5  91439803.389 8
  87629808.179 9  22330554.53548
  23799295.445 3                                 125066214.187 3  97454221.39746
                  23799307.60946
  25414098.414 2  25414118.574 8  25414120.824 8 133551999.239 2 104066461.615 8
  99730361.013 8  25414118.33246
  22550258.109 5  22550269.723 8  22550269.414 9 118502384.528 5  92339522.557 8
  88492044.163 9  22550269.85548
  24717011.148 3  24717025.168 8  24717027.094 8 129888776.139 3 101212037.446 8
  96994869.820 8  24717024.55147
 25 04 21 00 11 25.0000000  0 10G01G02G04G07G08G09G16G26G27G30      
  22489159.961 5  22489170.320 9  22489174.246 9 118181323.715 5  92089346.361 9
  88252290.759 9  22489169.97747
  20847142.391 6                                 109552420.018 6  85365538.85848
                  20847148.39548
  22737955.922 5  22737966.574 8  22737970.574 9 119488739.397 5  93108095.721 8
  89228589.410 9  22737966.93046
  22011266.172 6  22011273.473 9                 115669962.852 6  90132434.387 9
                  22011273.67248
  20336445.977 6  20336456.473 9  20336455.063 9 106868763.179 6  83274346.834 9
  79804581.226 9  20336455.85549
  22332185.547 5  22332196.199 8  22332197.016 9 117356387.826 5  91446526.452 8
  87636251.117 9  22332196.34448
  23801022.297 4                                 125075287.816 4  97461291.70446
                  23801034.54746
  25415972.766 2  25415993.398 7  25415995.520 8 133561850.188 2 104074137.607 7
  99737717.204 8  25415993.30146
  22553197.992 5  22553210.078 8  22553209.266 9 118517834.228 5  92351561.241 8
  88503581.251 9  22553209.83248
  24713772.344 3  24713785.180 8  24713787.457 8 129871753.086 3 101198772.733 8
  96982157.818 8  24713785.15247
 25 04 21 00 11 30.0000000  0 10G01G02G04G07G08G09G16G26G27G30      
  22486254.656 5  22486264.594 9  22486269.113 9 118166057.156 5  92077450.339 9
  88240890.420 9  22486264.77046
  20845914.570 6                                 109545966.167 6  85360509.88948
                  20845920.10948
  22740666.719 5  22740676.766 8  22740680.633 9 119502980.468 5  93119192.640 8
  89239223.950 9  22740676.95346
  22008664.156 6  22008671.746 9                 115656288.076 6  90121778.718 9
                  22008671.46148
  20337872.320 6  20337882.797 9  20337881.414 9 106876258.416 6  83280187.285 9
  79810178.320 9  20337882.09449
  22333828.789 5  22333840.289 8  22333840.586 9 117365024.758 5  91453256.537 8
  87642700.778 9  22333839.60548
  23802748.742 4                                 125084361.911 4  97468362.41146
                  23802761.16846
  25417848.008 2  25417868.215 7  25417869.246 8 133571702.691 2 104081814.885 7
  99745074.556 8  25417868.11746
  22556137.977 5  22556150.191 8  22556149.883 9 118533286.105 5  92363601.643 8
  88515119.954 9  22556150.35948
  24710533.734 4  24710546.844 8  24710548.438 8 129854730.693 4 101185508.602 8
  96969446.313 8  24710545.85546
 25 04 21 00 11 35.0000000  0 10G01G02G04G07G08G09G16G26G27G30      
  22483350.336 5  22483360.152 9  22483364.789 9 118150794.947 5  92065557.716 9
  88229493.326 9  22483360.21546
  20844688.883 6                                 109539527.149 6  85355492.47148
                  20844694.87548
  22743376.891 5  22743387.188 8  22743391.199 9 119517224.234 5  93130291.647 8
  89249860.502 9  22743387.00446
  22006063.031 6  22006070.457 9                 115642619.759 6  90111128.084 9
                  22006070.34848
  20339300.703 6  20339310.922 9  20339309.469 9 106883762.653 6  83286034.743 9
  79815782.143 9  20339310.11349
  22335474.492 5  22335484.867 8  22335485.676 9 117373670.643 5  91459993.567 8
  87649157.101 9  22335484.81648
  23804475.859 4                                 125093436.303 4  97475433.33846
                  23804487.71546
  25419722.508 2  25419743.598 7  25419744.949 8 133581556.758 2 104089493.347 7
  99752433.064 8  25419743.08246
  22559078.758 5  22559091.316 8  22559090.527 9 118548740.095 5  92375643.701 8
  88526660.248 9  22559091.07448
  24707293.492 3  24707307.141 8  24707309.145 8 129837708.857 3 101172244.778 8
  96956735.226 8  24707306.53146
 25 04 21 00 11 40.0000000  0 10G01G02G04G07G08G09G16G26G27G30      
  22480446.969 5  22480456.402 9  22480461.332 9 118135537.093 5  92053668.494 9
  88218099.503 9  22480456.59447
  20843466.766 6                                 109533102.965 6  85350486.60748
                  20843472.53148
  22746087.641 5  22746098.578 8  22746102.109 9 119531470.698 5  93141392.791 8
  89260499.078 9  22746098.16446
  22003462.859 6  22003471.129 9                 115628957.876 6  90100482.472 9
                  22003470.67248
  20340730.375 6  20340740.352 9  20340739.199 9 106891275.912 6  83291889.217 9
  79821392.674 9  20340739.80149
  22337121.844 5  22337132.199 8  22337132.539 9 117382325.409 5  91466737.548 8
  87655620.066 9  22337131.81348
  23806202.758 4                                 125102511.073 4  97482504.54246
                  23806214.80146
  25421597.430 2  25421619.457 8  25421621.738 8 133591412.343 2 104097172.962 8
  99759792.694 8  25421618.99246
  22562020.563 5  22562032.297 8  22562031.813 9 118564196.183 5  92387687.374 8
  88538202.106 9  22562032.41448
  24704055.852 4  24704067.578 8  24704070.082 8 129820687.633 4 101158981.558 8
  96944024.576 8  24704067.59047
 25 04 21 00 11 45.0000000  0 10G01G02G04G07G08G09G16G26G27G30      
  22477544.219 5  22477554.203 9  22477558.449 9 118120283.673 5  92041782.736 9
  88206708.979 9  22477554.07846
  20842246.641 6                                 109526693.677 6  85345492.36848
                  20842252.73848
  22748799.555 5  22748809.922 8  22748813.652 9 119545719.901 5  93152496.014 8
  89271139.685 9  22748809.85546
  22000864.484 6  22000872.082 9                 115615302.458 6  90089841.892 9
                  22000872.02048
  20342161.617 7  20342171.969 9  20342170.652 9 106898798.152 7  83297750.704 9
  79827009.933 9  20342171.21549
  22338770.586 5  22338781.027 8  22338780.941 9 117390989.102 5  91473488.481 8
  87662089.696 9  22338780.55148
  23807928.953 4                                 125111586.217 4  97489576.06946
                  23807941.65246
  25423474.250 2  25423494.520 7  25423496.645 8 133601269.482 2 104104853.795 7
  99767153.477 8  25423495.18046
  22564961.547 5  22564974.082 8  22564973.551 9 118579654.374 5  92399732.687 8
  88549745.532 9  22564973.97748
  24700816.445 3  24700829.574 8  24700830.973 8 129803667.016 3 101145718.751 8
  96931314.401 8  24700828.70347
 25 04 21 00 11 50.0000000  0 10G01G02G04G07G08G09G16G26G27G30      
  22474642.711 5  22474652.414 9  22474656.629 9 118105034.690 5  92029900.431 9
  88195321.783 9  22474652.08647
  20841029.813 6                                 109520299.279 6  85340509.71848
                  20841035.96148
  22751511.406 5  22751521.758 8  22751525.930 9 119559971.795 5  93163601.373 8
  89281782.310 9  22751521.66846
  21998267.227 6  21998274.930 9                 115601653.613 6  90079206.415 9
                  21998274.63348
  20343594.508 6  20343605.125 9  20343603.832 9 106906329.402 6  83303619.221 9
  79832633.928 9  20343604.33249
  22340420.453 5  22340431.297 8  22340431.566 9 117399661.713 5  91480246.333 8
  87668565.969 9  22340430.75448
  23809656.492 4                                 125120661.746 4  97496647.84946
                  23809668.55146
  25425349.758 2  25425370.574 7  25425371.840 8 133611128.171 2 104112535.897 7
  99774515.437 8  25425371.01646
  22567903.672 5  22567916.625 8  22567915.406 9 118595114.712 5  92411779.678 8
  88561290.548 9  22567915.83248
  24697577.359 4  24697589.781 7  24697592.223 8 129786647.094 4 101132456.492 7
  96918604.735 8  24697589.96147
 25 04 21 00 11 55.0000000  0 10G01G02G04G07G08G09G16G26G27G30      
  22471741.211 5  22471751.305 9  22471755.547 9 118089790.305 5  92018021.681 9
  88183937.975 9  22471750.74647
  20839816.141 6                                 109513919.857 6  85335538.74948
                  20839822.09848
  22754223.961 5  22754234.359 8  22754238.445 9 119574226.452 5  93174708.898 8
  89292427.005 9  22754234.22746
  21995671.383 6  21995678.773 9                 115588011.356 6  90068576.101 9
                  21995678.65248
  20345029.883 6  20345039.953 9  20345038.754 9 106913869.743 6  83309494.800 9
  79838264.689 9  20345039.17249
  22342072.406 5  22342083.180 8  22342083.594 9 117408343.300 5  91487011.195 8
  87675048.978 9  22342083.00848
  23811383.797 4                                 125129737.733 4  97503720.00746
                  23811395.74646
  25427227.422 2  25427246.887 8  25427248.586 8 133620988.449 2 104120219.199 8
  99781878.622 8  25427246.87146
  22570846.258 5  22570858.047 8  22570857.910 9 118610577.217 5  92423828.353 8
  88572837.200 9  22570858.28948
  24694338.648 4  24694352.477 8  24694353.586 8 129769627.878 4 101119194.737 8
  96905895.598 8  24694351.29747
 25 04 21 00 12 00.0000000  0 10G01G02G04G07G08G09G16G26G27G30      
  22468841.961 5  22468851.285 8  22468855.523 9 118074550.313 5  92006146.370 8
  88172557.483 9  22468850.82447
  20838604.797 6                                 109507555.299 6  85330579.36548
                  20838611.09448
  22756937.172 5  22756947.391 8  22756951.492 9 119588483.783 5  93185818.448 8
  89303073.674 9  22756947.20346
  21993076.555 6  21993083.992 9                 115574375.620 6  90057950.848 9
                  21993083.86748
  20346466.313 6  20346476.273 9  20346475.359 9 106921419.040 6  83315377.359 9
  79843902.151 9  20346475.68849
  22343726.516 5  22343737.230 8  22343737.516 9 117417033.750 5  91493782.971 8
  87681538.590 9  22343736.73448
  23813111.016 4                                 125138814.071 4  97510792.45546
                  23813122.77746
  25429103.414 2  25429123.820 8  25429125.926 8 133630850.296 2 104127903.692 8
  99789242.941 8  25429123.82846
  22573789.320 5  22573800.867 8  22573800.789 9 118626041.770 5  92435878.640 8
  88584385.378 9  22573801.13348
  24691100.047 3  24691113.223 7  24691115.004 8 129752609.290 3 101105933.556 7
  96893186.936 8  24691112.80947
 25 04 21 00 12 05.0000000  0 10G01G02G04G07G08G09G16G26G27G30      
  22465942.156 5  22465952.152 8  22465956.105 9 118059314.724 5  91994274.503 8
  88161180.283 9  22465951.25846
  20837397.070 6                                 109501205.569 6  85325631.53248
                  20837402.68448
  22759650.609 5  22759661.020 8  22759665.262 9 119602743.661 5  93196930.030 8
  89313722.258 9  22759660.76246
  21990482.852 6  21990490.543 9                 115560746.326 6  90047330.627 9
                  21990490.18448
  20347904.461 6  20347914.691 9  20347913.695 9 106928977.212 6  83321266.849 9
  79849546.243 9  20347913.87949
  22345381.523 5  22345392.648 8  22345393.156 9 117425732.982 5  91500561.576 8
  87688034.752 9  22345392.17248
  23814838.055 4                                 125147890.717 4  97517865.11945
                  23814850.16445
  25430980.477 2  25431001.293 8  25431001.895 8 133640713.621 2 104135589.377 8
  99796608.361 8  25431000.91046
  22576731.828 5  22576744.633 8  22576744.117 9 118641508.334 5  92447930.469 8
  88595935.046 9  22576744.24248
  24687861.148 3  24687875.383 8  24687876.438 8 129735591.304 3 101092672.802 8
  96880478.717 8  24687874.60947
 25 04 21 00 12 10.0000000  0 10G01G02G04G07G08G09G16G26G27G30      
  22463043.539 5  22463053.289 8  22463057.629 9 118044083.664 5  91982406.118 8
  88149806.426 9  22463053.14546
  20836191.648 6                                 109494870.753 6  85320695.30748
                  20836197.19948
  22762364.578 5  22762375.094 8  22762379.227 9 119617006.183 5  93208043.662 8
  89324372.817 9  22762374.86346
  21987890.453 6  21987898.145 9                 115547123.636 6  90036715.538 9
                  21987897.91048
  20349344.719 6  20349354.754 9  20349353.578 9 106936544.366 6  83327163.337 9
  79855197.024 9  20349353.96949
  22347039.047 6  22347049.426 8  22347050.332 9 117434441.063 6  91507347.087 8
  87694537.542 9  22347049.21548
  23816566.344 3                                 125156967.775 3  97524938.15246
                  23816577.50846
  25432857.297 2  25432877.941 7  25432878.281 8 133650578.512 2 104143276.281 7
  99803974.949 8  25432878.07846
  22579675.891 5  22579687.789 8  22579687.703 9 118656976.950 5  92459983.919 8
  88607486.266 9  22579687.76248
  24684623.938 4  24684636.551 7  24684638.078 8 129718574.021 4 101079412.586 7
  96867771.016 8  24684636.12147
 25 04 21 00 12 15.0000000  0 10G01G02G04G07G08G09G16G26G27G30      
  22460146.406 5  22460156.059 9  22460160.168 9 118028857.121 5  91970541.298 9
  88138435.968 9  22460155.73447
  20834988.766 6                                 109488550.875 6  85315770.73448
                  20834994.59848
  22765079.055 5  22765089.902 8  22765094.102 9 119631271.374 5  93219159.373 8
  89335025.352 9  22765089.45746
  21985299.703 6  21985306.934 9                 115533507.520 6  90026105.598 9
                  21985306.78148
  20350786.359 6  20350796.453 9  20350795.293 9 106944120.453 6  83333066.773 9
  79860854.500 9  20350795.66049
  22348697.844 6  22348708.305 8  22348708.824 9 117443158.021 6  91514139.504 8
  87701046.918 9  22348708.17248
  23818292.953 3                                 125166045.230 3  97532011.45945
                  23818304.96545
  25434735.281 2  25434756.355 7  25434756.480 8 133660444.990 2 104150964.403 7
  99811342.741 8  25434755.35246
  22582620.000 5  22582632.027 8  22582631.875 9 118672447.646 5  92472038.963 8
  88619039.021 9  22582631.97748
  24681384.648 3  24681398.461 8  24681400.004 8 129701557.452 3 101066152.935 8
  96855063.865 8  24681397.84447
 25 04 21 00 12 20.0000000  0 10G01G02G04G07G08G09G16G26G27G30      
  22457249.453 5  22457259.359 9  22457263.453 9 118013635.110 5  91958680.027 9
  88127068.916 9  22457259.12547
  20833789.141 6                                 109482246.055 6  85310857.88548
                  20833794.70748
  22767794.406 5  22767805.215 8  22767809.215 9 119645539.196 5  93230277.151 8
  89345679.882 9  22767804.51646
  21982709.945 6  21982717.234 9                 115519898.066 6  90015500.831 9
                  21982716.83248
  20352229.555 6  20352239.762 9  20352238.730 9 106951705.549 6  83338977.227 9
  79866518.687 9  20352239.00849
  22350358.141 5  22350368.668 8  22350369.570 9 117451883.835 5  91520938.841 8
  87707562.941 9  22350368.52748
  23820020.156 3                                 125175123.110 3  97539085.09446
                  23820032.64146
  25436612.953 2  25436634.074 8  25436635.227 8 133670313.006 2 104158653.745 8
  99818711.718 8  25436633.53546
  22585563.969 5  22585576.688 8  22585576.305 9 118687920.431 5  92484095.673 8
  88630593.341 9  22585576.21148
  24678147.203 4  24678160.543 8  24678161.863 8 129684541.648 4 101052893.882 8
  96842357.256 8  24678159.83247
 25 04 21 00 12 25.0000000  0 10G01G02G04G07G08G09G16G26G27G30      
  22454353.891 5  22454363.906 9  22454367.566 9 117998417.667 5  91946822.278 9
  88115705.238 9  22454363.28946
  20832591.828 6                                 109475956.144 6  85305956.66848
                  20832597.91048
  22770510.070 5  22770520.848 8  22770524.805 9 119659809.625 5  93241396.929 8
  89356336.347 9  22770520.30546
  21980121.000 6  21980128.785 9                 115506295.186 6  90004901.179 9
                  21980128.42248
  20353674.883 6  20353684.836 9  20353683.664 9 106959299.534 6  83344894.625 9
  79872189.512 9  20353684.11749
  22352020.922 5  22352031.156 8  22352031.703 9 117460618.436 5  91527745.006 8
  87714085.535 9  22352030.79348
  23821748.289 3                                 125184201.375 3  97546159.03046
                  23821760.31646
  25438491.648 2  25438512.051 7  25438511.578 8 133680182.674 2 104166344.311 7
  99826081.844 8  25438512.25446
  22588509.570 5  22588520.879 8  22588520.941 9 118703395.238 5  92496153.939 8
  88642149.182 9  22588520.99248
  24674909.844 3  24674922.625 8  24674923.781 8 129667526.512 3 101039635.293 8
  96829651.182 8  24674922.09847
 25 04 21 00 12 30.0000000  0 10G01G02G04G07G08G09G16G26G27G30      
  22451459.023 5  22451468.625 9  22451472.570 9 117983204.728 5  91934968.045 9
  88104344.943 9  22451468.16447
  20831397.906 6                                 109469681.142 6  85301067.05648
                  20831403.77348
  22773226.563 5  22773236.656 9  22773240.961 9 119674082.588 5  93252518.700 9
  89366994.695 9  22773236.47346
  21977534.000 6  21977541.434 9                 115492698.854 6  89994306.638 9
                  21977541.10248
  20355122.023 6  20355131.352 9  20355130.512 9 106966902.423 6  83350818.950 9
  79877866.995 9  20355131.00449
  22353684.023 5  22353694.766 8  22353695.441 9 117469361.827 5  91534558.034 8
  87720614.665 9  22353694.61748
  23823475.344 3                                 125193280.021 3  97553233.26346
                  23823488.20346
  25440370.234 2  25440391.191 7  25440390.277 8 133690053.826 2 104174036.137 7
  99833453.145 8  25440390.59846
  22591453.820 5  22591466.277 8  22591466.254 9 118718872.026 5  92508213.754 8
  88653706.486 9  22591466.15248
  24671670.844 3  24671685.020 8  24671685.902 8 129650512.094 3 101026377.356 8
  96816945.612 8  24671684.56346
 25 04 21 00 12 35.0000000  0 10G01G02G04G07G08G09G16G26G27G30      
  22448565.273 5  22448574.777 9  22448578.313 9 117967996.366 5  91923117.382 9
  88092988.052 9  22448573.96147
  20830206.602 6                                 109463421.127 6  85296189.12148
                  20830212.61748
  22775942.609 5  22775953.820 8  22775957.469 9 119688358.121 5  93263642.462 8
  89377654.984 9  22775952.88746
  21974947.625 6  21974955.410 9                 115479109.155 6  89983717.259 9
                  21974955.28948
  20356570.148 6  20356580.160 9  20356578.945 9 106974514.189 6  83356750.189 9
  79883551.095 9  20356579.41449
  22355349.688 5  22355360.398 8  22355360.859 9 117478114.025 5  91541377.908 8
  87727150.380 9  22355360.16048
  23825202.875 4                                 125202359.070 4  97560307.81145
                  23825216.03545
  25442248.273 2  25442269.676 8  25442270.000 8 133699926.565 2 104181729.133 8
  99840825.619 8  25442269.25446
  22594399.961 5  22594411.695 8  22594411.852 9 118734350.816 5  92520275.132 8
  88665265.297 9  22594411.81648
  24668433.430 4  24668447.426 8  24668448.168 8 129633498.394 4 101013119.924 8
  96804240.593 8  24668446.80947
 25 04 21 00 12 40.0000000  0 10G01G02G04G07G08G09G16G26G27G30      
  22445671.492 5  22445681.395 9  22445685.074 9 117952792.540 5  91911270.249 9
  88081634.577 9  22445680.98447
  20829017.867 6                                 109457176.018 6  85291322.80748
                  20829024.13348
  22778659.914 5  22778670.578 8  22778674.367 9 119702636.197 5  93274768.213 8
  89388317.148 9  22778670.07846
  21972362.828 6  21972370.734 9                 115465526.057 6  89973133.033 9
                  21972370.39548
  20358020.258 7  20358030.395 9  20358029.043 9 106982134.840 7  83362688.342 9
  79889241.831 9  20358029.52049
  22357016.875 5  22357026.945 8  22357028.063 9 117486874.950 5  91548204.589 8
  87733692.628 9  22357027.33248
  23826931.094 3                                 125211438.499 3  97567382.62645
                  23826943.64545
  25444126.922 2  25444148.309 8  25444149.941 8 133709800.901 2 104189423.358 8
  99848199.239 8  25444148.78946
  22597345.844 5  22597357.594 8  22597357.797 9 118749831.610 5  92532338.046 8
  88676825.596 9  22597357.67648
  24665197.414 4  24665209.781 7  24665210.727 8 129616485.418 4 100999863.104 7
  96791536.109 8  24665209.38747
 25 04 21 00 12 45.0000000  0 10G01G02G04G07G08G09G16G26G27G30      
  22442779.344 5  22442788.965 9  22442792.832 9 117937593.280 5  91899426.688 9
  88070284.489 9  22442788.72347
  20827832.789 6                                 109450945.832 6  85286468.11748
                  20827838.67648
  22781377.016 4  22781388.242 8  22781392.039 9 119716916.755 4  93285895.884 8
  89398981.169 9  22781387.68446
  21969779.391 6  21969787.574 9                 115451949.553 6  89962553.941 9
                  21969786.99248
  20359471.828 6  20359481.941 9  20359480.918 9 106989764.320 6  83368633.387 9
  79894939.168 9  20359481.35549
  22358685.195 5  22358696.109 8  22358696.762 9 117495644.618 5  91555038.074 8
  87740241.376 9  22358696.05548
  23828659.602 3                                 125220518.363 3  97574457.84145
                  23828671.57045
  25446006.430 2  25446027.512 8  25446028.219 8 133719676.723 2 104197118.816 8
  99855574.006 8  25446027.87946
  22600292.055 5  22600304.098 8  22600304.152 9 118765314.333 5  92544402.478 8
  88688387.345 9  22600303.84448
  24661959.289 4  24661972.359 8  24661973.484 8 129599473.143 4 100986606.740 8
  96778832.129 8  24661972.27047
 25 04 21 00 12 50.0000000  0 10G01G02G04G07G08G09G16G26G27G30      
  22439887.953 5  22439897.180 9  22439901.219 9 117922398.721 5  91887586.791 9
  88058937.918 9  22439897.37147
  20826649.758 6                                 109444730.741 6  85281625.19648
                  20826656.02048
  22784094.773 4  22784106.316 8  22784110.109 9 119731199.934 4  93297025.628 8
  89409647.159 9  22784106.24246
  21967197.219 6  21967204.930 9                 115438379.835 6  89951980.135 9
                  21967204.62148
  20360925.445 7  20360935.512 9  20360934.367 9 106997402.763 7  83374585.411 9
  79900643.184 9  20360934.91849
  22360355.922 5  22360366.715 8  22360367.254 9 117504423.091 5  91561878.445 8
  87746796.734 9  22360366.68848
  23830387.188 3                                 125229598.718 3  97581533.39246
                  23830399.23046
  25447886.438 1  25447907.273 7  25447907.887 8 133729554.290 1 104204815.559 7
  99862950.052 8  25447907.40646
  22603238.625 5  22603250.621 8  22603250.879 9 118780799.141 5  92556468.533 8
  88699950.642 9  22603250.78148
  24658721.586 4  24658735.219 8  24658736.203 8 129582461.694 4 100973351.118 8
  96766128.817 8  24658735.07047
 25 04 21 00 12 55.0000000  0 10G01G02G04G07G08G09G16G26G27G30      
  22436997.438 5  22437007.145 9  22437010.660 9 117907208.770 5  91875750.490 9
  88047594.791 9  22437006.85246
  20825470.031 6                                 109438530.641 6  85276793.95448
                  20825476.31648
  22786814.023 5  22786824.652 8  22786828.531 9 119745485.634 5  93308157.299 8
  89420315.015 9  22786824.55546
  21964616.563 6  21964624.043 9                 115424816.791 6  89941411.528 9
                  21964623.75048
  20362380.539 6  20362391.133 9  20362389.617 9 107005050.058 6  83380544.345 9
  79906353.828 9  20362390.19949
  22362028.273 5  22362038.922 8  22362039.387 9 117513210.325 5  91568725.616 8
  87753358.609 9  22362038.70748
  23832115.211 3                                 125238679.455 3  97588609.26046
                  23832127.48446
  25449766.383 2  25449787.926 8  25449789.043 8 133739433.344 2 104212513.482 8
  99870327.241 8  25449787.51246
  22606185.742 5  22606198.125 8  22606197.922 9 118796285.898 5  92568536.128 8
  88711515.395 9  22606197.82448
  24655484.883 3  24655499.305 8  24655499.211 8 129565451.081 3 100960096.107 8
  96753426.090 8  24655497.78947
 25 04 21 00 13 00.0000000  0 10G01G02G04G07G08G09G16G26G27G30      
  22434107.906 5  22434117.660 9  22434121.160 9 117892023.382 5  91863917.736 9
  88036255.079 9  22434117.10547
  20824292.672 6                                 109432345.475 6  85271974.34648
                  20824299.37948
  22789533.203 5  22789544.145 9  22789547.656 9 119759773.755 5  93319290.878 9
  89430984.677 9  22789543.55546
  21962036.609 6  21962044.383 9                 115411260.355 6  89930848.093 9
                  21962044.12148
  20363837.773 6  20363847.586 9  20363846.570 9 107012706.133 6  83386510.108 9
  79912071.013 9  20363847.16849
  22363702.203 5  22363712.551 8  22363713.297 9 117522006.207 5  91575579.528 8
  87759926.940 9  22363712.74248
  23833842.703 4                                 125247760.578 4  97595685.41945
                  23833855.29745
  25451645.586 2  25451667.766 7  25451668.965 8 133749313.945 2 104220212.589 7
  99877705.563 8  25451667.66846
  22609132.820 5  22609145.809 8  22609145.199 9 118811774.560 5  92580605.165 8
  88723081.563 9  22609145.19148
  24652247.875 3  24652261.523 8  24652262.246 8 129548441.137 3 100946841.630 8
  96740723.859 8  24652261.36747
 25 04 21 00 13 05.0000000  0 10G01G02G04G07G08G09G16G26G27G30      
  22431218.578 5  22431228.629 9  22431232.379 9 117876842.698 5  91852088.631 9
  88024918.877 9  22431228.33647
  20823119.039 6                                 109426175.354 6  85267166.46648
                  20823125.10948
  22792251.914 4  22792263.438 8  22792267.109 9 119774064.402 4  93330426.427 8
  89441656.252 9  22792262.86346
  21959457.914 6  21959466.316 9                 115397710.692 6  89920289.913 9
                  21959465.85248
  20365296.383 6  20365306.430 9  20365305.109 9 107020371.093 6  83392482.800 9
  79917794.842 9  20365305.74649
  22365377.703 5  22365388.332 8  22365388.754 9 117530810.843 5  91582440.275 8
  87766501.831 9  22365388.20748
  23835571.859 4                                 125256842.224 4  97602762.01945
                  23835583.45345
  25453527.398 1  25453548.723 7  25453548.668 8 133759196.138 1 104227913.016 7
  99885085.113 8  25453548.09446
  22612080.422 5  22612093.434 8  22612093.035 9 118827265.208 5  92592675.780 8
  88734649.238 9  22612092.91848
  24649012.531 4  24649025.359 8  24649025.469 8 129531432.083 4 100933587.816 8
  96728022.299 8  24649024.59447
 25 04 21 00 13 10.0000000  0 10G01G02G04G07G08G09G16G26G27G30      
  22428330.742 5  22428340.387 9  22428344.512 9 117861666.585 5  91840263.119 9
  88013586.079 9  22428340.33647
  20821948.055 6                                 109420020.178 6  85262370.22048
                  20821953.81648
  22794972.461 5  22794983.086 8  22794986.742 9 119788357.429 5  93341563.837 8
  89452329.592 9  22794982.46546
  21956880.734 6  21956888.836 9                 115384167.674 6  89909736.916 9
                  21956888.67248
  20366756.703 7  20366766.605 9  20366765.332 9 107028044.797 7  83398462.306 9
  79923525.196 9  20366766.14549
  22367054.773 6  22367065.418 8  22367065.977 9 117539624.094 6  91589307.731 8
  87773083.138 9  22367065.18848
  23837298.781 3                                 125265924.157 3  97609838.82645
                  23837311.91445
  25455407.906 2  25455428.566 7  25455429.875 8 133769079.860 2 104235614.613 7
  99892465.796 8  25455428.82446
  22615029.266 5  22615041.195 8  22615041.211 9 118842757.724 5  92604747.852 8
  88746218.301 9  22615041.07848
  24645774.945 3  24645788.168 8  24645788.801 8 129514423.710 3 100920334.559 8
  96715321.271 8  24645787.95347
 25 04 21 00 13 15.0000000  0 10G01G02G04G07G08G09G16G26G27G30      
  22425444.055 5  22425453.664 9  22425457.438 9 117846495.173 5  91828441.254 9
  88002256.796 9  22425453.28146
  20820779.117 6                                 109413880.053 6  85257585.71748
                  20820785.53948
  22797692.320 4  22797703.246 8  22797707.035 9 119802652.940 4  93352703.164 8
  89463004.791 9  22797702.99646
  21954304.859 6  21954312.930 9                 115370631.386 6  89899189.155 9
                  21954312.84848
  20368218.695 6  20368228.543 9  20368227.145 9 107035727.331 6  83404448.690 9
  79929262.148 9  20368228.13749
  22368733.461 5  22368743.805 8  22368744.641 9 117548446.064 5  91596181.966 8
  87779670.946 9  22368743.82848
  23839027.461 3                                 125275006.604 3  97616915.99545
                  23839040.30145
  25457288.375 2  25457310.570 7  25457311.723 8 133778965.231 2 104243317.436 7
  99899847.667 8  25457310.13346
  22617977.906 5  22617989.563 8  22617989.754 9 118858252.182 5  92616821.415 8
  88757788.801 9  22617989.53948
  24642538.930 3  24642551.676 8  24642552.559 8 129497416.180 3 100907081.934 8
  96702620.860 8  24642551.58247
 25 04 21 00 13 20.0000000  0 10G01G02G04G07G08G09G16G26G27G30      
  22422558.180 5  22422567.590 9  22422571.145 9 117831328.484 5  91816623.067 9
  87990931.027 9  22422567.08647
  20819613.352 6                                 109407754.978 6  85252812.92848
                  20819619.88348
  22800413.445 4  22800423.664 8  22800427.957 9 119816950.941 4  93363844.444 8
  89473681.817 9  22800423.84846
  21951730.250 6  21951738.340 9                 115357101.857 6  89888646.667 9
                  21951738.36348
  20369682.648 6  20369692.293 9  20369690.762 9 107043418.701 6  83410441.951 9
  79935005.702 9  20369691.78549
  22370413.703 5  22370424.465 8  22370425.168 9 117557276.701 5  91603062.986 8
  87786265.250 9  22370424.31648
  23840756.477 3                                 125284089.496 3  97623993.59945
                  23840768.75045
  25459169.641 1  25459190.777 7  25459192.590 8 133788852.22911 104251021.539 7
  99907230.769 8  25459191.80146
  22620926.703 5  22620938.262 8  22620938.383 9 118873748.566 5  92628896.517 8
  88769360.745 9  22620938.44148
  24639301.938 4  24639315.527 8  24639316.090 8 129480409.500 4 100893830.015 8
  96689921.081 8  24639315.31647
 25 04 21 00 13 25.0000000  0 10G01G02G04G07G08G09G16G26G27G30      
  22419672.578 5  22419682.203 9  22419686.031 9 117816166.515 5  91804808.558 9
  87979608.797 9  22419681.85947
  20818451.000 6                                 109401644.930 6  85248051.86148
                  20818457.15648
  22803134.820 4  22803145.133 8  22803149.109 9 119831251.344 4  93374987.598 8
  89484360.674 9  22803145.07046
  21949157.273 6  21949164.973 9                 115343579.126 6  89878109.476 9
                  21949165.04748
  20371147.398 7  20371157.352 9  20371156.117 9 107051118.870 7  83416442.091 9
  79940755.824 9  20371156.98849
  22372095.727 5  22372106.262 8  22372107.227 9 117566116.006 5  91609950.747 8
  87792866.019 9  22372106.41848
  23842485.500 4                                 125293172.813 4  97631071.46745
                  23842497.23045
  25461052.633 1  25461072.902 7  25461073.789 8 133798740.823 1 104258726.910 7
  99914615.071 8  25461073.17246
  22623875.750 5  22623887.367 8  22623887.648 9 118889246.883 5  92640973.082 8
  88780934.139 9  22623887.65648
  24636065.695 4  24636079.500 8  24636080.242 8 129463403.668 4 100880578.698 8
  96677221.929 8  24636079.12947
 25 04 21 00 13 30.0000000  0 10G01G02G04G07G08G09G16G26G27G30      
  22416788.203 5  22416797.766 9  22416801.910 9 117801009.221 5  91792997.711 9
  87968290.063 9  22416797.60947
  20817291.414 6                                 109395549.907 6  85243302.49148
                  20817297.36748
  22805855.688 4  22805867.027 8  22805870.613 9 119845554.131 4  93386132.598 8
  89495041.298 9  22805866.81346
  21946585.094 6  21946593.262 9                 115330062.996 6  89867577.433 9
                  21946592.97748
  20372614.602 6  20372624.422 9  20372622.945 9 107058827.782 6  83422449.028 9
  79946512.472 9  20372623.95749
  22373779.891 5  22373790.113 8  22373790.832 9 117574963.933 5  91616845.230 8
  87799473.224 9  22373790.05148
  23844213.563 3                                 125302256.508 3  97638149.62446
                  23844225.75046
  25462933.695 1  25462955.156 7  25462955.957 8 133808630.974 1 104266433.505 7
  99922000.542 8  25462955.08246
  22626824.938 5  22626837.422 8  22626837.094 9 118904747.045 5  92653051.121 8
  88792508.898 9  22626837.30148
  24632830.625 4  24632843.730 8  24632844.250 8 129446398.657 4 100867328.074 8
  96664523.396 8  24632843.19947
 25 04 21 00 13 35.0000000  0 10G01G02G04G07G08G09G16G26G27G30      
  22413905.023 5  22413914.297 9  22413918.469 9 117785856.680 5  91781190.539 9
  87956974.871 9  22413914.27747
  20816134.438 6                                 109389469.990 6  85238564.89748
                  20816140.35948
  22808578.797 4  22808589.234 8  22808592.934 9 119859859.353 4  93397279.502 8
  89505723.734 9  22808588.96946
  21944014.023 6  21944022.203 9                 115316553.700 6  89857050.705 9
                  21944022.37948
  20374083.055 7  20374093.316 9  20374091.465 9 107066545.506 7  83428462.829 9
  79952275.701 9  20374092.63349
  22375464.844 5  22375475.793 8  22375476.395 9 117583820.497 5  91623746.449 8
  87806086.891 9  22375475.51648
  23845941.805 3                                 125311340.633 3  97645228.14045
                  23845954.36745
  25464816.547 2  25464837.527 7  25464839.477 8 133818522.760 2 104274141.347 7
  99929387.216 8  25464837.63746
  22629775.383 5  22629787.109 8  22629786.926 9 118920249.129 5  92665130.623 8
  88804085.102 9  22629787.14148
  24629594.266 4  24629607.672 8  24629608.449 8 129429394.552 4 100854078.078 8
  96651825.513 8  24629607.48447
 25 04 21 00 13 40.0000000  0 10G01G02G04G07G08G09G16G26G27G30      
  22411021.711 5  22411031.973 9  22411036.012 9 117770708.897 5  91769387.062 9
  87945663.198 9  22411031.71147
  20814980.336 6                                 109383405.091 6  85233839.00948
                  20814986.14548
  22811300.969 4  22811311.539 8  22811315.504 9 119874166.931 4  93408428.224 8
  89516407.938 9  22811311.71946
  21941445.156 6  21941453.242 9                 115303051.199 6  89846529.291 9
                  21941452.99248
  20375553.273 6  20375563.684 9  20375561.914 9 107074271.936 6  83434483.413 9
  79958045.429 9  20375562.83649
  22377151.828 5  22377162.484 8  22377163.270 9 117592685.694 5  91630654.378 8
  87812706.975 9  22377162.52748
  23847670.570 4                                 125320425.160 4  97652306.93645
                  23847682.96145
  25466699.641 1  25466719.738 7  25466721.012 8 133828416.161 1 104281850.437 7
  99936775.103 8  25466720.30546
  22632725.609 5  22632737.707 8  22632737.289 9 118935753.055 5  92677211.605 8
  88815662.686 9  22632737.56348
  24626357.852 3  24626371.719 8  24626372.871 8 129412391.235 3 100840828.805 8
  96639128.265 8  24626372.02347
 25 04 21 00 13 45.0000000  0 10G01G02G04G07G08G09G16G26G27G30      
  22408141.039 5  22408150.145 9  22408154.195 9 117755565.859 5  91757587.316 9
  87934355.115 9  22408150.22346
  20813829.031 6                                 109377355.286 6  85229124.87148
                  20813835.00448
  22814024.313 4  22814034.762 9  22814038.508 9 119888476.901 4  93419578.856 9
  89527093.933 9  22814034.84846
  21938876.836 6  21938884.805 9                 115289555.496 6  89836013.168 9
                  21938884.79748
  20377025.320 6  20377035.262 9  20377033.852 9 107082007.157 6  83440510.865 9
  79963821.726 9  20377034.84449
  22378840.359 5  22378850.652 8  22378852.070 9 117601559.479 5  91637569.020 8
  87819333.507 9  22378851.00848
  23849399.211 3                                 125329510.174 3  97659386.11945
                  23849411.65645
  25468582.594 1  25468602.938 7  25468603.566 8 133838311.140 1 104289560.797 7
  99944164.194 8  25468603.16446
  22635676.734 5  22635688.465 8  22635688.031 9 118951258.855 5  92689294.023 8
  88827241.667 9  22635688.19548
  24623124.055 3  24623137.645 8  24623137.320 8 129395388.866 3 100827580.191 8
  96626431.676 8  24623136.44547
 25 04 21 00 13 50.0000000  0 10G01G02G04G07G08G09G16G26G27G30      
  22405259.930 5  22405269.738 9  22405273.629 9 117740427.616 5  91745791.296 9
  87923050.598 9  22405269.30147
  20812680.891 6                                 109371320.553 6  85224422.49748
                  20812686.57448
  22816748.305 4  22816758.301 8  22816761.938 9 119902789.234 4  93430731.292 8
  89537781.672 9  22816758.43446
  21936310.391 6  21936317.848 9                 115276066.603 6  89825502.328 9
                  21936317.90248
  20378499.070 7  20378509.168 9  20378507.449 9 107089751.109 7  83446545.097 9
  79969604.529 9  20378508.46949
  22380530.461 5  22380541.563 8  22380542.277 9 117610441.853 5  91644490.325 8
  87825966.421 9  22380541.58648
  23851129.242 3                                 125338595.593 3  97666465.66545
                  23851140.63345
  25470465.508 2  25470486.617 7  25470487.105 8 133848207.767 2 104297272.442 7
  99951554.477 8  25470486.48046
  22638627.609 5  22638638.820 8  22638638.895 9 118966766.522 5  92701377.897 8
  88838822.030 9  22638639.37548
  24619888.297 4  24619901.934 8  24619902.016 8 129378387.348 4 100814332.275 8
  96613735.761 8  24619901.26247
 25 04 21 00 13 55.0000000  0 10G01G02G04G07G08G09G16G26G27G30      
  22402379.758 5  22402389.461 9  22402393.727 9 117725294.142 5  91733998.988 9
  87911749.648 9  22402389.71147
  20811535.320 6                                 109365300.902 6  85219731.85948
                  20811540.94148
  22819471.688 4  22819482.492 8  22819485.793 8 119917103.865 4  93441885.530 8
  89548471.155 8  22819482.47746
  21933744.234 6  21933752.363 9                 115262584.530 6  89814996.824 9
                  21933752.33248
  20379974.047 7  20379984.309 9  20379982.809 9 107097503.752 7  83452586.119 9
  79975393.838 9  20379983.79349
  22382222.516 5  22382233.422 8  22382234.328 9 117619332.768 5  91651418.313 8
  87832605.730 9  22382233.53148
  23852857.664 4                                 125347681.408 4  97673545.49045
                  23852869.69545
  25472348.641 2  25472370.125 7  25472371.648 8 133858105.940 2 104304985.294 7
  99958945.973 8  25472370.16446
  22641578.703 5  22641590.527 8  22641590.453 9 118982276.002 5  92713463.172 8
  88850403.753 9  22641590.66448
  24616652.984 3  24616666.262 8  24616666.953 8 129361386.728 3 100801085.036 8
  96601040.469 8  24616665.90647
 25 04 21 00 14 00.0000000  0 10G01G02G04G07G08G09G16G26G27G30      
  22399501.703 5  22399510.316 9  22399514.895 9 117710165.538 5  91722210.469 9
  87900452.300 9  22399510.93847
  20810392.664 6                                 109359296.411 6  85215053.03748
                  20810398.35948
  22822195.711 4  22822207.039 8  22822210.203 9 119931420.848 4  93453041.590 8
  89559162.389 9  22822206.95346
  21931180.398 6  21931188.234 9                 115249109.341 6  89804496.681 9
                  21931188.22349
  20381450.914 6  20381461.609 9  20381459.797 9 107105265.168 6  83458633.964 9
  79981189.695 9  20381460.62549
  22383916.547 5  22383926.730 8  22383927.738 9 117628232.307 5  91658352.994 8
  87839251.480 9  22383927.07048
  23854586.734 4                                 125356767.778 4  97680625.75346
                  23854598.80946
  25474233.344 2  25474254.063 7  25474254.641 8 133868005.883 2 104312699.440 7
  99966338.685 8  25474254.05546
  22644530.742 5  22644542.344 8  22644541.945 9 118997787.340 5  92725549.908 8
  88861986.880 9  22644542.27048
  24613418.719 4  24613431.238 8  24613432.000 8 129344387.012 4 100787838.489 8
  96588345.910 8  24613431.09447
 25 04 21 00 14 05.0000000  0 10G01G02G04G07G08G09G16G26G27G30      
  22396623.578 5  22396633.023 9  22396636.816 9 117695041.765 5  91710425.734 9
  87889158.598 9  22396632.97346
  20809252.922 6                                 109353307.078 6  85210386.03048
                  20809258.39548
  22824920.820 4  22824932.148 8  22824935.309 9 119945740.210 4  93464199.516 8
  89569855.396 9  22824932.06646
  21928617.188 6  21928625.094 9                 115235641.087 6  89794001.933 9
                  21928625.28148
  20382929.563 7  20382940.004 9  20382938.543 9 107113035.329 7  83464688.640 9
  79986992.091 9  20382939.31349
  22385611.594 5  22385621.797 8  22385622.945 9 117637140.434 5  91665294.388 8
  87845903.640 9  22385622.42248
  23856315.758 4                                 125365854.578 4  97687706.34645
                  23856327.77045
  25476117.852 2  25476138.523 7  25476138.262 8 133877907.433 2 104320414.927 7
  99973732.671 8  25476138.34046
  22647482.813 5  22647494.836 8  22647494.242 9 119013300.566 5  92737638.118 8
  88873571.402 9  22647494.62948
  24610182.773 4  24610196.723 8  24610197.391 8 129327388.298 4 100774592.756 8
  96575652.056 8  24610196.16847
 25 04 21 00 14 10.0000000  0 10G01G02G04G07G08G09G16G26G27G30      
  22393746.086 5  22393756.016 9  22393759.738 9 117679922.758 5  91698644.689 9
  87877868.428 9  22393756.07446
  20808116.000 6                                 109347332.773 6  85205730.72548
                  20808121.46148
  22827646.375 4  22827657.371 8  22827660.715 9 119960061.752 4  93475359.146 8
  89580550.035 9  22827657.41046
  21926055.578 6  21926063.445 9                 115222179.595 6  89783512.456 9
                  21926063.62148
  20384409.773 6  20384420.379 9  20384418.777 9 107120814.088 6  83470749.998 9
  79992800.893 9  20384419.53549
  22387308.313 5  22387318.586 8  22387319.602 9 117646057.011 5  91672242.352 8
  87852562.097 9  22387319.17648
  23858045.680 4                                 125374941.773 4  97694787.26845
                  23858056.83245
  25478001.930 1  25478022.918 7  25478024.004 8 133887810.460 1 104328131.512 7
  99981127.776 8  25478023.01646
  22650434.625 5  22650447.188 8  22650446.586 9 119028815.497 5  92749727.645 8
  88885157.201 9  22650447.02048
  24606947.625 2  24606962.242 8  24606962.652 8 129310390.380 2 100761347.606 8
  96562958.823 8  24606961.64547
 25 04 21 00 14 15.0000000  0 10G01G02G04G07G08G09G16G26G27G30      
  22390869.852 5  22390879.332 9  22390883.707 9 117664808.617 5  91686867.456 9
  87866581.924 9  22390879.70746
  20806982.086 6                                 109341373.630 6  85201087.24148
                  20806987.60248
  22830372.867 4  22830383.043 8  22830386.484 9 119974385.643 4  93486520.593 8
  89591246.419 9  22830383.15246
  21923495.563 6  21923503.301 9                 115208725.003 6  89773028.377 9
                  21923503.19548
  20385891.852 6  20385902.238 9  20385900.742 9 107128601.585 6  83476818.174 9
  79998616.228 9  20385901.48849
  22389006.344 5  22389017.598 8  22389017.934 9 117654982.139 5  91679196.988 8
  87859226.961 9  22389017.78548
  23859774.148 4                                 125384029.459 4  97701868.55545
                  23859785.93845
  25479886.930 1  25479908.250 7  25479909.020 8 133897715.211 1 104335849.465 7
  99988524.125 8  25479908.23046
  22653387.508 5  22653399.363 8  22653399.398 9 119044332.290 5  92761818.641 8
  88896744.394 9  22653399.67248
  24603714.828 3  24603727.816 8  24603728.438 8 129293393.484 3 100748103.281 8
  96550266.332 8  24603727.26647
 25 04 21 00 14 20.0000000  0 10G01G02G04G07G08G09G16G26G27G30      
  22387994.633 5  22388004.332 9  22388008.410 9 117649699.355 5  91675093.999 9
  87855299.027 9  22388004.67247
  20805850.805 6                                 109335429.723 6  85196455.62548
                  20805856.42248
  22833098.695 5  22833109.355 8  22833112.656 9 119988711.790 5  93497683.808 8
  89601944.481 9  22833109.57446
  21920936.414 6  21920944.172 9                 115195277.292 6  89762549.654 9
                  21920944.24248
  20387375.305 6  20387385.883 9  20387384.277 9 107136397.703 6  83482893.071 9
  80004438.002 9  20387385.03149
  22390706.211 5  22390717.344 8  22390717.852 9 117663915.763 5  91686158.241 8
  87865898.166 9  22390717.85948
  23861503.234 4                                 125393117.589 4  97708950.19145
                  23861515.07445
  25481771.578 2  25481792.238 7  25481793.340 8 133907621.539 2 104343568.652 7
  99995921.702 8  25481792.84446
  22656340.570 5  22656353.051 8  22656352.410 9 119059850.849 5  92773910.993 8
  88908332.904 9  22656352.89148
  24600479.219 3  24600493.453 8  24600494.004 8 129276397.537 3 100734859.689 8
  96537574.542 8  24600493.14147
 25 04 21 00 14 25.0000000  0 10G01G02G04G07G08G09G16G26G27G30      
  22385120.758 5  22385130.090 9  22385134.203 9 117634594.892 5  91663324.301 9
  87844019.726 9  22385130.29347
  20804722.555 6                                 109329500.844 6  85191835.72648
                  20804728.17648
  22835825.156 4  22835835.773 8  22835839.414 9 120003040.151 4  93508848.729 8
  89612644.189 9  22835836.03147
  21918378.781 6  21918386.750 9                 115181836.462 6  89752076.265 9
                  21918386.55548
  20388860.609 6  20388871.063 9  20388869.633 9 107144202.433 6  83488974.679 9
  80010266.218 9  20388870.24649
  22392408.406 5  22392418.598 8  22392419.438 9 117672857.826 5  91693126.086 8
  87872575.673 9  22392419.41848
  23863233.625 4                                 125402206.131 4  97716032.13745
                  23863244.69545
  25483656.906 1  25483678.566 7  25483678.707 8 133917529.441 1 104351289.096 7
 100003320.439 8  25483678.27746
  22659294.242 5  22659306.340 8  22659305.996 9 119075371.138 5  92786004.682 8
  88919922.686 9  22659306.28148
  24597245.734 3  24597259.809 8  24597260.059 8 129259402.452 3 100721616.772 8
  96524883.419 8  24597259.05147
 25 04 21 00 14 30.0000000  0 10G01G02G04G07G08G09G16G26G27G30      
  22382246.648 5  22382256.785 9  22382260.852 9 117619495.412 5  91651558.473 9
  87832744.156 9  22382256.83647
  20803597.047 6                                 109323587.205 6  85187227.69648
                  20803602.91448
  22838551.836 5  22838562.891 8  22838566.355 9 120017370.809 5  93520015.453 8
  89623345.638 9  22838563.14146
  21915822.336 6  21915830.117 9                 115168402.643 6  89741608.360 9
                  21915830.13348
  20390347.430 7  20390357.754 9  20390356.324 9 107152015.913 7  83495063.098 9
  80016100.951 9  20390357.16049
  22394111.969 5  22394122.484 8  22394122.695 9 117681808.462 5  91700100.591 8
  87879259.572 9  22394122.75448
  23864962.711 4                                 125411295.205 4  97723114.51245
                  23864974.55545
  25485542.492 1  25485564.652 7  25485565.301 8 133927439.096 1 104359010.837 7
 100010720.465 8  25485564.38346
  22662247.688 5  22662260.488 8  22662259.730 9 119090893.264 5  92798099.850 8
  88931513.881 9  22662260.14148
  24594012.109 4  24594025.863 8  24594026.383 8 129242408.415 4 100708374.696 8
  96512193.096 8  24594025.34447
 25 04 21 00 14 35.0000000  0 10G01G02G04G07G08G09G16G26G27G30      
  22379374.672 5  22379384.504 9  22379388.270 9 117604400.810 5  91639796.451 9
  87821472.219 9  22379384.64847
  20802474.680 6                                 109317688.708 6  85182631.46648
                  20802480.78148
  22841279.922 4  22841290.508 8  22841294.063 9 120031703.693 4  93531183.898 8
  89634048.728 9  22841290.77046
  21913266.469 6  21913274.891 9                 115154975.741 6  89731145.846 9
                  21913275.02349
  20391835.766 6  20391846.531 9  20391844.883 9 107159838.032 6  83501158.255 9
  80021942.135 9  20391845.52049
  22395816.500 5  22395826.832 8  22395827.598 9 117690767.546 5  91707081.694 8
  87885949.793 9  22395827.49648
  23866692.602 4                                 125420384.747 4  97730197.24146
                  23866704.55546
  25487429.531 1  25487450.438 7  25487451.570 8 133937350.394 1 104366733.892 7
 100018121.687 8  25487450.02346
  22665201.906 5  22665214.352 8  22665213.934 9 119106417.140 5  92810196.335 8
  88943106.349 9  22665214.31348
  24590778.211 3  24590792.016 8  24590792.777 8 129225415.370 3 100695133.348 8
  96499503.489 8  24590791.45347
 25 04 21 00 14 40.0000000  0 10G01G02G04G07G08G09G16G26G27G30      
  22376503.344 5  22376512.859 9  22376516.848 9 117589311.053 5  91628038.218 9
  87810203.904 9  22376512.97347
  20801354.906 6                                 109311805.274 6  85178046.97948
                  20801360.96548
  22844006.898 4  22844018.617 9  22844022.180 9 120046038.687 4  93542354.016 9
  89644753.414 9  22844018.76646
  21910713.469 6  21910721.367 9                 115141555.706 6  89720688.669 9
                  21910721.28948
  20393326.016 6  20393336.176 9  20393335.023 9 107167668.672 6  83507260.060 9
  80027789.695 9  20393335.57849
  22397523.328 5  22397533.348 8  22397534.000 9 117699735.010 5  91714069.315 8
  87892646.254 9  22397533.97748
  23868422.211 4                                 125429474.705 4  97737280.30245
                  23868434.32845
  25489315.219 1  25489336.406 7  25489336.895 8 133947263.171 1 104374458.145 7
 100025524.092 8  25489335.73846
  22668156.305 5  22668168.418 8  22668168.352 9 119121942.682 5  92822294.137 8
  88954700.077 9  22668168.83648
  24587544.859 3  24587558.922 8  24587559.121 8 129208423.281 3 100681892.723 8
  96486814.568 8  24587557.73447
 25 04 21 00 14 45.0000000  0 10G01G02G04G07G08G09G16G26G27G30      
  22373632.500 5  22373642.379 9  22373646.457 9 117574226.284 5  91616283.855 9
  87798939.319 9  22373642.48047
  20800238.109 6                                 109305937.043 6  85173474.33648
                  20800244.50048
  22846736.102 5  22846746.914 9  22846750.441 9 120060375.983 5  93553525.869 9
  89655459.777 9  22846747.01247
  21908160.742 6  21908169.129 9                 115128142.658 6  89710236.942 9
                  21908168.89148
  20394817.766 6  20394828.043 9  20394826.762 9 107175507.988 6  83513368.606 9
  80033643.721 9  20394827.29349
  22399230.820 5  22399241.688 8  22399242.016 9 117708710.963 5  91721063.548 8
  87899349.064 9  22399241.90248
  23870151.789 4                                 125438565.183 4  97744363.78045
                  23870164.13745
  25491202.414 1  25491223.129 7  25491223.547 8 133957177.714 1 104382183.714 7
 100032927.734 8  25491222.91446
  22671111.484 5  22671123.762 8  22671123.199 9 119137470.037 5  92834393.351 8
  88966295.140 9  22671123.66848
  24584311.547 4  24584325.859 8  24584326.066 8 129191432.134 4 100668652.927 8
  96474126.412 8  24584324.54347
 25 04 21 00 14 50.0000000  0 10G01G02G04G07G08G09G16G26G27G30      
  22370763.039 5  22370772.809 9  22370776.805 9 117559146.468 5  91604533.372 9
  87787678.436 9  22370772.56347
  20799124.453 6                                 109300083.993 6  85168913.51748
                  20799130.61348
  22849465.063 5  22849475.340 8  22849479.242 9 120074715.411 5  93564699.461 8
  89666167.775 9  22849475.81346
  21905609.750 6  21905617.754 9                 115114736.545 6  89699790.622 9
                  21905617.72348
  20396311.188 7  20396321.211 9  20396320.121 9 107183355.892 7  83519483.857 9
  80039504.167 9  20396320.72749
  22400941.102 5  22400951.348 8  22400951.605 9 117717695.352 5  91728064.371 8
  87906058.178 9  22400951.52048
  23871881.523 4                                 125447656.111 4  97751447.54645
                  23871894.35945
  25493089.336 2  25493110.660 7  25493111.949 8 133967093.885 2 104389910.521 7
 100040332.609 8  25493110.24246
  22674065.625 4  22674078.723 8  22674078.246 9 119152999.104 4  92846493.889 8
  88977891.486 9  22674078.82048
  24581077.859 3  24581091.938 8  24581092.941 8 129174442.085 3 100655413.899 8
  96461439.011 8  24581091.58247
 25 04 21 00 14 55.0000000  0 10G01G02G04G07G08G09G16G26G27G30      
  22367893.969 5  22367904.184 9  22367908.145 9 117544071.666 5  91592786.773 9
  87776421.286 9  22367904.12547
  20798013.586 6                                 109294246.149 6  85164364.55748
                  20798019.61748
  22852194.156 5  22852204.605 9  22852208.492 9 120089057.088 5  93575874.757 9
  89676877.440 9  22852204.89546
  21903059.742 6  21903068.512 9                 115101337.452 6  89689349.790 9
                  21903067.86748
  20397806.266 6  20397816.582 9  20397815.145 9 107191212.459 6  83525605.850 9
  80045371.076 9  20397815.98449
  22402651.984 5  22402662.621 8  22402663.063 9 117726688.209 5  91735071.780 8
  87912773.622 9  22402662.77048
  23873612.367 4                                 125456747.590 4  97758531.80145
                  23873624.56645
  25494975.422 2  25494996.988 7  25494998.625 8                 104397638.678 7
 100047738.750 8  25494997.73046
  22677021.773 5  22677034.289 8  22677033.879 9 119168529.941 5  92858595.839 8
  88989489.164 9  22677034.43848
  24577845.195 4  24577859.512 8  24577859.879 8 129157453.028 4 100642175.697 8
  96448752.400 8  24577858.45747
 25 04 21 00 15 00.0000000  0 10G01G02G04G07G08G09G16G26G27G30      
  22365026.781 5  22365036.602 9  22365040.418 9 117529002.177 5  91581044.316 9
  87765168.106 9  22365036.72347
  20796905.680 6                                 109288423.816 6  85159827.68048
                  20796911.77748
  22854923.711 5  22854934.113 9  22854938.168 9 120103401.238 5  93587051.976 9
  89687588.939 9  22854934.30146
  21900511.781 6  21900519.273 9                 115087945.692 6  89678914.657 9
                  21900519.41048
  20399303.180 6  20399313.137 9  20399311.824 9 107199077.921 6  83531734.775 9
  80051244.624 9  20399312.56349
  22404365.414 5  22404375.535 8  22404375.957 9 117735689.813 5  91742086.013 8
  87919495.573 9  22404375.52348
  23875342.898 4                                 125465839.930 4  97765616.71945
                  23875354.71545
  25496864.063 2  25496885.703 7  25496885.348 8 133986931.527 2 104405368.400 7
 100055146.380 8  25496885.12146
  22679977.289 5  22679990.355 8  22679989.621 9 119184062.817 5  92870699.341 8
  89001088.361 9  22679990.29748
  24574613.391 3  24574626.801 8  24574627.145 8 129140465.400 3 100628938.600 8
  96436066.855 8  24574625.73047
 25 04 21 00 15 05.0000000  0  9G01G02G04G07G08G09G16G27G30         
  22362159.695 5  22362170.004 9  22362173.820 9 117513937.633 5  91569305.725 9
  87753918.633 9  22362169.73846
  20795800.703 6                                 109282616.650 6  85155302.61548
                  20795806.68048
  22857653.813 5  22857664.445 9  22857668.395 9 120117747.485 5  93598230.867 9
  89698302.024 9  22857664.14546
  21897964.313 6  21897972.766 9                 115074560.866 6  89668484.915 9
                  21897972.52748
  20400801.742 6  20400811.809 9  20400810.219 9 107206951.936 6  83537870.373 9
  80057124.568 9  20400810.89549
  22406079.641 5  22406089.660 8  22406090.496 9 117744699.768 5  91749106.747 8
  87926223.781 9  22406090.10948
  23877072.516 4                                 125474932.620 4  97772701.88945
                  23877085.29745
  22682933.742 4  22682946.508 8  22682945.867 9 119199597.350 4  92882804.138 8
  89012688.796 9  22682946.32448
  24571380.500 4  24571394.270 8  24571394.969 8 129123478.792 4 100615702.265 8
  96423382.037 8  24571393.59847
 25 04 21 00 15 10.0000000  0  9G01G02G04G07G08G09G16G27G30         
  22359294.344 5  22359303.750 9  22359308.070 9 117498878.103 5  91557571.050 9
  87742672.894 9  22359304.02347
  20794698.570 6                                 109276824.692 6  85150789.40448
                  20794704.55948
  22860383.625 5  22860394.539 9  22860398.660 9 120132095.851 5  93609411.382 9
  89709016.696 9  22860394.92246
  21895418.875 6  21895426.574 9                 115061183.066 6  89658060.660 9
                  21895426.74248
  20402301.266 6  20402311.625 9  20402310.309 9 107214834.503 6  83544012.639 9
  80063010.904 9  20402310.94949
  22407795.742 5  22407805.781 8  22407806.703 9 117753718.084 5  91756134.000 8
  87932958.223 9  22407806.29348
  23878803.828 3                                 125484025.811 3  97779787.49145
                  23878815.46945
  22685890.195 5  22685902.797 8  22685902.066 9 119215133.543 5  92894910.241 8
  89024290.477 9  22685902.86748
  24568148.641 4  24568162.066 8  24568162.512 8 129106493.198 4 100602466.738 8
  96410697.998 8  24568160.99247
 25 04 21 00 15 15.0000000  0  9G01G02G04G07G08G09G16G27G30         
  22356429.383 5  22356439.324 9  22356443.336 9 117483823.530 5  91545840.223 9
  87731430.855 9  22356439.48047
  20793599.094 6                                 109271047.916 6  85146288.02348
                  20793605.25048
  22863114.914 5  22863125.508 9  22863129.531 9 120146446.290 5  93620593.507 9
  89719732.901 9  22863125.66847
  21892874.320 6  21892882.359 9                 115047812.246 6  89647641.845 9
                  21892882.32448
  20403803.109 6  20403813.215 9  20403811.875 9 107222725.572 6  83550161.505 9
  80068903.571 9  20403812.61749
  22409513.789 5  22409523.512 8  22409524.496 9 117762744.710 5  91763167.714 8
  87939698.867 9  22409524.02348
  23880533.547 3                                 125493119.497 3  97786873.44345
                  23880545.89845
  22688846.961 5  22688859.375 8  22688858.973 9 119230671.375 5  92907017.616 8
  89035893.372 9  22688859.46948
  24564915.477 4  24564929.770 8  24564930.586 8 129089508.608 4 100589232.051 8
  96398014.736 8  24564928.89547
 25 04 21 00 15 20.0000000  0  9G01G02G04G07G08G09G16G27G30         
  22353565.789 5  22353575.301 9  22353579.539 9 117468773.882 5  91534113.200 9
  87720192.481 9  22353575.78547
  20792503.156 6                                 109265286.233 6  85141798.40448
                  20792508.58648
  22865845.758 5  22865857.137 9  22865860.848 9 120160798.689 5  93631777.160 9
  89730450.551 9  22865856.94946
  21890331.344 6  21890339.406 9                 115034448.323 6  89637228.394 9
                  21890339.41448
  20405306.094 6  20405316.723 9  20405315.121 9 107230625.025 6  83556316.931 9
  80074802.501 9  20405315.81649
  22411232.953 5  22411243.020 8  22411243.828 9 117771779.549 5  91770207.839 8
  87946445.650 9  22411243.08648
  23882264.711 3                                 125502213.487 3  97793959.64045
                  23882275.99645
  22691804.195 5  22691816.617 8  22691816.016 9 119246210.736 5  92919126.186 8
  89047497.396 9  22691816.73448
  24561683.344 4  24561698.066 8  24561698.664 8 129072524.943 4 100575998.001 8
  96385332.138 8  24561696.95347
 25 04 21 00 15 25.0000000  0  9G01G02G04G07G08G09G16G27G30         
  22350702.688 5  22350712.297 9  22350716.633 9 117453729.390 5  91522390.259 9
  87708957.999 9  22350713.10247
  20791409.188 6                                 109259539.959 6  85137320.78548
                  20791415.44148
  22868577.836 5  22868588.738 9  22868592.402 9 120175153.318 5  93642962.553 9
  89741169.893 9  22868588.46946
  21887789.742 6  21887797.734 9                 115021091.636 6  89626820.601 9
                  21887797.59848
  20406811.547 6  20406821.648 9  20406819.945 9 107238533.161 6  83562479.099 9
  80080707.925 9  20406820.64549
  22412953.563 5  22412964.313 8  22412964.738 9 117780822.872 5  91777254.589 8
  87953198.778 9  22412964.14848
  23883995.148 4                                 125511308.133 4  97801046.33745
                  23884006.85945
  22694761.766 5  22694774.047 8  22694773.563 9 119261751.899 5  92931236.166 8
  89059102.791 9  22694774.12948
  24558452.703 4  24558466.211 8  24558467.098 8 129055542.528 4 100562764.966 8
  96372650.468 8  24558465.68047
 25 04 21 00 15 30.0000000  0  9G01G02G04G07G08G09G16G27G30         
  22347840.648 5  22347850.758 9  22347854.746 9 117438689.829 5  91510671.120 9
  87697727.158 9  22347851.03147
  20790318.797 6                                 109253808.723 6  85132854.89848
                  20790324.71948
  22871309.672 5  22871320.656 9  22871324.375 9 120189509.848 5  93654149.458 9
  89751890.648 9  22871320.62946
  21885249.305 6  21885257.277 9                 115007741.835 6  89616418.159 9
                  21885257.32048
  20408317.641 6  20408327.902 9  20408326.480 9 107246449.653 6  83568647.796 9
  80086619.587 9  20408327.20749
  22414675.914 5  22414686.340 8  22414687.313 9 117789874.382 5  91784307.684 8
  87959957.994 9  22414686.45748
  23885725.688 3                                 125520403.162 3  97808133.35945
                  23885737.64145
  22697719.211 5  22697731.742 8  22697731.207 9 119277294.520 5  92943347.269 8
  89070709.285 9  22697731.55548
  24555220.477 3  24555234.297 8  24555235.625 8 129038561.025 3 100549532.701 8
  96359969.506 8  24555234.09047
 25 04 21 00 15 35.0000000  0  9G01G02G04G07G08G09G16G27G30         
  22344979.609 5  22344989.891 9  22344993.660 9 117423655.340 5  91498955.942 9
  87686500.119 9  22344989.93047
  20789230.914 6                                 109248092.737 6  85128400.88148
                  20789237.08248
  22874042.102 5  22874053.277 9  22874056.805 9 120203868.437 5  93665337.923 9
  89762612.957 9  22874052.92646
  21882710.211 6  21882718.266 9                 114994399.104 6  89606021.235 9
                  21882718.28948
  20409825.758 6  20409836.070 9  20409834.559 9 107254374.650 6  83574823.111 9
  80092537.603 9  20409835.22349
  22416399.953 5  22416410.609 8  22416411.438 9 117798934.165 5  91791367.237 8
  87966723.404 9  22416410.55148
  23887456.422 3                                 125529498.662 3  97815220.73445
                  23887468.59845
  22700676.883 5  22700689.789 8  22700689.309 9 119292838.825 5  92955459.685 8
  89082316.991 9  22700689.77048
  24551988.664 3  24552003.637 8  24552004.297 8 129021580.654 3 100536301.220 8
  96347289.355 8  24552002.69547
 25 04 21 00 15 40.0000000  0  9G01G02G04G07G08G09G16G27G30         
  22342119.898 5  22342129.609 9  22342133.621 9 117408625.835 5  91487244.665 9
  87675276.813 9  22342130.11747
  20788145.922 6                                 109242391.917 6  85123958.69248
                  20788152.21148
  22876774.445 5  22876785.445 9  22876789.617 9 120218228.993 5  93676527.962 9
  89773336.719 9  22876785.55546
  21880172.414 6  21880180.527 9                 114981063.383 6  89595629.771 9
                  21880180.46149
  20411335.258 7  20411345.559 9  20411344.273 9 107262308.041 7  83581004.973 9
  80098461.885 9  20411345.03549
  22418125.719 5  22418136.457 8  22418137.191 9 117808002.150 5  91798433.191 8
  87973494.941 9  22418136.21548
  23889187.391 4                                 125538594.581 4  97822308.43145
                  23889199.84845
  22703635.070 5  22703647.688 8  22703647.398 9 119308384.632 5  92967573.279 8
  89093925.847 9  22703647.96148
  24548759.359 4  24548772.309 8  24548773.223 8 129004601.329 4 100523070.548 8
  96334609.976 8  24548771.40247
 25 04 21 00 15 45.0000000  0  9G01G02G04G07G08G09G16G27G30         
  22339260.055 5  22339270.672 9  22339274.441 9 117393601.487 5  91475537.377 9
  87664057.332 9  22339271.09047
  20787064.000 6                                 109236706.391 6  85119528.41348
                  20787070.18048
  22879507.781 5  22879518.891 9  22879522.879 9 120232591.603 5  93687719.561 9
  89784062.010 9  22879518.76646
  21877636.070 6  21877644.297 9                 114967734.772 6  89585243.839 9
                  21877644.13348
  20412847.047 6  20412856.574 9  20412855.570 9 107270249.968 6  83587193.469 9
  80104392.521 9  20412856.41449
  22419853.094 5  22419863.203 8  22419864.500 9 117817078.496 5  91805505.652 8
  87980272.712 9  22419863.18448
  23890919.117 4                                 125547691.043 4  97829396.60045
                  23890931.28145
  22706594.063 5  22706607.043 8  22706605.957 9 119323932.095 5  92979688.161 8
  89105535.928 9  22706606.34448
  24545526.953 3  24545542.043 8  24545542.148 8 128987623.095 3 100509840.758 8
  96321931.459 8  24545540.37947
 25 04 21 00 15 50.0000000  0  9G01G02G04G07G08G09G16G27G30         
  22336402.273 5  22336412.629 9  22336416.246 9 117378582.163 5  91463834.009 9
  87652841.613 9  22336412.64547
  20785985.109 6                                 109231036.050 6  85115109.96548
                  20785991.32848
  22882241.000 5  22882252.277 9  22882256.434 9 120246956.134 5  93698912.687 9
  89794788.749 9  22882252.31646
  21875101.500 6  21875109.332 9                 114954413.174 6  89574863.367 9
                  21875109.12548
  20414359.797 6  20414369.445 9  20414368.551 9 107278200.256 6  83593388.499 9
  80110329.424 9  20414369.15249
  22421581.352 5  22421592.223 8  22421593.152 9 117826162.991 5  91812584.481 8
  87987056.583 9  22421591.68448
  23892649.617 4                                 125556787.950 4  97836485.07545
                  23892662.07445
  22709552.695 5  22709565.480 8  22709564.980 9 119339481.070 5  92991804.221 8
  89117147.152 9  22709565.46148
  24542297.047 4  24542310.832 8  24542311.570 8 128970645.960 4 100496611.857 8
  96309253.725 8  24542310.03147
 25 04 21 00 15 55.0000000  0  9G01G02G04G07G08G09G16G27G30         
  22333545.406 5  22333555.719 9  22333559.152 9 117363568.018 5  91452134.703 9
  87641629.767 9  22333555.39547
  20784908.844 6                                 109225381.069 6  85110703.49148
                  20784915.02748
  22884974.797 5  22884986.051 8  22884990.352 9 120261322.735 5  93710107.414 8
  89805517.022 9  22884986.39846
  21872567.734 6  21872575.352 9                 114941098.778 6  89564488.527 9
                  21872575.48848
  20415874.188 7  20415884.383 9  20415883.016 9 107286159.087 7  83599590.183 9
  80116272.722 9  20415883.76249
  22423311.398 5  22423322.332 8  22423323.473 9 117835255.787 5  91819669.767 8
  87993846.650 9  22423322.02748
  23894380.703 4                                 125565885.419 4  97843573.99945
                  23894392.99245
  22712512.086 5  22712524.965 8  22712524.004 9 119355031.676 5  93003921.554 8
  89128759.588 9  22712524.64548
  24539067.234 4  24539080.164 8  24539081.332 8 128953669.957 4 100483383.852 8
  96296576.889 8  24539079.80947
 25 04 21 00 16 00.0000000  0  9G01G02G04G07G08G09G16G27G30         
  22330689.133 5  22330699.047 9  22330702.863 9 117348558.835 5  91440439.257 9
  87630421.641 9  22330699.35547
  20783835.531 6                                 109219741.159 6  85106308.75848
                  20783841.65648
  22887709.141 5  22887720.258 9  22887724.566 9 120275691.115 5  93721303.526 9
  89816246.620 9  22887720.64146
  21870035.234 6  21870043.441 9                 114927791.347 6  89554119.120 9
                  21870043.01648
  20417390.117 6  20417400.500 9  20417399.121 9 107294126.184 6  83605798.316 9
  80122222.171 9  20417399.79749
  22425043.578 5  22425053.988 8  22425055.426 9 117844356.649 5  91826761.340 8
  88000642.726 9  22425053.94148
  23896112.586 4                                 125574983.230 4  97850663.12646
                  23896124.26246
  22715472.250 5  22715484.172 8  22715483.500 9 119370583.702 5  93016039.984 8
  89140373.083 9  22715484.02348
  24535836.414 4  24535850.449 8  24535850.953 8 128936695.015 4 100470156.621 8
  96283900.778 8  24535849.43047
 25 04 21 00 16 05.0000000  0  9G01G02G04G07G08G09G16G27G30         
  22327834.172 5  22327844.426 9  22327847.621 9 117333555.038 5  91428747.990 9
  87619217.503 9  22327843.92247
  20782765.563 6                                 109214116.748 6  85101926.10848
                  20782771.26648
  22890443.859 5  22890454.824 8  22890459.324 9 120290061.691 5  93732501.340 8
  89826977.847 9  22890455.05546
  21867504.344 6  21867512.367 9                 114914491.279 6  89543755.418 9
                  21867512.25848
  20418907.977 6  20418918.199 9  20418916.859 9 107302101.921 6  83612013.178 9
  80128178.083 9  20418917.53549
  22426776.734 5  22426787.406 8  22426788.664 9 117853465.937 5  91833859.478 8
  88007445.094 9  22426787.33648
  23897844.227 4                                 125584081.709 4  97857752.83746
                  23897855.61746
  22718431.719 5  22718443.887 8  22718443.375 9 119386137.486 5  93028159.808 8
  89151987.899 9  22718443.87548
  24532606.773 4  24532620.230 8  24532620.898 8 128919721.392 4 100456930.435 8
  96271225.678 8  24532619.51247
 25 04 21 00 16 10.0000000  0  9G01G02G04G07G08G09G16G27G30         
  22324980.211 5  22324989.773 9  22324993.504 9 117318556.306 5  91417060.691 9
  87608017.170 9  22324989.73447
  20781698.133 6                                 109208507.554 6  85097555.31248
                  20781704.01648
  22893178.852 5  22893189.969 9  22893194.387 9 120304434.127 5  93743700.621 9
  89837710.477 9  22893190.10246
  21864975.055 6  21864983.117 9                 114901198.291 6  89533397.268 9
                  21864982.70748
  20420427.508 6  20420437.777 9  20420436.156 9 107310085.983 6  83618234.530 9
  80134140.208 9  20420436.89849
  22428511.656 5  22428522.629 8  22428523.566 9 117862583.358 5  91840963.941 8
  88014253.547 9  22428522.35248
  23899574.984 4                                 125593180.664 4  97864842.90946
                  23899587.02346
  22721391.531 5  22721403.867 8  22721403.426 9 119401692.779 5  93040280.787 8
  89163603.832 9  22721403.99648
  24529376.953 3  24529390.039 8  24529391.203 8 128902748.864 3 100443705.080 8
  96258551.393 8  24529389.77347
 25 04 21 00 16 15.0000000  0  9G01G02G04G07G08G09G16G27G30         
  22322127.039 5  22322136.461 9  22322140.273 9 117303562.772 5  91405377.419 9
  87596820.712 9  22322136.54347
  20780633.766 6                                 109202913.691 6  85093196.46248
                  20780639.53148
  22895914.516 5  22895925.098 8  22895929.637 9 120318808.483 5  93754901.405 8
  89848444.561 9  22895925.39846
  21862446.516 6  21862454.461 9                 114887912.483 6  89523044.677 9
                  21862454.52748
  20421947.961 6  20421958.551 9  20421957.207 9 107318078.467 6  83624462.439 9
  80140108.624 9  20421957.76649
  22430248.445 5  22430259.133 8  22430260.012 9 117871708.996 5  91848074.822 8
  88021068.130 9  22430258.84048
  23901306.805 4                                 125602280.088 4  97871933.36846
                  23901318.57046
  22724352.102 5  22724364.629 8  22724363.879 9 119417249.586 5  93052402.950 8
  89175220.915 9  22724364.34048
  24526146.477 2  24526160.848 8  24526161.570 8 128885777.511 2 100430480.680 8
  96245878.016 8  24526159.93047
 25 04 21 00 16 20.0000000  0  9G01G02G04G07G08G09G16G27G30         
  22319274.531 5  22319284.672 9  22319288.215 9 117288574.250 5  91393698.050 9
  87585627.988 9  22319284.23447
  20779572.117 6                                 109197334.886 6  85088849.34048
                  20779577.93848
  22898649.781 5  22898660.949 8  22898665.426 9 120333184.566 5  93766103.517 8
  89859179.908 9  22898660.95746
  21859919.617 6  21859927.508 9                 114874633.594 6  89512697.499 9
                  21859927.50848
  20423470.375 6  20423480.977 9  20423479.672 9 107326079.149 6  83630696.720 9
  80146083.145 9  20423480.21949
  22431986.453 5  22431997.078 8  22431998.125 9 117880842.583 5  91855191.886 8
  88027888.655 9  22431997.08648
  23903038.555 4                                 125611379.869 4  97879024.07145
                  23903050.07045
  22727312.852 5  22727325.031 8  22727324.352 9 119432807.760 5  93064526.170 8
  89186838.986 9  22727324.90648
  24522918.367 4  24522931.320 8  24522932.305 8 128868807.155 4 100417257.009 8
  96233205.353 8  24522930.72747
 25 04 21 00 16 25.0000000  0  9G01G02G04G07G08G09G16G27G30         
  22316423.273 5  22316433.527 9  22316436.953 9 117273591.109 5  91382022.887 9
  87574439.288 9  22316433.21147
  20778513.336 6                                 109191771.606 6  85084514.32348
                  20778519.14548
  22901386.023 5  22901397.125 8  22901401.570 9 120347562.747 5  93777307.277 8
  89869916.829 9  22901397.09046
  21857394.422 6  21857401.820 9                 114861362.125 6  89502356.091 9
                  21857402.01248
  20424994.813 6  20425005.105 9  20425003.723 9 107334088.373 6  83636937.674 9
  80152064.056 9  20425004.52049
  22433726.000 5  22433736.711 8  22433737.797 9 117889984.546 5  91862315.476 8
  88034715.425 9  22433736.72748
  23904769.898 3                                 125620480.371 3  97886115.35245
                  23904782.22345
  22730273.914 5  22730285.926 8  22730285.613 9 119448367.584 5  93076650.693 8
  89198458.322 9  22730285.93048
  24519687.828 3  24519702.504 8  24519703.082 8 128851838.201 3 100404034.451 8
  96220533.735 8  24519701.69547
 25 04 21 00 16 30.0000000  0  9G01G02G04G07G08G09G16G27G30         
  22313573.641 5  22313582.789 9  22313586.707 9 117258613.183 5  91370351.796 9
  87563254.489 9  22313582.92647
  20777457.695 6                                 109186223.622 6  85080191.21148
                  20777463.33248
  22904122.117 5  22904133.289 8  22904137.953 9 120361942.814 5  93788512.508 8
  89880655.164 9  22904133.15246
  21854869.625 6  21854877.707 9                 114848097.871 6  89492020.325 9
                  21854878.03948
  20426520.273 6  20426530.844 9  20426529.422 9 107342105.981 6  83643185.155 9
  80158051.228 9  20426530.21549
  22435467.344 5  22435478.133 8  22435478.941 9 117899134.657 5  91869445.413 8
  88041548.289 9  22435478.02048
  23906501.508 3                                 125629581.356 3  97893206.99745
                  23906514.17645
  22733234.930 5  22733247.086 8  22733246.645 9 119463928.960 5  93088776.430 8
  89210078.805 9  22733247.25048
  24516459.117 3  24516473.453 8  24516474.250 8 128834870.496 3 100390812.857 8
  96207863.035 8  24516472.78147
 25 04 21 00 16 35.0000000  0  9G01G02G04G07G08G09G16G27G30         
  22310723.891 5  22310733.785 9  22310737.430 9 117243640.464 5  91358684.750 9
  87552073.567 9  22310733.62147
  20776404.633 6                                 109180690.943 6  85075880.03348
                  20776410.48048
  22906859.195 5  22906870.238 8  22906874.711 9 120376324.719 5  93799719.165 8
  89891394.880 9  22906869.93446
  21852347.992 6  21852355.008 9                 114834840.791 6  89481690.149 9
                  21852355.21948
  20428047.766 6  20428058.102 9  20428056.738 9 107350131.927 6  83649439.130 9
  80164044.617 9  20428057.46149
  22437210.156 5  22437220.879 8  22437221.605 9 117908292.858 5  91876581.663 8
  88048387.184 9  22437220.65648
  23908233.594 4                                 125638682.821 4  97900299.02045
                  23908246.35945
  22736196.180 5  22736208.906 8  22736208.242 9 119479491.822 5  93100903.305 8
  89221700.383 9  22736208.82448
  24513231.703 4  24513244.840 8  24513245.383 8 128817903.884 4 100377592.131 8
  96195193.201 8  24513244.07047
 25 04 21 00 16 40.0000000  0  9G01G02G04G07G08G09G16G27G30         
  22307875.773 5  22307885.484 9  22307889.285 9 117228673.012 5  91347021.817 9
  87540896.599 9  22307885.43447
  20775354.945 6                                 109175173.652 6  85071580.84848
                  20775360.68448
  22909596.000 4  22909607.254 8  22909611.855 9 120390708.522 4  93810927.274 8
  89902136.001 9  22909607.09846
  21849826.188 6  21849833.855 9                 114821591.001 6  89471365.624 9
                  21849833.84449
  20429576.742 6  20429586.918 9  20429585.660 9 107358166.249 6  83655699.636 9
  80170044.264 9  20429586.35249
  22438954.266 5  22438965.270 8  22438965.984 9 117917459.217 5  91883724.266 8
  88055232.180 9  22438965.03948
  23909965.664 3                                 125647784.850 3  97907391.48245
                  23909978.10945
  22739158.180 5  22739170.371 8  22739170.156 9 119495056.184 5  93113031.357 8
  89233323.112 9  22739170.53148
  24510002.094 4  24510016.508 8  24510017.145 8 128800938.572 4 100364372.451 8
  96182524.306 8  24510015.76247
 25 04 21 00 16 45.0000000  0  9G01G02G04G07G08G09G16G27G30         
  22305028.633 5  22305038.242 9  22305042.027 9 117213710.737 5  91335362.912 9
  87529723.483 9  22305038.30947
  20774307.984 6                                 109169671.603 6  85067293.53348
                  20774313.55548
  22912333.750 5  22912344.805 8  22912349.434 9 120405094.087 5  93822136.780 8
  89912878.424 9  22912344.51646
  21847306.047 6  21847313.879 9                 114808348.334 6  89461046.670 9
                  21847313.88748
  20431107.016 6  20431117.105 9  20431116.078 9 107366208.825 6  83661966.567 9
  80176050.065 9  20431116.87949
  22440700.375 5  22440710.961 8  22440711.660 9 117926633.583 5  91890873.114 8
  88062083.158 9  22440710.73048
  23911697.383 4                                 125656887.281 4  97914484.27945
                  23911710.50845
  22742120.383 5  22742132.539 8  22742132.195 9 119510621.923 5  93125160.491 8
  89244946.844 9  22742132.74248
  24506774.289 4  24506788.035 8  24506788.984 8 128783974.387 4 100351153.587 8
  96169856.261 8  24506787.59447
 25 04 21 00 16 50.0000000  0  9G01G02G04G07G08G09G16G27G30         
  22302182.352 5  22302192.047 9  22302195.930 9 117198753.814 5  91323708.178 9
  87518554.361 9  22302192.02047
  20773263.688 6                                 109164184.989 6  85063018.25248
                  20773269.45348
  22915071.602 5  22915082.223 8  22915087.336 9 120419481.532 5  93833347.758 8
  89923622.276 9  22915082.09046
  21844787.766 6  21844795.445 9                 114795113.010 6  89450733.442 9
                  21844795.20748
  20432639.180 6  20432649.316 9  20432648.262 9 107374259.788 6  83668240.039 9
  80182062.143 9  20432648.81349
  22442447.664 5  22442459.012 8  22442459.172 9 117935816.122 5  91898028.323 8
  88068940.237 9  22442458.16848
  23913430.078 4                                 125665990.398 4  97921577.56846
                  23913442.82846
  22745082.477 5  22745095.563 8  22745094.574 9 119526189.215 5  93137290.823 8
  89256571.753 9  22745095.08648
  24503546.344 4  24503560.250 8  24503561.238 8 128767011.522 4 100337935.777 8
  96157189.206 8  24503559.62947
 25 04 21 00 16 55.0000000  0  9G01G02G04G07G08G09G16G27G30         
  22299337.367 5  22299346.801 9  22299350.777 9 117183802.229 5  91312057.607 9
  87507389.220 9  22299346.72747
  20772222.688 6                                 109158713.765 6  85058754.97148
                  20772228.28948
  22917810.266 5  22917820.848 8  22917825.680 9 120433870.851 5  93844560.175 8
  89934367.516 9  22917820.47346
  21842270.398 6  21842277.523 9                 114781885.005 6  89440425.913 9
                  21842278.07849
  20434172.484 6  20434182.719 9  20434181.855 9 107382319.114 6  83674520.021 9
  80188080.470 9  20434182.42649
  22444196.352 5  22444206.805 8  22444207.969 9 117945006.776 5  91905189.849 8
  88075803.372 9  22444206.98448
  23915162.719 3                                 125675094.104 3  97928671.38745
                  23915175.20345
  22748045.141 5  22748058.121 8  22748057.254 9 119541757.995 5  93149422.303 8
  89268197.771 9  22748057.72748
  24500319.492 3  24500332.961 8  24500333.516 8 128750049.979 3 100324719.000 8
  96144523.124 8  24500332.09047
 25 04 21 00 17 00.0000000  0  9G01G02G04G07G08G09G16G27G30         
  22296493.180 5  22296502.789 9  22296506.613 9 117168855.893 5  91300411.114 9
  87496228.009 9  22296502.83647
  20771184.281 6                                 109153257.838 6  85054503.59748
                  20771190.05148
  22920548.570 5  22920559.637 8  22920564.258 9 120448261.918 5  93855773.983 8
  89945114.065 9  22920559.18046
  21839754.625 6  21839762.348 9                 114768664.254 6  89430124.021 9
                  21839762.25848
  20435707.844 6  20435718.438 9  20435717.031 9 107390386.690 6  83680806.457 9
  80194104.969 9  20435717.67249
  22445947.188 5  22445958.313 8  22445958.301 9 117954205.454 5  91912357.665 8
  88082672.499 9  22445957.34848
  23916894.586 3                                 125684198.266 3  97935765.47145
                  23916907.82445
  22751008.078 5  22751021.020 8  22751020.336 9 119557328.187 5  93161554.889 8
  89279824.811 9  22751020.69548
  24497091.516 3  24497105.395 8  24497105.930 8 128733089.648 3 100311503.217 8
  96131857.955 8  24497104.66447
 25 04 21 00 17 05.0000000  0  9G01G02G04G07G08G09G16G27G30         
  22293649.656 5  22293659.680 9  22293663.371 9 117153915.125 5  91288768.958 9
  87485070.947 9  22293659.66447
  20770148.828 6                                 109147817.488 6  85050264.37448
                  20770154.81348
  22923287.617 5  22923298.375 8  22923303.125 9 120462655.020 5  93866989.352 8
  89955862.120 9  22923298.18446
  21837239.867 6  21837247.613 9                 114755450.999 6  89419827.985 9
                  21837247.82048
  20437244.758 6  20437255.254 9  20437253.855 9 107398462.802 6  83687099.530 9
  80200135.821 9  20437254.48849
  22447698.969 5  22447710.086 8  22447710.539 9 117963412.438 5  91919531.892 8
  88089547.824 9  22447709.62548
  23918628.156 4                                 125693303.186 4  97942860.17345
                  23918640.49645
  22753971.406 5  22753983.742 8  22753983.594 9 119572900.030 5  93173688.791 8
  89291453.120 9  22753984.18848
  24493864.414 4  24493877.980 8  24493878.996 8 128716130.804 4 100298288.524 8
  96119193.909 8  24493877.38747
 25 04 21 00 17 10.0000000  0  9G01G02G04G07G08G09G16G27G30         
  22290807.742 5  22290817.141 9  22290821.277 9 117138979.372 5  91277130.718 9
  87473917.639 9  22290817.35547
  20769116.492 6                                 109142392.257 6  85046036.92048
                  20769122.48448
  22926027.234 4  22926037.547 8  22926042.363 9 120477049.583 4  93878205.875 8
  89966611.283 9  22926037.53546
  21834727.195 6  21834734.875 9                 114742244.731 6  89409537.388 9
                  21834734.91049
  20438783.063 6  20438793.211 9  20438792.199 9 107406546.895 6  83693398.807 9
  80206172.638 9  20438792.80549
  22449453.070 5  22449463.527 8  22449463.902 9 117972627.141 5  91926712.179 8
  88096428.929 9  22449463.11348
  23920360.375 4                                 125702408.308 4  97949955.05545
                  23920373.44945
  22756935.117 5  22756947.488 8  22756947.098 9 119588473.055 5  93185823.573 8
  89303082.276 9  22756947.62548
  24490636.820 3  24490650.684 8  24490651.945 8 128699172.993 3 100285074.643 8
  96106530.618 8  24490650.27047
 25 04 21 00 17 15.0000000  0  9G01G02G04G07G08G09G16G27G30         
  22287966.133 5  22287976.379 9  22287980.129 9 117124049.211 5  91265496.836 9
  87462768.499 9  22287976.31647
  20768087.305 6                                 109136982.586 6  85041821.60048
                  20768092.83248
  22928766.570 4  22928777.379 8  22928781.996 9 120491446.129 4  93889423.930 8
  89977361.919 9  22928776.96146
  21832215.531 6  21832223.117 9                 114729046.032 6  89399252.666 9
                  21832222.95748
  20440322.961 6  20440333.551 9  20440332.094 9 107414639.477 6  83699704.718 9
  80212215.790 9  20440332.80149
  22451207.281 5  22451218.363 8  22451219.074 9 117981850.090 5  91933898.892 8
  88103316.183 9  22451218.34448
  23922092.961 3                                 125711514.224 3  97957050.55745
                  23922106.25845
  22759899.023 5  22759910.898 8  22759910.867 9 119604047.660 5  93197959.615 8
  89314712.647 9  22759911.47748
  24487410.672 3  24487424.629 8  24487425.289 8 128682216.666 3 100271861.945 8
  96093868.453 8  24487423.39547
 25 04 21 00 17 20.0000000  0  9G01G02G04G07G08G09G16G27G30         
  22285126.547 5  22285136.266 9  22285139.836 9 117109124.258 5  91253867.016 9
  87451623.254 9  22285136.36347
  20767060.883 6                                 109131588.164 6  85037618.15448
                  20767066.47748
  22931506.680 4  22931517.152 8  22931521.957 9 120505844.278 4  93900643.247 8
  89988113.755 9  22931517.07446
  21829704.977 6  21829712.930 9                 114715854.466 6  89388973.553 9
                  21829712.69148
  20441864.523 6  20441874.863 9  20441873.555 9 107422740.164 6  83706016.931 9
  80218265.007 9  20441874.18049
  22452963.734 5  22452975.367 8  22452975.617 9 117991080.922 5  91941091.734 8
  88110209.325 9  22452974.87148
  23923826.883 4                                 125720620.516 4  97964146.34345
                  23923839.24245
  22762862.922 5  22762875.234 8  22762874.898 9 119619623.563 5  93210096.647 8
  89326343.960 9  22762875.44948
  24484183.500 3  24484197.500 8  24484198.902 8 128665261.524 3 100258650.140 8
  96081207.158 8  24484197.23447
 25 04 21 00 17 25.0000000  0  9G01G02G04G07G08G09G16G27G30         
  22282287.414 5  22282297.188 9  22282300.816 9 117094204.789 5  91242241.470 9
  87440482.098 9  22282297.18847
  20766036.844 6                                 109126209.281 6  85033426.82148
                  20766042.94948
  22934246.125 4  22934257.691 8  22934262.234 9 120520244.270 4  93911864.015 8
  89998866.961 9  22934257.31346
  21827196.664 6  21827203.727 9                 114702670.386 6  89378700.257 9
                  21827203.82048
  20443407.773 6  20443417.867 9  20443416.664 9 107430849.236 6  83712335.692 9
  80224320.464 9  20443417.30149
  22454722.141 5  22454733.539 8  22454733.570 9 118000319.877 5  91948290.898 8
  88117108.530 9  22454732.99648
  23925559.023 4                                 125729727.484 4  97971242.64845
                  23925572.10545
  22765826.758 5  22765839.480 8  22765839.141 9 119635200.932 5  93222234.840 8
  89337976.391 9  22765839.84048
  24480957.164 3  24480971.633 8  24480972.656 8 128648307.824 3 100245439.510 8
  96068546.943 8  24480971.03547
 25 04 21 00 17 30.0000000  0  9G01G02G04G07G08G09G16G27G30         
  22279448.883 5  22279459.063 9  22279462.672 9 117079290.630 5  91230620.046 9
  87429344.906 9  22279459.12547
  20765016.695 6                                 109120845.703 6  85029247.41048
                  20765022.22348
  22936987.141 4  22936998.094 8  22937002.586 9 120534645.881 4  93923085.993 8
  90009621.377 9  22936997.67246
  21824688.930 6  21824696.074 9                 114689493.578 6  89368432.625 9
                  21824696.53148
  20444952.156 6  20444962.777 9  20444961.344 9 107438966.417 6  83718660.778 9
  80230382.005 9  20444961.82449
  22456481.977 5  22456493.238 8  22456493.387 9 118009566.697 5  91955496.229 8
  88124013.612 9  22456492.76248
  23927292.820 4                                 125738834.903 4  97978339.29845
                  23927305.34845
  22768791.266 5  22768804.559 8  22768803.742 9 119650779.628 5  93234374.049 8
  89349609.804 9  22768804.34448
  24477732.094 3  24477746.004 8  24477746.660 8 128631355.350 3 100232229.787 8
  96055887.637 8  24477744.93047
 25 04 21 00 17 35.0000000  0  9G01G02G04G07G08G09G16G27G30         
  22276612.133 5  22276622.246 9  22276625.699 9 117064382.092 5  91219003.007 9
  87418211.918 9  22276622.28147
  20763998.641 6                                 109115497.802 6  85025080.22548
                  20764004.62548
  22939728.000 5  22939739.176 8  22939743.387 9 120549049.425 5  93934309.495 8
  90020377.231 9  22939738.50446
  21822182.766 6  21822190.508 9                 114676324.352 6  89358170.884 9
                  21822190.39148
  20446498.336 6  20446509.207 9  20446507.559 9 107447092.077 6  83724992.436 9
  80236449.846 9  20446508.12949
  22458242.891 5  22458254.402 8  22458254.516 9 118018821.734 5  91962707.910 8
  88130924.819 9  22458253.84048
  23929025.703 4                                 125747943.076 4  97985436.56945
                  23929038.67645
  22771756.000 5  22771768.863 8  22771768.457 9 119666359.904 5  93246514.497 8
  89361244.393 9  22771769.25848
  24474506.055 3  24474519.750 8  24474521.039 8 128614404.409 3 100219021.279 8
  96043229.496 8  24474519.42647
 25 04 21 00 17 40.0000000  0  9G01G02G04G07G08G09G16G27G30         
  22273776.063 5  22273785.980 9  22273789.574 9 117049478.782 5  91207390.073 9
  87407082.846 9  22273786.27347
  20762984.063 6                                 109110165.147 6  85020924.91148
                  20762989.74248
  22942468.852 4  22942479.863 8  22942484.668 9 120563454.480 4  93945534.195 8
  90031134.208 9  22942479.70346
  21819678.414 6  21819685.863 9                 114663162.325 6  89347914.773 9
                  21819685.94148
  20448046.656 6  20448056.340 9  20448055.352 9 107455225.786 6  83731330.392 9
  80242523.718 9  20448055.93849
  22460005.703 5  22460016.672 8  22460017.188 9 118028084.568 5  91969925.695 8
  88137841.850 9  22460016.53948
  23930758.961 4                                 125757051.673 4  97992534.17345
                  23930772.18845
  22774721.555 5  22774733.633 8  22774733.648 9 119681941.413 5  93258655.893 8
  89372879.878 9  22774733.93848
  24471280.148 2  24471294.625 8  24471295.531 8 128597454.700 2 100205813.737 8
  96030572.241 8  24471293.97747
 25 04 21 00 17 45.0000000  0  9G01G02G04G07G08G09G16G27G30         
  22270941.195 5  22270950.926 9  22270954.789 9 117034580.880 5  91195781.309 9
  87395957.782 9  22270951.12947
  20761972.188 6                                 109104847.876 6  85016781.58648
                  20761978.22748
  22945210.297 4  22945221.680 8  22945225.938 9 120577861.135 4  93956760.157 8
  90041892.421 9  22945221.24646
  21817174.750 6  21817182.840 9                 114650007.623 6  89337664.340 9
                  21817182.54748
  20449596.266 6  20449606.121 9  20449604.730 9 107463367.607 6  83737674.681 9
  80248603.653 9  20449605.27749
  22461770.117 5  22461780.965 8  22461781.191 9 118037355.277 5  91977149.594 8
  88144764.759 9  22461780.80548
  23932492.109 4                                 125766160.734 4  97999632.08845
                  23932505.39545
  22777686.797 5  22777699.293 8  22777698.820 9 119697524.200 5  93270798.304 8
  89384516.344 9  22777699.50448
  24468055.594 3  24468069.617 8  24468070.586 8 128580506.321 3 100192607.183 8
  96017915.979 8  24468068.97747
 25 04 21 00 17 50.0000000  0  9G01G02G04G07G08G09G16G27G30         
  22268107.031 5  22268117.500 9  22268120.793 9 117019688.459 5  91184176.824 9
  87384836.835 9  22268117.27047
  20760963.008 6                                 109099546.089 6  85012650.32748
                  20760969.20348
  22947952.227 4  22947963.527 8  22947967.902 9 120592269.525 4  93967987.429 8
  90052651.892 9  22947963.07446
  21814673.523 6  21814680.383 9                 114636860.350 6  89327419.742 9
                  21814680.66048
  20451146.430 6  20451156.871 9  20451155.641 9 107471517.707 6  83744025.389 9
  80254689.750 9  20451156.37149
  22463535.820 5  22463546.453 8  22463546.977 9 118046633.966 5  91984379.714 8
  88151693.634 9  22463546.50848
  23934225.859 5                                 125775270.456 5  98006730.57945
                  23934238.73845
  22780652.750 5  22780665.203 8  22780664.496 9 119713108.372 5  93282941.796 8
  89396153.864 9  22780664.91448
  24464830.297 3  24464844.453 8  24464845.652 8 128563559.279 3 100179401.724 8
  96005260.769 8  24464844.09447
 25 04 21 00 17 55.0000000  0  9G01G02G04G07G08G09G16G27G30         
  22265274.328 5  22265283.863 9  22265287.949 9 117004801.486 5  91172576.598 9
  87373719.935 9  22265284.16047
  20759957.555 6                                 109094259.710 6  85008531.06848
                  20759963.20348
  22950694.398 5  22950705.770 8  22950709.926 9 120606679.540 5  93979215.981 8
  90063412.572 9  22950705.19946
  21812173.305 6  21812179.832 9                 114623720.477 6  89317180.866 9
                  21812180.27048
  20452699.672 6  20452709.555 9  20452708.203 9 107479675.936 6  83750382.442 9
  80260781.936 9  20452708.71549
  22465303.344 5  22465314.043 8  22465313.988 9 118055920.523 5  91991616.004 8
  88158628.393 9  22465313.81648
  23935959.609 5                                 125784380.701 5  98013829.39645
                  23935972.14845
  22783618.156 5  22783630.613 8  22783630.273 9 119728693.867 5  93295086.318 8
  89407792.359 9  22783630.70348
  24461606.594 3  24461619.680 8  24461620.922 8 128546613.652 3 100166197.361 8
  95992606.561 8  24461619.39147
 25 04 21 00 18 00.0000000  0  9G01G02G04G07G08G09G16G27G30         
  22262442.664 5  22262452.340 9  22262456.184 9 116989920.046 5  91160980.668 9
  87362607.188 9  22262452.25447
  20758954.797 6                                 109088988.843 6  85004423.89948
                  20758960.23848
  22953436.977 5  22953448.301 8  22953452.516 9 120621091.225 5  93990445.837 8
  90074174.526 9  22953447.79346
  21809673.703 6  21809681.391 9                 114610588.118 6  89306947.880 9
                  21809681.18848
  20454253.242 6  20454263.523 9  20454262.090 9 107487842.413 6  83756745.930 9
  80266880.263 9  20454262.84849
  22467071.930 5  22467082.512 8  22467082.684 9 118065215.064 5  91998858.497 8
  88165569.114 9  22467082.53548
  23937693.188 4                                 125793491.553 4  98020928.73345
                  23937705.66045
  22786584.797 5  22786596.707 8  22786596.441 9 119744280.760 5  93307231.929 8
  89419431.887 9  22786596.66448
  24458382.023 3  24458394.934 8  24458396.590 8 128529669.448 3 100152994.088 8
  95979953.443 8  24458395.02047
 25 04 21 00 18 05.0000000  0  9G01G02G04G07G08G09G16G27G30         
  22259611.977 5  22259621.719 9  22259625.406 9 116975044.068 5  91149389.022 9
  87351498.528 9  22259621.43847
  20757954.609 6                                 109083733.421 6  85000328.77148
                  20757960.08248
  22956180.000 4  22956191.313 8  22956195.148 9 120635504.512 4  94001676.956 8
  90084937.674 9  22956190.58246
  21807176.016 6  21807183.660 9                 114597463.190 6  89296720.663 9
                  21807183.65648
  20455808.766 6  20455819.117 9  20455817.703 9 107496017.026 6  83763115.752 9
  80272984.679 9  20455818.35249
  22468842.094 5  22468853.012 8  22468852.797 9 118074517.486 5  92006107.119 8
  88172515.712 9  22468852.84048
  23939427.125 4                                 125802603.040 4  98028028.60545
                  23939439.64845
  22789550.914 5  22789563.469 8  22789562.695 9 119759868.951 5  93319378.515 8
  89431072.391 9  22789562.95748
  24455157.438 3  24455171.699 8  24455172.492 8 128512726.650 3 100139791.927 8
  95967301.380 8  24455170.75447
 25 04 21 00 18 10.0000000  0  9G01G02G04G07G08G09G16G27G30         
  22256782.000 5  22256791.863 9  22256795.730 9 116960173.603 5  91137801.665 9
  87340393.978 9  22256791.55547
  20756957.266 6                                 109078493.483 6  84996245.70248
                  20756962.99248
  22958923.211 5  22958934.254 8  22958938.109 9 120649919.427 5  94012909.342 8
  90095702.025 9  22958933.60546
  21804679.891 6  21804687.313 9                 114584345.705 6  89286499.249 9
                  21804687.34448
  20457365.945 6  20457376.285 9  20457374.789 9 107504199.799 6  83769491.926 9
  80279095.181 9  20457375.55549
  22470613.484 5  22470624.332 9  22470624.504 9 118083827.780 5  92013361.885 9
  88179468.193 9  22470624.84848
  23941160.867 5                                 125811715.059 5  98035128.82445
                  23941173.46145
  22792518.148 5  22792529.641 8  22792529.168 9 119775458.418 5  93331526.149 8
  89442713.841 9  22792529.72748
  24451933.805 4  24451947.266 8  24451948.523 8 128495785.257 4 100126590.871 8
  95954650.357 8  24451946.98847
 25 04 21 00 18 15.0000000  0  9G01G02G04G07G08G09G16G27G30         
  22253953.414 5  22253962.926 9  22253967.098 9 116945308.695 5  91126218.605 9
  87329293.549 9  22253962.72747
  20755962.953 6                                 109073269.033 6  84992174.70848
                  20755968.91048
  22961667.000 5  22961677.441 8  22961681.598 9 120664335.958 5  94024142.957 8
  90106467.560 9  22961677.12547
  21802185.133 6  21802192.688 9                 114571235.692 6  89276283.663 9
                  21802192.67648
  20458924.961 6  20458934.727 9  20458933.301 9 107512390.705 6  83775874.445 9
  80285211.763 9  20458934.43049
  22472386.633 5  22472397.898 8  22472397.602 9 118093145.949 5  92020622.784 8
  88186426.549 9  22472397.92648
  23942895.359 4                                 125820827.630 4  98042229.50845
                  23942908.09845
  22795484.367 5  22795496.996 8  22795496.035 9 119791049.201 5  93343674.768 8
  89454356.290 9  22795496.35948
  24448709.523 2  24448724.242 8  24448725.180 8 128478845.324 2 100113390.919 8
  95942000.444 8  24448723.35247
 25 04 21 00 18 20.0000000  0  9G01G02G04G07G08G09G16G27G30         
  22251125.641 5  22251135.434 9  22251139.523 9 116930449.284 5  91114639.872 9
  87318197.253 9  22251135.31647
  20754972.016 6                                 109068060.009 6  84988115.72548
                  20754977.47748
  22964409.656 5  22964421.566 8  22964425.324 9 120678754.021 5  94035377.786 8
  90117234.278 9  22964420.98846
  21799691.875 6  21799699.641 9                 114558133.149 6  89266073.905 9
                  21799699.37948
  20460484.711 6  20460494.621 9  20460493.691 9 107520589.752 6  83782263.321 9
  80291334.421 9  20460494.64549
  22474161.227 5  22474172.129 9  22474172.391 9 118102471.967 5  92027889.810 9
  88193390.771 9  22474172.69148
  23944629.547 4                                 125829940.798 4  98049330.66645
                  23944642.55145
  22798451.570 5  22798463.703 8  22798463.277 9 119806641.271 5  93355824.445 8
  89465999.686 9  22798463.46148
  24445486.641 3  24445500.176 8  24445501.719 8 128461906.841 3 100100192.085 8
  95929351.549 8  24445500.29747
 25 04 21 00 18 25.0000000  0  9G01G02G04G07G08G09G16G27G30         
  22248299.328 5  22248308.773 9  22248312.707 9 116915595.435 5  91103065.436 9
  87307105.115 9  22248308.58247
  20753983.578 6                                 109062866.504 6  84984068.85048
                  20753989.24248
  22967154.391 4  22967165.469 8  22967169.152 9 120693173.680 4  94046613.844 8
  90128002.169 9  22967165.01246
  21797199.414 6  21797207.711 9                 114545038.144 6  89255870.001 9
                  21797207.50448
  20462047.008 6  20462056.816 9  20462055.422 9 107528796.926 6  83788658.515 9
  80297463.154 9  20462056.42249
  22475937.227 5  22475948.422 9  22475948.512 9 118111805.845 5  92035162.940 9
  88200360.856 9  22475948.80548
  23946364.414 4                                 125839054.532 4  98056432.27546
                  23946376.77046
  22801418.734 5  22801431.070 8  22801430.555 9 119822234.649 5  93367975.096 8
  89477644.049 9  22801430.87148
  24442264.141 3  24442277.477 8  24442278.848 8 128444969.787 3 100086994.391 8
  95916703.774 8  24442277.40247
 25 04 21 00 18 30.0000000  0  9G01G02G04G07G08G09G16G27G30         
  22245473.234 5  22245482.949 9  22245487.375 9 116900747.107 5  91091495.331 9
  87296017.082 9  22245483.25847
  20752997.961 6                                 109057688.437 6  84980033.99048
                  20753003.91048
  22969899.086 5  22969909.965 8  22969913.461 9 120707594.835 5  94057851.095 8
  90138771.178 9  22969909.29346
  21794709.633 6  21794717.348 9                 114531950.605 6  89245671.909 9
                  21794716.93848
  20463610.102 6  20463620.363 9  20463618.727 9 107537012.170 6  83795059.995 9
  80303597.915 9  20463619.62949
  22477714.953 5  22477726.406 8  22477726.273 9 118121147.488 5  92042442.134 8
  88207336.748 9  22477726.55148
  23948098.750 4                                 125848168.828 4  98063534.28745
                  23948110.94545
  22804386.688 5  22804399.023 8  22804398.094 9 119837829.236 5  93380126.688 8
  89489289.332 9  22804398.30548
  24439041.063 3  24439054.148 8  24439055.871 8 128428034.137 3 100073797.815 8
  95904057.044 8  24439054.53547
 25 04 21 00 18 35.0000000  0  9G01G02G04G07G08G09G16G27G30         
  22242648.836 5  22242658.793 9  22242662.930 9 116885904.424 5  91079929.596 9
  87284933.272 9  22242658.75847
  20752015.742 6                                 109052525.925 6  84976011.26048
                  20752021.53548
  22972643.375 5  22972654.398 8  22972658.102 9 120722017.582 5  94069089.576 8
  90149541.370 9  22972653.89546
  21792220.266 6  21792227.766 9                 114518870.626 6  89235479.728 9
                  21792227.86348
  20465175.008 6  20465185.484 9  20465183.594 9 107545235.548 6  83801467.815 9
  80309738.741 9  20465184.49249
  22479494.375 4  22479505.523 9  22479505.586 9 118130497.006 4  92049727.451 9
  88214318.512 9  22479505.82048
  23949832.836 3                                 125857283.742 3  98070636.78745
                  23949845.56345
  22807354.531 5  22807366.188 8  22807366.039 9 119853425.109 5  93392279.307 8
  89500935.582 9  22807366.17648
  24435817.820 3  24435832.324 8  24435833.645 8 128411100.044 3 100060602.420 8
  95891411.478 8  24435832.12547
 25 04 21 00 18 40.0000000  0  9G01G02G04G07G08G09G16G27G30         
  22239825.688 5  22239835.320 9  22239839.469 9 116871067.333 5  91068368.238 9
  87273853.634 9  22239835.28947
  20751036.227 6                                 109047378.923 6  84972000.60948
                  20751042.00448
  22975388.031 4  22975399.066 8  22975403.020 9 120736441.859 4  94080329.239 8
  90160312.728 9  22975398.88746
  21789732.648 6  21789740.434 9                 114505798.193 6  89225293.425 9
                  21789740.31348
  20466741.289 6  20466751.539 9  20466749.957 9 107553467.031 6  83807881.948 9
  80315885.615 9  20466750.92649
  22481274.742 4  22481286.250 8  22481286.277 9 118139854.338 4  92057018.874 8
  88221306.116 9  22481286.43848
  23951567.625 4                                 125866399.257 4  98077739.76245
                  23951580.31645
  22810322.258 5  22810334.664 8  22810334.074 9 119869022.284 5  93404432.903 8
  89512582.782 9  22810334.09448
  24432596.266 3  24432610.395 8  24432611.176 8 128394167.409 3 100047408.204 8
  95878766.986 8  24432610.09047
 25 04 21 00 18 45.0000000  0  9G01G02G04G07G08G09G16G27G30         
  22237003.359 5  22237013.219 9  22237016.969 9 116856235.837 5  91056811.243 9
  87262778.183 9  22237013.18047
  20750059.977 6                                 109042247.434 6  84968002.04448
                  20750065.62548
  22978132.992 4  22978144.590 9  22978148.168 9 120750867.640 4  94091570.088 9
  90171085.203 9  22978144.22746
  21787246.820 6  21787254.027 9                 114492733.324 6  89215113.008 9
                  21787254.14548
  20468309.398 6  20468319.477 9  20468317.871 9 107561706.561 6  83814302.349 9
  80322038.507 9  20468318.85549
  22483056.906 4  22483068.254 8  22483068.438 9 118149219.419 4  92064316.333 8
  88228299.514 9  22483068.53948
  23953302.766 4                                 125875515.311 4  98084843.14445
                  23953315.12945
  22813290.953 5  22813302.891 8  22813302.410 9 119884620.675 5  93416587.471 8
  89524230.896 9  22813302.32448
  24429374.289 3  24429388.402 8  24429389.652 8 128377236.254 3 100034215.133 8
  95866123.642 8  24429388.09847
 25 04 21 00 18 50.0000000  0  9G01G02G04G07G08G09G16G27G30         
  22234182.102 5  22234191.773 9  22234195.773 9 116841409.980 5  91045258.639 9
  87251706.937 9  22234191.64147
  20749086.086 6                                 109037131.457 6  84964015.57248
                  20749091.85948
  22980878.227 4  22980889.551 8  22980893.543 9 120765294.934 4  94102812.091 8
  90181858.798 9  22980889.98046
  21784761.977 6  21784769.578 9                 114479676.029 6  89204938.519 9
                  21784769.53148
  20469878.867 6  20469888.855 9  20469887.379 9 107569954.158 6  83820729.060 9
  80328197.423 9  20469888.32449
  22484840.539 5  22484851.641 8  22484852.207 9 118158592.308 5  92071619.852 8
  88235298.717 9  22484852.36348
  23955036.117 4                                 125884632.004 4  98091947.08245
                  23955050.15645
  22816259.203 5  22816271.270 8  22816270.953 9 119900220.294 5  93428742.998 8
  89535879.935 9  22816271.03148
  24426152.195 2  24426166.852 8  24426167.707 8 128360306.695 2 100021023.228 8
  95853481.406 8  24426166.48047
 25 04 21 00 18 55.0000000  0  9G01G02G04G07G08G09G16G27G30         
  22231362.031 5  22231371.609 9  22231375.594 9 116826589.738 5  91033710.403 9
  87240639.879 9  22231371.46147
  20748115.398 6                                 109032031.007 6  84960041.20448
                  20748121.20748
  22983623.570 4  22983635.535 8  22983639.313 9 120779723.676 4  94114055.250 8
  90192633.475 9  22983635.50846
  21782278.445 6  21782286.273 9                 114466626.292 6  89194769.902 9
                  21782286.19548
  20471450.047 6  20471460.160 9  20471458.320 9 107578209.795 6  83827162.011 9
  80334362.344 9  20471459.40649
  22486625.891 5  22486637.223 8  22486637.309 9 118167972.936 5  92078929.418 8
  88242303.718 9  22486637.35948
  23956771.719 4                                 125893749.298 4  98099051.42746
                  23956785.31646
  22819228.070 5  22819239.910 8  22819239.832 9 119915821.099 5  93440899.467 8
  89547529.878 9  22819239.90648
  24422931.078 3  24422946.148 8  24422946.492 8 128343378.518 3 100007832.473 8
  95840840.285 8  24422945.33247
 25 04 21 00 19 00.0000000  0  9G01G02G04G07G08G09G16G27G30         
  22228542.453 5  22228552.605 9  22228556.539 9 116811775.088 5  91022166.527 9
  87229576.993 9  22228552.52347
  20747148.008 6                                 109026946.049 6  84956078.89648
                  20747153.59048
  22986369.945 4  22986380.777 8  22986385.492 9 120794153.834 4  94125299.507 8
  90203409.209 9  22986381.39846
  21779796.773 6  21779804.609 9                 114453584.078 6  89184607.131 9
                  21779804.23848
  20473022.313 6  20473032.426 9  20473030.844 9 107586473.416 6  83833601.188 9
  80340533.229 9  20473031.86749
  22488412.648 5  22488423.863 8  22488423.855 9 118177361.200 5  92086244.975 8
  88249314.442 9  22488423.94148
  23958506.766 4                                 125902867.127 4  98106156.18645
                  23958520.14545
  22822196.930 5  22822209.414 8  22822208.762 9 119931423.095 5  93453056.822 8
  89559180.669 9  22822208.82448
  24419710.133 2  24419723.730 8  24419725.320 8 128326451.876 2  99994642.877 8
  95828200.260 8  24419723.98847
 25 04 21 00 19 05.0000000  0  9G01G02G04G07G08G09G16G27G30         
  22225724.859 5  22225734.371 9  22225738.453 9 116796966.231 5  91010627.160 9
  87218518.447 9  22225734.15247
  20746183.453 6                                 109021876.778 6  84952128.82548
                  20746188.90648
  22989116.336 4  22989127.609 8  22989131.691 9 120808585.594 4  94136545.003 8
  90214186.132 9  22989127.60546
  21777316.359 6  21777323.777 9                 114440549.622 6  89174450.403 9
                  21777323.92648
  20474596.508 6  20474606.523 9  20474605.027 9 107594745.211 6  83840046.740 9
  80346710.203 9  20474606.03149
  22490200.445 5  22490211.469 8  22490211.914 9 118186757.393 5  92093566.652 8
  88256331.051 9  22490211.99648
  23960241.914 4                                 125911985.712 4  98113261.57045
                  23960255.25045
  22825166.164 5  22825177.934 8  22825177.902 9 119947026.391 5  93465215.215 8
  89570832.463 9  22825177.97348
  24416489.430 2  24416503.727 8  24416504.805 8 128309526.862 2  99981454.581 8
  95815561.498 8  24416503.19947
 25 04 21 00 19 10.0000000  0 10G01G02G04G07G08G09G16G17G27G30      
  22222907.273 5  22222917.449 9  22222921.664 9 116782162.808 5  90999092.046 9
  87207463.969 9  22222916.98447
  20745221.578 6                                 109016822.870 6  84948190.72248
                  20745227.22348
  22991863.016 4  22991874.590 8  22991878.320 9 120823018.584 4  94147791.433 8
  90224963.970 9  22991874.14546
  21774837.578 6  21774845.055 9                 114427522.542 6  89164299.443 9
                  21774844.91848
  20476171.836 6  20476182.254 9  20476180.625 9 107603024.794 6  83846498.357 9
  80352893.007 9  20476181.48049
  22491989.820 5  22492000.965 8  22492001.586 9 118196161.064 5  92100894.165 8
  88263353.260 9  22492001.57448
  23961977.164 4                                 125921104.647 4  98120367.20845
                  23961990.82445
  24832374.156 2  24832386.891 8                 130495011.175 2 101684421.331 8
                  24832386.22746
  22828135.734 5  22828147.746 8  22828147.188 9 119962630.668 5  93477374.360 8
  89582484.977 9  22828147.41848
  24413269.469 3  24413282.719 8  24413284.063 8 128292603.200 3  99968267.338 8
  95802923.698 8  24413282.73047
 25 04 21 00 19 15.0000000  0 10G01G02G04G07G08G09G16G17G27G30      
  22220091.563 5  22220100.969 9  22220105.441 9 116767364.898 5  90987561.224 9
  87196413.572 9  22220101.09447
  20744263.125 6                                 109011784.274 6  84944264.53848
                  20744268.55948
  22994610.078 4  22994620.656 8  22994625.258 9 120837452.760 4  94159038.842 8
  90235742.714 9  22994620.78946
  21772359.609 6  21772367.742 9                 114414502.845 6  89154154.229 9
                  21772367.40248
  20477749.320 6  20477759.383 9  20477757.711 9 107611312.169 6  83852956.047 9
  80359081.630 9  20477758.62549
  22493781.047 5  22493791.820 8  22493792.457 9 118205572.229 5  92108227.520 8
  88270381.063 9  22493792.43448
  23963713.297 4                                 125930224.004 4  98127473.19745
                  23963726.16045
  24829701.820 2  24829714.117 8                 130480970.688 2 101673480.745 8
                  24829714.53546
  22831105.211 5  22831117.652 8  22831117.047 9 119978235.926 5  93489534.274 8
  89594138.220 9  22831116.94548
  24410048.031 2  24410063.371 8  24410064.160 8 128275680.857 2  99955081.092 8
  95790286.892 8  24410062.49247
 25 04 21 00 19 20.0000000  0 10G01G02G04G07G08G09G16G17G27G30      
  22217276.844 5  22217286.164 9  22217290.594 9 116752572.704 5  90976034.854 9
  87185367.486 9  22217286.46947
  20743306.922 6                                 109006761.295 6  84940350.53948
                  20743312.68048
  22997356.352 4  22997367.934 9  22997371.840 9 120851888.390 4  94170287.349 9
  90246522.526 9  22997368.20746
  21769883.688 6  21769891.414 9                 114401490.831 6  89144015.008 9
                  21769891.30548
  20479327.391 6  20479337.832 9  20479336.262 9 107619607.600 6  83859420.005 9
  80365276.261 9  20479337.20749
  22495573.352 5  22495584.277 8  22495584.949 9 118214991.095 5  92115566.899 8
  88277414.619 9  22495584.71948
  23965448.313 4                                 125939344.042 4  98134579.67145
                  23965461.51245
  24827030.898 2  24827044.000 7                 130466936.684 2 101662545.097 7
                  24827043.60946
  22834075.086 5  22834087.668 8  22834086.766 9 119993842.384 5  93501695.135 8
  89605792.366 9  22834086.84048
  24406828.594 3  24406842.609 8  24406844.031 8 128258760.154 3  99941896.138 8
  95777651.319 8  24406842.93447
 25 04 21 00 19 25.0000000  0 10G01G02G04G07G08G09G16G17G27G30      
  22214463.422 5  22214472.953 9  22214476.934 9 116737786.327 5  90964513.008 9
  87174325.717 9  22214472.78947
  20742354.281 6                                 109001753.944 6  84936448.71248
                  20742359.75448
  23000103.977 4  23000115.477 8  23000119.238 9 120866325.495 4  94181537.022 8
  90257303.451 9  23000115.58246
  21767409.023 6  21767416.816 9                 114388486.516 6  89133881.796 9
                  21767416.67649
  20480907.719 6  20480917.777 9  20480916.461 9 107627911.090 6  83865890.248 9
  80371476.901 9  20480917.25849
  22497367.141 5  22497378.297 9  22497378.859 9 118224417.737 5  92122912.315 9
  88284453.981 9  22497378.56348
  23967184.031 3                                 125948464.724 3  98141686.67445
                  23967196.94945
  24824362.633 2  24824374.023 8                 130452909.098 2 101651614.573 8
                  24824374.59446
  22837045.492 5  22837057.090 8  22837056.891 9 120009450.032 5  93513856.949 8
  89617447.417 9  22837056.97348
  24403609.031 3  24403623.352 8  24403624.184 8 128241841.057 3  99928712.473 8
  95765016.963 8  24403623.23847
 25 04 21 00 19 30.0000000  0 10G01G02G04G07G08G09G16G17G27G30      
  22211650.695 5  22211660.012 9  22211664.441 9 116723005.817 5  90952995.728 9
  87163288.327 9  22211660.00047
  20741403.961 6                                 108996762.317 6  84932559.13048
                  20741409.99248
  23002851.344 4  23002862.902 9  23002866.910 9 120880764.119 4  94192787.852 9
  90268085.499 9  23002863.19946
  21764935.773 6  21764943.539 9                 114375489.978 6  89123754.608 9
                  21764943.36349
  20482489.180 6  20482499.445 9  20482498.102 9 107636222.673 6  83872366.799 9
  80377683.593 9  20482498.89549
  22499162.664 5  22499173.434 9  22499173.902 9 118233852.174 5  92130263.812 9
  88291499.166 9  22499173.68048
  23968919.531 3                                 125957586.213 3  98148794.31045
                  23968932.73445
  24821694.500 2  24821705.949 8                 130438888.044 2 101640689.037 8
                  24821706.35946
  22840015.266 5  22840027.344 8  22840027.133 9 120025059.016 5  93526019.745 8
  89629103.444 9  22840027.16048
  24400389.734 3  24400404.500 8  24400405.035 8 128224923.689 3  99915530.112 8
  95752383.856 8  24400403.73847
 25 04 21 00 19 35.0000000  0 10G01G02G04G07G08G09G16G17G27G30      
  22208839.055 5  22208848.688 9  22208852.801 9 116708231.005 5  90941482.890 9
  87152255.192 9  22208848.14547
  20740457.313 6                                 108991786.198 6  84928681.64148
                  20740463.02348
  23005599.063 4  23005611.176 9  23005614.406 9 120895204.029 4  94204039.714 9
  90278868.519 9  23005611.18046
  21762463.742 6  21762472.113 9                 114362501.079 6  89113633.411 9
                  21762471.83249
  20484072.180 6  20484082.555 9  20484081.230 9 107644542.158 6  83878849.520 9
  80383896.197 9  20484082.04349
  22500958.852 5  22500970.410 8  22500970.711 9 118243294.200 5  92137621.205 8
  88298550.005 9  22500970.55548
  23970655.469 3                                 125966708.237 3  98155902.36145
                  23970668.66845
  24819027.906 3  24819040.316 8                 130424873.342 3 101629768.468 8
                  24819039.49646
  22842986.313 5  22842998.332 8  22842997.637 9 120040669.079 5  93538183.401 8
  89640760.279 9  22842997.85948
  24397170.086 3  24397185.688 8  24397185.918 8 128208007.857 3  99902348.983 8
  95739751.928 8  24397184.78147
 25 04 21 00 19 40.0000000  0 10G01G02G04G07G08G09G16G17G27G30      
  22206028.469 5  22206038.195 9  22206042.242 9 116693462.014 5  90929974.604 9
  87141226.408 9  22206037.94147
  20739513.555 6                                 108986825.702 6  84924816.32048
                  20739519.14548
  23008346.586 4  23008358.758 8  23008362.668 8 120909645.400 4  94215292.667 8
  90289652.614 8  23008359.13746
  21759993.352 6  21760001.836 9                 114349519.926 6  89103518.234 9
                  21760001.50848
  20485656.906 6  20485667.398 9  20485666.027 9 107652869.673 6  83885338.484 9
  80390114.784 9  20485666.66449
  22502757.203 5  22502768.500 8  22502768.840 9 118252743.929 5  92144984.634 8
  88305606.608 9  22502768.74248
  23972391.227 3                                 125975830.970 3  98163010.94445
                  23972404.39845
  24816361.227 2  24816373.676 7                 130410865.090 2 101618852.952 7
                  24816373.97746
  22845956.500 5  22845968.809 8  22845968.492 9 120056280.330 5  93550347.985 8
  89652417.993 9  22845968.36348
  24393953.188 3  24393966.445 8  24393967.359 8 128191093.739 3  99889169.139 8
  95727121.261 8  24393966.17647
 25 04 21 00 19 45.0000000  0 10G01G02G04G07G08G09G16G17G27G30      
  22203219.172 5  22203228.551 9  22203232.703 9 116678698.755 5  90918470.758 9
  87130201.916 9  22203228.41847
  20738572.625 6                                 108981880.779 6  84920963.14148
                  20738578.27048
  23011095.313 4  23011107.379 9  23011110.941 9 120924088.036 4  94226546.670 9
  90300437.680 9  23011107.47746
  21757525.000 6  21757533.168 9                 114336546.418 6  89093409.002 9
                  21757532.73448
  20487243.266 6  20487253.328 9  20487252.160 9 107661205.080 6  83891833.594 9
  80396339.273 9  20487252.91849
  22504557.133 5  22504567.984 8  22504568.621 9 118262201.243 5  92152353.948 8
  88312668.857 9  22504568.35548
  23974128.242 3                                 125984954.289 3  98170119.99645
                  23974140.55945
  24813696.414 2  24813709.938 8                 130396863.225 2 101607942.415 8
                  24813709.35546
  22848927.195 5  22848939.543 8  22848939.234 9 120071892.639 5  93562513.431 8
  89664076.526 9  22848939.55948
  24390733.688 3  24390748.648 8  24390748.984 8 128174181.176 3  99875990.542 8
  95714491.765 8  24390747.71947
 25 04 21 00 19 50.0000000  0 10G01G02G04G07G08G09G16G17G27G30      
  22200410.961 5  22200420.371 9  22200424.672 9 116663941.395 5  90906971.550 9
  87119181.808 9  22200420.34047
  20737634.172 6                                 108976951.550 6  84917122.18548
                  20737640.18448
  23013844.234 4  23013855.922 8  23013859.250 9 120938532.120 4  94237801.775 8
  90311223.813 9  23013856.07446
  21755057.984 6  21755065.121 9                 114323580.746 6  89083305.889 9
                  21755065.41849
  20488831.297 6  20488841.066 9  20488839.926 9 107669548.538 6  83898334.981 9
  80402569.764 9  20488840.63349
  22506358.438 5  22506368.809 8  22506369.680 9 118271666.261 5  92159729.283 8
  88319736.880 9  22506369.33248
  23975863.742 3                                 125994078.313 3  98177229.63445
                  23975876.86345
  24811033.891 2  24811045.648 8                 130382867.850 2 101597036.933 8
                  24811046.60946
  22851898.336 4  22851911.367 8  22851910.293 9 120087506.211 4  93574679.793 8
  89675735.972 9  22851910.73848
  24387514.953 2  24387530.563 8  24387531.051 8 128157270.347 2  99862813.255 8
  95701863.577 8  24387529.46947
 25 04 21 00 19 55.0000000  0 10G01G02G04G07G08G09G16G17G27G30      
  22197603.727 5  22197613.250 9  22197617.426 9 116649189.924 5  90895476.892 9
  87108166.118 9  22197613.02047
  20736699.336 6                                 108972038.025 6  84913293.47748
                  20736705.21548
  23016593.844 4  23016605.238 8  23016608.375 9 120952977.591 4  94249057.955 8
  90322010.988 9  23016604.97746
  21752591.914 6  21752599.684 9                 114310622.860 6  89073208.849 9
                  21752599.47349
  20490419.867 6  20490430.313 9  20490429.184 9 107677899.980 6  83904842.581 9
  80408806.216 9  20490429.81649
  22508160.719 5  22508171.699 8  22508172.289 9 118281138.945 5  92167110.587 8
  88326810.633 9  22508171.96948
  23977600.266 3                                 126003203.089 3  98184339.80845
                  23977613.49645
  24808372.289 2  24808383.980 8                 130368879.002 2 101586136.485 8
                  24808384.48046
  22854869.867 4  22854882.281 8  22854881.719 9 120103120.927 4  93586847.092 8
  89687396.292 9  22854882.07048
  24384298.047 3  24384312.520 8  24384313.176 8 128140361.203 3  99849637.352 8
  95689236.657 8  24384311.73847
 25 04 21 00 20 00.0000000  0 10G01G02G04G07G08G09G16G17G27G30      
  22194798.328 5  22194807.555 9  22194811.289 9 116634444.217 5  90883986.729 9
  87097154.710 9  22194807.37947
  20735767.367 6                                 108967140.071 6  84909476.89348
                  20735773.19548
  23019342.609 4  23019353.773 8  23019357.402 8 120967424.319 4  94260315.109 8
  90332799.083 8  23019354.11746
  21750127.305 6  21750135.773 9                 114297672.646 6  89063117.765 9
                  21750135.23849
  20492011.094 6  20492021.004 9  20492019.766 9 107686259.251 6  83911356.308 9
  80415048.518 9  20492020.52749
  22509964.859 5  22509975.941 8  22509976.203 9 118290619.159 5  92174497.735 8
  88333889.995 9  22509976.07848
  23979336.484 3                                 126012328.380 3  98191450.41945
                  23979349.88745
  24805711.195 2  24805723.777 8                 130354896.431 2 101575241.056 8
                  24805723.79746
  22857841.102 4  22857853.957 8  22857853.410 9 120118736.678 4  93599015.181 8
  89699057.363 9  22857853.66048
  24381080.063 2  24381095.172 8  24381095.637 8 128123453.675 2  99836462.664 8
  95676610.920 8  24381094.51247
 25 04 21 00 20 05.0000000  0 10G01G02G04G07G08G09G16G17G27G30      
  22191993.070 5  22192002.262 9  22192006.414 9 116619704.444 5  90872501.216 9
  87086147.770 9  22192002.37947
  20734838.016 6                                 108962257.845 6  84905672.56648
                  20734844.10948
  23022091.727 4  23022103.500 8  23022106.727 9 120981872.431 4  94271573.349 8
  90343588.223 9  23022103.47746
  21747664.727 6  21747672.500 9                 114284730.303 6  89053032.827 9
                  21747672.48048
  20493602.867 6  20493613.164 9  20493612.086 9 107694626.576 6  83917876.293 9
  80421296.841 9  20493612.77349
  22511770.461 5  22511781.598 8  22511781.641 9 118300107.043 5  92181890.888 8
  88340975.100 9  22511781.35248
  23981073.359 3                                 126021454.432 3  98198561.58745
                  23981086.68445
  24803051.641 2  24803064.008 7                 130340920.524 2 101564350.700 7
                  24803063.77746
  22860814.039 4  22860825.613 8  22860825.137 9 120134353.639 4  93611184.211 8
  89710719.354 9  22860825.53948
  24377863.750 3  24377877.621 8  24377878.609 8 128106547.987 3  99823289.383 8
  95663986.508 8  24377877.38747
 25 04 21 00 20 10.0000000  0 10G01G02G04G07G08G09G16G17G27G30      
  22189189.094 5  22189198.297 9  22189202.559 9 116604970.464 5  90861020.192 9
  87075145.135 9  22189198.54747
  20733912.164 6                                 108957391.145 6  84901880.33448
                  20733918.14548
  23024841.617 4  23024852.996 9  23024856.313 8 120996321.719 4  94282832.515 9
  90354378.255 8  23024853.48046
  21745203.422 6  21745211.199 9                 114271795.614 6  89042953.868 9
                  21745211.09048
  20495196.836 6  20495207.242 9  20495205.824 9 107703001.664 6  83924402.331 9
  80427550.980 9  20495206.39549
  22513577.727 5  22513588.121 8  22513588.730 9 118309602.406 5  92189289.844 8
  88348065.775 9  22513588.30148
  23982810.727 3                                 126030581.072 3  98205673.23245
                  23982823.50845
  24800392.539 2  24800405.488 8                 130326950.891 2 101553465.281 8
                  24800405.61346
  22863785.320 4  22863797.414 8  22863797.250 9 120149971.536 4  93623353.972 8
  89722382.057 9  22863797.50448
  24374647.406 3  24374660.980 8  24374661.945 8 128089643.828 3  99810117.299 8
  95651363.299 8  24374660.58647
 25 04 21 00 20 15.0000000  0 10G01G02G04G07G08G09G16G17G27G30      
  22186386.391 5  22186396.133 9  22186399.852 9 116590242.433 5  90849543.817 9
  87064146.931 9  22186395.71147
  20732988.852 6                                 108952540.176 6  84898100.36548
                  20732994.98848
  23027591.406 4  23027602.863 8  23027606.344 9 121010772.372 4  94294092.727 8
  90365169.285 9  23027603.37946
  21742743.422 6  21742751.363 9                 114258868.801 6  89032881.024 9
                  21742751.22348
  20496792.203 6  20496802.551 9  20496801.098 9 107711384.742 6  83930934.597 9
  80433811.056 9  20496801.60949
  22515385.711 5  22515396.566 8  22515396.898 9 118319105.401 5  92196694.778 8
  88355162.148 9  22515396.46148
  23984547.406 3                                 126039708.438 3  98212785.43945
                  23984560.38745
  24797734.922 2  24797748.332 7                 130312987.653 2 101542584.837 7
                  24797748.38746
  22866757.172 4  22866770.109 8  22866769.473 9 120165590.629 4  93635524.671 8
  89734045.634 9  22866769.76248
  24371430.648 2  24371444.746 8  24371445.523 8 128072741.415 2  99796946.666 8
  95638741.391 8  24371444.28547
 25 04 21 00 20 20.0000000  0 10G01G02G04G07G08G09G16G17G27G30      
  22183584.883 5  22183593.930 9  22183598.203 9 116575520.256 5  90838072.008 9
  87053153.112 9  22183594.27047
  20732068.633 6                                 108947704.868 6  84894332.59848
                  20732074.89148
  23030341.773 4  23030352.637 8  23030356.395 9 121025224.233 4  94305353.892 8
  90375961.228 9  23030353.70346
  21740285.180 6  21740293.066 9                 114245949.753 6  89022814.259 9
                  21740292.78148
  20498388.922 6  20498399.098 9  20498397.793 9 107719775.650 6  83937472.956 9
  80440076.982 9  20498398.49249
  22517195.672 5  22517206.266 8  22517206.660 9 118328615.896 5  92204105.534 8
  88362264.123 9  22517206.26248
  23986283.469 3                                 126048836.415 3  98219898.11945
                  23986297.26245
  24795079.945 2  24795092.035 8                 130299030.875 2 101531709.439 8
                  24795092.35546
  22869729.680 4  22869742.164 8  22869741.758 9 120181210.743 4  93647696.172 8
  89745709.970 9  22869742.25048
  24368214.320 3  24368228.195 8  24368229.203 8 128055840.724 3  99783777.317 8
  95626120.765 8  24368228.22347
