     2.10           OBSERVATION DATA    G (GPS)             RINEX VERSION / TYPE
teqc  2000Jul20     WCDA Data collecting20010401 00:12:37UTCPGM / RUN BY / DATE
Solaris 2.7|Ultra 2|cc SC5.0|=+-|*Sparc                     COMMENT
teqc  2000Jul20     WCDA Data collecting20010401 00:12:31UTCCOMMENT
teqc  2000Jul20     WCDA Data collecting20010331 01:12:17UTCCOMMENT
site                                  xxxxxx                MARKER NAME
xxxxxxxxx                                                   MARKER NUMBER
xxxxxxxx            xxxxxxxxxxxxxxxxxx                      OBSERVER / AGENCY
2025                AOA BENCHMARK ACT   3.3.32.2N lk99/07/28REC # / TYPE / VERS
95174               AOAD/M_T        EMRA                    ANT # / TYPE
 00000001.0000 00000001.0000  0000001.0000                  APPROX POSITION XYZ
        0.1000        0.0000        0.0000                  ANTENNA: DELTA H/E/N
     1     1                                                WAVELENGTH FACT L1/2
     7    L1    L2    C1    P1    P2    S1    S2            -# / TYPES OF OBSERV
    30.0000                                                 INTERVAL
STATION INFORMATION EFFECTIVE FROM: 2000/03/15 18:18:00     COMMENT
                                TO: CURRENT DATE (above)    COMMENT
BIT 2 OF LLI FLAGS (+4) DATA COLLECTED UNDER 'AS' CONDITION COMMENT
L1 PHASE CENTRE 0.110m ABOVE ARP                            COMMENT
L2 PHASE CENTRE 0.128m ABOVE ARP                            COMMENT
where ARP is the Antenna Reference Point for HI measurement COMMENT
CONTACT xxxxx@pgc.nrcan.gc.ca FOR ADDITIONAL INFORMATION    COMMENT
    P1 =    P1  TurboRogue; =    Y1  Benchmark              COMMENT
    L1 = L1(CA)                                             COMMENT
    P2 =    P2  TurboRogue; =    Y2  Benchmark              COMMENT
    L2 = L2(P2) TurboRogue; = L2(Y2) Benchmark              COMMENT
 SNR is mapped to RINEX snr flag value [1,4-9]              COMMENT
    SNR:   >316  >100  >31.6  >10  >3.2    >0 bad=0         COMMENT
L1 & L2:      9     8     7     6     5     4     1         COMMENT
  2001     3    31     0     0    0.0000000     GPS         TIME OF FIRST OBS
                                                            END OF HEADER
 01  3 31  0  0  0.0000000  0 10G10G22G17G15G18G 6G26G28G23G 3
  -4571014.571 4  -3561795.634 4  23688534.679    23688535.001    23688542.297
        37.000          27.000
  -8749437.103 5  -6817728.119 5  22540847.552    22540847.117    22540852.845
        66.000          48.000
 -24594284.015 9 -19164312.035 9  20429273.904    20429273.599    20429274.798
       225.000         315.000
 -20480724.142 9 -15958945.809 8  20781861.352    20781861.110    20781863.540
       255.000         209.000
 -14644868.499 6 -11411535.110 5  21937921.945    21937922.064    21937925.421
       127.000          74.000
 -17306788.915 7 -13485772.962 6  21539601.164    21539601.273    21539604.277
       154.000         105.000
 -10350499.255 5  -8065294.350 5  22251730.748    22251730.909    22251734.780
        66.000          58.000
  -1090617.169 4   -849829.068 4  24134689.870    24134690.016    24134698.149
        16.000          17.000
 -16407721.254 8 -12785179.773 7  21490116.573    21490116.135    21490119.224
       201.000         160.000
   -958091.866 4   -746562.115 4  24463642.424    24463641.882    24463650.913
        30.000          13.000
 01  3 31  0  0 30.0000000  0 10G10G22G17G15G18G 6G26G28G23G 3
  -4468380.069 4  -3481820.827 4  23708065.725    23708065.686    23708073.112
        29.000          27.000
  -8728004.983 5  -6801027.809 5  22544925.987    22544925.607    22544931.449
        67.000          47.000
 -24611016.429 9 -19177350.249 9  20426089.451    20426089.322    20426090.749
       222.000         316.000
 -20533081.150 9 -15999743.386 8  20771898.014    20771897.814    20771900.188
       273.000         212.000
 -14733225.122 7 -11480384.220 5  21921108.166    21921108.196    21921111.406
       131.000          71.000
 -17230969.587 7 -13426693.051 6  21554028.811    21554029.069    21554032.475
       141.000         107.000
 -10394039.622 5  -8099221.798 5  22243445.484    22243445.515    22243449.259
        59.000          59.000
  -1151692.648 4   -897420.254 4  24123070.168    24123069.494    24123075.750
        27.000          14.000
 -16471521.590 8 -12834894.204 7  21477975.750    21477975.330    21477978.295
       203.000         154.000
  -1062478.180 4   -827901.871 4  24443776.713    24443776.901    24443787.074
        27.000          12.000
 01  3 31  0  1  0.0000000  0 10G10G22G17G15G18G 6G26G28G23G 3
  -4365574.277 4  -3401712.583 4  23727630.189    23727629.757    23727635.866
        31.000          27.000
  -8706004.611 5  -6783884.706 4  22549112.285    22549111.884    22549117.784
        67.000          41.000
 -24627402.702 9 -19190118.744 9  20422971.337    20422971.119    20422972.557
       230.000         323.000
 -20585110.811 9 -16040285.892 8  20761996.879    20761996.736    20761999.116
       273.000         211.000
 -14821234.966 7 -11548963.120 5  21904360.031    21904360.103    21904363.524
       138.000          72.000
 -17154769.889 7 -13367316.748 6  21568529.312    21568529.376    21568532.610
       135.000         102.000
 -10437004.675 5  -8132700.958 5  22235269.111    22235269.302    22235273.015
        61.000          62.000
  -1212292.775 4   -944641.062 4  24111537.488    24111537.420    24111543.754
        26.000          15.000
 -16534916.251 8 -12884292.528 7  21465911.737    21465911.519    21465914.497
       211.000         154.000
  -1166755.527 4   -909156.708 4  24423933.265    24423933.173    24423943.381
        23.000          13.000
 01  3 31  0  1 30.0000000  0 10G10G22G17G15G18G 6G26G28G23G 3
  -4262599.564 4  -3321472.710 4  23747225.348    23747225.115    23747231.732
        30.000          24.000
  -8683436.800 5  -6766299.463 4  22553407.020    22553406.698    22553412.311
        69.000          41.000
 -24643442.701 9 -19202617.423 9  20419919.345    20419918.947    20419920.286
       226.000         327.000
 -20636812.145 9 -16080572.559 8  20752158.399    20752158.291    20752160.615
       275.000         208.000
 -14908896.305 7 -11617270.452 5  21887678.624    21887678.602    21887681.947
       136.000          73.000
 -17078191.333 7 -13307645.234 6  21583102.093    21583102.220    21583105.078
       139.000          98.000
 -10479392.370 5  -8165730.241 5  22227202.396    22227202.932    22227207.231
        65.000          64.000
  -1272415.512 4   -991489.864 4  24100095.075    24100095.623    24100102.591
        21.000          14.000
 -16597904.185 8 -12933373.923 7  21453925.947    21453925.421    21453928.181
       212.000         156.000
  -1270921.691 4   -990324.905 4  24404111.293    24404110.918    24404120.279
        20.000          11.000
 01  3 31  0  2  0.0000000  0 10G10G22G17G15G18G 6G26G28G23G 3
  -4159458.584 4  -3241103.265 4  23766852.504    23766852.007    23766858.882
        26.000          23.000
  -8660302.809 5  -6748273.020 5  22557809.325    22557809.098    22557815.111
        68.000          49.000
 -24659136.086 9 -19214846.020 9  20416932.715    20416932.503    20416933.904
       228.000         322.000
 -20688184.731 9 -16120603.061 9  20742382.757    20742382.469    20742384.698
       269.000         216.000
 -14996207.017 7 -11685304.580 5  21871064.083    21871064.038    21871066.976
       142.000          73.000
 -17001235.078 7 -13247679.417 6  21597746.104    21597746.392    21597749.599
       137.000          96.000
 -10521200.729 5  -8198308.077 5  22219246.608    22219246.963    22219251.338
        56.000          66.000
  -1332058.997 4  -1037965.283 4  24088745.852    24088745.554    24088752.833
        15.000          11.000
 -16660484.366 9 -12982137.583 7  21442016.641    21442016.435    21442019.479
       220.000         163.000
  -1374974.522 4  -1071404.816 4  24384310.831    24384310.717    24384319.673
        20.000          17.000
 01  3 31  0  2 30.0000000  0 10G10G22G17G15G18G 6G26G28G23G 3
  -4056153.384 4  -3160605.904 4  23786510.244    23786510.251    23786517.776
        32.000          26.000
  -8636604.265 5  -6729806.676 5  22562319.112    22562318.946    22562324.832
        70.000          50.000
 -24674482.640 9 -19226804.359 9  20414012.569    20414012.257    20414013.563
       225.000         321.000
 -20739227.741 9 -16160376.757 9  20732669.263    20732669.107    20732671.419
       270.000         214.000
 -15083165.540 7 -11753064.282 5  21854516.484    21854516.478    21854519.058
       152.000          76.000
 -16923902.517 7 -13187420.384 6  21612462.426    21612462.462    21612465.301
       132.000          92.000
 -10562427.668 5  -8230432.874 5  22211402.114    22211402.107    22211405.627
        59.000          60.000
  -1391221.378 4  -1084065.728 4  24077486.535    24077486.721    24077494.832
        10.000          16.000
 -16722655.714 9 -13030582.675 7  21430186.409    21430185.931    21430188.648
       227.000         166.000
  -1478911.988 4  -1152394.838 4  24364533.055    24364532.161    24364541.033
        23.000          15.000
 01  3 31  0  3  0.0000000  0 10G10G22G17G15G18G 6G26G28G23G 3
  -3952686.559 4  -3079982.568 4  23806199.529    23806199.374    23806206.467
        27.000          22.000
  -8612342.722 5  -6710901.649 5  22566935.701    22566935.537    22566941.593
        70.000          49.000
 -24689482.008 9 -19238492.151 9  20411158.182    20411157.891    20411159.242
       223.000         326.000
 -20789940.574 9 -16199893.176 9  20723018.897    20723018.736    20723021.077
       274.000         218.000
 -15169769.997 7 -11820548.095 5  21838036.381    21838036.210    21838038.667
       157.000          75.000
 -16846194.889 7 -13126869.070 6  21627249.826    21627249.880    21627252.578
       137.000          93.000
 -10603071.203 5  -8262103.064 5  22203667.962    22203667.989    22203671.268
        61.000          60.000
  -1449900.663 4  -1129789.710 4  24066320.376    24066321.110    24066328.928
        23.000          15.000
 -16784417.099 9 -13078708.308 7  21418433.116    21418432.926    21418435.692
       230.000         165.000
  -1582732.282 4  -1233293.563 4  24344775.641    24344775.246    24344784.822
        22.000          20.000
 01  3 31  0  3 30.0000000  0 10G10G22G17G15G18G 6G26G28G23G 3
  -3849060.488 4  -2999235.168 4  23825919.765    23825919.335    23825926.536
        30.000          24.000
  -8587519.025 5  -6691558.568 5  22571660.537    22571660.103    22571665.471
        77.000          51.000
 -24704134.186 9 -19249909.401 9  20408370.152    20408369.797    20408370.992
       220.000         324.000
 -20840322.457 9 -16239151.716 9  20713431.173    20713431.168    20713433.636
       275.000         220.000
 -15256018.619 7 -11887754.628 5  21821622.908    21821623.059    21821625.928
       150.000          73.000
 -16768113.759 7 -13066026.737 6  21642107.845    21642107.961    21642111.189
       133.000          92.000
 -10643129.289 5  -8293317.071 5  22196044.336    22196044.680    22196048.559
        66.000          64.000
  -1508094.740 4  -1175135.707 4  24055248.072    24055247.585    24055253.737
        28.000          13.000
 -16845767.439 9 -13126513.645 8  21406758.617    21406758.182    21406760.976
       226.000         171.000
  -1686433.041 4  -1314099.182 4  24325041.660    24325041.527    24325051.255
        20.000          18.000
 01  3 31  0  4  0.0000000  0 10G10G22G17G15G18G 6G26G28G23G 3
  -3745277.435 4  -2918365.436 4  23845669.429    23845669.024    23845676.352
        26.000          29.000
  -8562134.177 5  -6671778.229 5  22576490.253    22576490.068    22576496.352
        67.000          56.000
 -24718439.013 9 -19261055.991 9  20405647.639    20405647.436    20405648.850
       220.000         323.000
 -20890372.760 9 -16278151.885 9  20703907.096    20703906.871    20703909.179
       271.000         218.000
 -15341909.839 7 -11954682.671 5  21805278.745    21805278.584    21805281.242
       155.000          78.000
 -16689660.436 7 -13004894.378 6  21657037.337    21657037.361    21657040.356
       134.000          87.000
 -10682600.020 5  -8324073.390 5  22188533.341    22188533.683    22188537.407
        67.000          65.000
  -1565802.003 4  -1220102.348 4  24044265.581    24044265.647    24044272.566
        31.000          15.000
 -16906705.824 9 -13173997.974 8  21395162.287    21395161.907    21395164.611
       222.000         171.000
  -1790012.436 4  -1394810.249 4  24305331.677    24305331.336    24305340.331
        25.000          15.000
 01  3 31  0  4 30.0000000  0 10G10G22G17G15G18G 6G26G28G23G 3
  -3641339.789 4  -2837375.233 4  23865449.250    23865448.561    23865454.959
        29.000          25.000
  -8536189.757 5  -6651561.838 5  22581427.473    22581427.352    22581433.429
        61.000          55.000
 -24732396.091 9 -19271931.608 9  20402992.059    20402991.690    20402992.816
       228.000         327.000
 -20940090.921 9 -16316893.244 9  20694446.043    20694445.797    20694448.125
       269.000         224.000
 -15427441.751 7 -12021330.741 5  21789002.119    21789002.188    21789005.041
       147.000          78.000
 -16610836.207 7 -12943473.000 6  21672037.254    21672037.361    21672040.187
       135.000          90.000
 -10721481.480 5  -8354370.548 5  22181134.235    22181134.392    22181138.502
        65.000          63.000
  -1623020.429 4  -1264688.055 4  24033377.623    24033377.495    24033383.972
        33.000          18.000
 -16967231.177 9 -13221160.467 8  21383644.452    21383644.134    21383646.955
       228.000         173.000
  -1893468.270 4  -1475425.019 4  24285644.258    24285644.003    24285653.410
        26.000          13.000
 01  3 31  0  5  0.0000000  0 10G10G22G17G15G18G 6G26G28G23G 3
  -3537249.971 4  -2756266.436 4  23885255.731    23885255.371    23885262.040
        26.000          24.000
  -8509687.499 5  -6630910.791 5  22586470.541    22586470.522    22586476.635
        65.000          51.000
 -24746005.318 9 -19282536.164 9  20400401.996    20400401.888    20400402.984
       225.000         325.000
 -20989475.946 9 -16355375.020 9  20685048.352    20685048.153    20685050.424
       269.000         220.000
 -15512612.534 7 -12087697.419 5  21772794.751    21772794.605    21772797.345
       150.000          79.000
 -16531642.429 7 -12881763.669 6  21687107.581    21687107.614    21687110.568
       134.000          91.000
 -10759771.839 5  -8384207.110 5  22173847.500    22173847.649    22173851.854
        63.000          60.000
  -1679748.113 4  -1308891.344 4  24022582.924    24022582.906    24022589.969
        32.000          20.000
 -17027342.659 9 -13268000.452 8  21372205.580    21372205.210    21372208.084
       226.000         180.000
  -1996798.355 4  -1555941.807 4  24265981.641    24265981.526    24265990.576
        30.000          13.000
 01  3 31  0  5 30.0000000  0 10G10G22G17G15G18G 6G26G28G23G 3
  -3433010.164 4  -2675040.800 4  23905091.364    23905091.088    23905099.010
        29.000          25.000
  -8482628.841 5  -6609826.180 5  22591619.865    22591619.703    22591625.680
        70.000          47.000
 -24759266.490 9 -19292869.514 9  20397878.723    20397878.398    20397879.465
       222.000         323.000
 -21038527.407 9 -16393596.878 9  20675714.048    20675713.922    20675716.251
       280.000         223.000
 -15597420.463 7 -12153781.356 5  21756655.602    21756655.844    21756658.634
       150.000          79.000
 -16452080.624 7 -12819767.555 6  21702247.773    21702247.885    21702250.705
       129.000          93.000
 -10797468.998 5  -8413581.442 5  22166674.116    22166674.131    22166678.238
        59.000          62.000
  -1735983.241 4  -1352710.841 4  24011881.029    24011880.953    24011887.584
        33.000          17.000
 -17087039.102 9 -13314517.036 8  21360845.638    21360845.326    21360848.149
       223.000         176.000
  -2100000.453 4  -1636358.884 4  24246341.944    24246341.756    24246351.672
        29.000          15.000
 01  3 31  0  6  0.0000000  0 11G10G22G17G15G18G 6G26G28G23G 3G21
  -3328622.792 4  -2593700.206 4  23924956.766    23924956.266    23924963.809
        30.000          26.000
  -8455014.605 5  -6588308.645 5  22596875.262    22596874.845    22596880.083
        68.000          43.000
 -24772179.430 9 -19302931.526 9  20395421.018    20395420.832    20395422.267
       225.000         328.000
 -21087244.907 9 -16431558.502 9  20666443.399    20666443.227    20666445.420
       274.000         227.000
 -15681863.877 7 -12219581.262 5  21740586.488    21740586.540    21740589.467
       148.000          80.000
 -16372152.215 6 -12757485.772 6  21717457.426    21717457.514    21717460.598
       125.000          87.000
 -10834571.184 5  -8442492.145 5  22159613.968    22159614.234    22159617.891
        66.000          62.000
  -1791723.713 4  -1396144.893 4  24001274.922    24001274.682    24001280.927
        40.000          21.000
 -17146319.532 9 -13360709.447 8  21349564.942    21349564.605    21349567.318
       225.000         180.000
  -2203072.644 4  -1716674.686 4  24226728.053    24226727.902    24226738.157
        29.000          20.000
   -216544.736 4   -168734.803 4  24916405.449    24916405.480    24916419.478
        16.000          11.000
 01  3 31  0  6 30.0000000  0 11G10G22G17G15G18G 6G26G28G23G 3G21
  -3224090.232 4  -2512246.434 4  23944848.580    23944848.355    23944855.093
        30.000          22.000
  -8426846.217 5  -6566359.319 5  22602235.052    22602234.763    22602240.512
        66.000          46.000
 -24784743.973 9 -19312722.055 9  20393030.375    20393030.106    20393031.324
       224.000         327.000
 -21135627.546 9 -16469259.200 9  20657236.434    20657236.249    20657238.457
       272.000         227.000
 -15765940.746 7 -12285095.552 6  21724587.131    21724587.117    21724590.146
       149.000          85.000
 -16291858.580 6 -12694919.407 6  21732736.434    21732736.745    21732740.299
       117.000          94.000
 -10871076.646 5  -8470937.872 5  22152666.636    22152666.977    22152671.278
        62.000          63.000
  -1846968.034 4  -1439192.324 4  23990761.661    23990761.487    23990767.701
        31.000          19.000
 -17205183.165 9 -13406577.089 8  21338363.399    21338363.073    21338365.845
       235.000         181.000
  -2306012.844 4  -1796887.598 4  24207138.497    24207138.080    24207148.800
        25.000          23.000
   -317911.557 4   -247721.395 4  24897113.732    24897113.844    24897129.202
        23.000           9.000
 01  3 31  0  7  0.0000000  0 11G10G22G17G15G18G 6G26G28G23G 3G21
  -3119414.593 4  -2430681.184 4  23964767.578    23964767.240    23964775.088
        25.000          22.000
  -8398125.407 5  -6543979.519 5  22607700.869    22607700.406    22607705.938
        64.000          46.000
 -24796959.872 9 -19322240.912 9  20390705.786    20390705.543    20390706.687
       230.000         331.000
 -21183674.750 9 -16506698.519 9  20648093.708    20648093.398    20648095.366
       272.000         226.000
 -15849649.565 7 -12350323.048 6  21708657.868    21708657.852    21708660.764
       160.000          89.000
 -16211201.162 6 -12632069.548 6  21748085.602    21748085.612    21748089.067
       117.000          93.000
 -10906983.497 5  -8498917.147 5  22145834.587    22145834.410    22145837.948
        61.000          60.000
  -1901714.422 4  -1481851.770 4  23980343.267    23980343.057    23980349.818
        31.000          19.000
 -17263629.114 9 -13452119.263 8  21327241.297    21327240.993    21327243.769
       239.000         180.000
  -2408818.605 4  -1876995.747 4  24187574.658    24187574.533    24187584.921
        29.000          21.000
   -419188.331 4   -326637.774 4  24877840.591    24877840.718    24877855.685
        18.000           9.000
 01  3 31  0  7 30.0000000  0 11G10G22G17G15G18G 6G26G28G23G 3G21
  -3014598.429 4  -2349006.432 4  23984713.607    23984713.408    23984720.937
        33.000          24.000
  -8368854.060 5  -6521170.733 5  22613270.400    22613270.111    22613276.285
        63.000          47.000
 -24808826.966 9 -19331487.980 9  20388447.534    20388447.272    20388448.369
       224.000         328.000
 -21231385.757 9 -16543875.868 9  20639014.061    20639013.921    20639016.277
       274.000         228.000
 -15932988.593 7 -12415262.392 6  21692799.310    21692799.109    21692801.795
       167.000          90.000
 -16130181.543 6 -12568937.478 6  21763502.672    21763502.980    21763506.620
       112.000          88.000
 -10942290.061 5  -8526428.672 5  22139115.704    22139115.924    22139119.202
        64.000          58.000
  -1955960.728 4  -1524121.541 4  23970020.440    23970020.281    23970026.987
        28.000          18.000
 -17321656.411 9 -13497335.211 8  21316198.889    21316198.656    21316201.293
       237.000         183.000
  -2511487.956 4  -1956997.598 4  24168037.271    24168037.110    24168047.363
        29.000          22.000
   -520373.511 4   -405482.824 4  24858585.665    24858585.549    24858600.288
        24.000          11.000
 01  3 31  0  8  0.0000000  0 11G10G22G17G15G18G 6G26G28G23G 3G21
  -2909644.081 4  -2267224.006 4  24004685.404    24004685.612    24004693.279
        27.000          21.000
  -8339033.341 5  -6497933.867 5  22618945.832    22618945.443    22618951.586
        66.000          50.000
 -24820345.021 9 -19340463.072 9  20386255.511    20386255.316    20386256.584
       231.000         334.000
 -21278760.046 9 -16580790.834 9  20629999.096    20629998.972    20630001.092
       281.000         232.000
 -16015956.353 8 -12479912.437 6  21677010.781    21677010.839    21677013.219
       172.000          91.000
 -16048801.022 6 -12505524.196 6  21778989.296    21778989.316    21778992.790
       113.000          87.000
 -10976994.442 5  -8553470.962 5  22132512.004    22132512.062    22132515.382
        67.000          60.000
  -2009705.283 4  -1566000.328 4  23959793.132    23959792.755    23959800.388
        28.000          23.000
 -17379264.200 9 -13542224.275 8  21305236.795    21305236.376    21305238.742
       241.000         184.000
  -2614018.659 4  -2036891.389 4  24148525.808    24148525.752    24148536.214
        24.000          24.000
   -621465.345 4   -484255.155 4  24839347.243    24839347.395    24839362.437
        23.000          14.000
 01  3 31  0  8 30.0000000  0 11G10G22G17G15G18G 6G26G28G23G 3G21
  -2804553.796 4  -2185335.652 4  24024684.364    24024684.108    24024691.331
        29.000          21.000
  -8308664.349 5  -6474269.778 5  22624724.985    22624724.660    22624730.389
        66.000          54.000
 -24831513.588 9 -19349165.815 9  20384130.136    20384129.941    20384131.258
       229.000         332.000
 -21325796.964 9 -16617442.916 9  20621048.323    20621048.150    20621050.172
       280.000         230.000
 -16098551.039 8 -12544271.777 6  21661293.121    21661293.282    21661295.693
       174.000          89.000
 -15967061.069 6 -12441830.811 5  21794544.063    21794544.154    21794547.555
       112.000          83.000
 -11011094.992 5  -8580042.729 5  22126022.231    22126022.460    22126026.024
        64.000          58.000
  -2062946.626 4  -1607486.967 4  23949661.979    23949662.000    23949668.785
        27.000          18.000
 -17436451.540 9 -13586785.722 8  21294353.915    21294353.693    21294356.300
       241.000         186.000
  -2716408.635 4  -2116675.496 4  24129040.704    24129041.054    24129051.951
        23.000          24.000
   -722462.762 4   -562953.885 4  24820129.289    24820128.820    24820143.401
        17.000          16.000
 01  3 31  0  9  0.0000000  0 11G10G22G17G15G18G 6G26G28G23G 3G21
  -2699329.721 4  -2103343.063 4  24044707.981    24044707.854    24044714.823
        23.000          23.000
  -8277748.748 5  -6450179.759 5  22630607.789    22630607.493    22630613.237
        63.000          44.000
 -24842332.675 9 -19357596.233 9  20382071.287    20382071.044    20382072.350
       221.000         328.000
 -21372495.548 9 -16653831.359 9  20612162.298    20612161.943    20612163.735
       280.000         235.000
 -16180770.775 8 -12608338.946 6  21645646.943    21645647.150    21645649.711
       176.000          91.000
 -15884963.064 6 -12377858.445 5  21810166.868    21810166.961    21810170.342
       113.000          83.000
 -11044589.985 5  -8606142.643 5  22119647.958    22119648.338    22119652.036
        61.000          60.000
  -2115682.669 4  -1648579.936 4  23939626.163    23939626.116    23939632.758
        34.000          16.000
 -17493217.476 9 -13631018.806 8  21283551.646    21283551.370    21283553.997
       242.000         184.000
  -2818655.691 4  -2196348.215 4  24109583.376    24109584.024    24109594.804
        23.000          28.000
   -823364.082 4   -641577.793 4  24800925.981    24800926.456    24800941.611
        21.000          18.000
 01  3 31  0  9 30.0000000  0 11G10G22G17G15G18G 6G26G28G23G 3G21
  -2593974.285 4  -2021248.091 4  24064756.659    24064756.324    24064762.654
        28.000          18.000
  -8246288.543 5  -6425665.369 5  22636594.820    22636594.273    22636599.979
        64.000          48.000
 -24852802.042 9 -19365754.140 9  20380079.079    20380078.866    20380080.075
       220.000         330.000
 -21418855.522 9 -16689955.948 9  20603339.774    20603339.584    20603341.774
       283.000         234.000
 -16262614.068 8 -12672112.782 6  21630072.911    21630072.869    21630075.111
       175.000          91.000
 -15802508.566 6 -12313608.290 5  21825857.954    21825857.837    21825860.881
       113.000          79.000
 -11077477.724 5  -8631769.367 5  22113389.944    22113390.069    22113393.688
        64.000          62.000
  -2167911.857 4  -1689277.938 4  23929687.646    23929687.403    23929694.502
        34.000          21.000
 -17549561.127 9 -13674922.837 8  21272829.831    21272829.441    21272832.101
       245.000         185.000
  -2920757.655 4  -2275907.872 4  24090155.789    24090155.303    24090164.750
        20.000          22.000
   -924168.145 4   -720125.905 4  24781743.748    24781743.968    24781758.590
        18.000          12.000
 01  3 31  0 10  0.0000000  0 11G10G22G17G15G18G 6G26G28G23G 3G21
  -2488490.039 4  -1939052.786 4  24084830.534    24084829.993    24084835.922
        29.000          18.000
  -8214285.435 5  -6400727.921 5  22642685.274    22642684.747    22642690.154
        68.000          46.000
 -24862921.555 9 -19373639.424 9  20378153.343    20378153.111    20378154.376
       216.000         329.000
 -21464875.960 9 -16725815.958 9  20594582.324    20594582.124    20594584.270
       270.000         235.000
 -16344079.159 8 -12735591.913 6  21614570.501    21614570.512    21614572.624
       178.000          90.000
 -15719699.173 6 -12249081.602 5  21841616.090    21841615.953    21841619.068
       108.000          80.000
 -11109756.581 5  -8656921.646 5  22107247.671    22107247.779    22107251.058
        64.000          59.000
  -2219632.375 4  -1729579.532 4  23919845.030    23919845.066    23919851.842
        25.000          18.000
 -17605481.635 9 -13718497.151 8  21262188.437    21262188.121    21262190.551
       245.000         182.000
  -3022712.423 4  -2355352.857 4  24070752.450    24070753.204    24070762.855
        27.000          18.000
  -1024873.010 4   -798596.780 4  24762581.455    24762581.335    24762594.506
        20.000          15.000
 01  3 31  0 10 30.0000000  0 11G10G22G17G15G18G 6G26G28G23G 3G21
  -2382878.713 4  -1856758.408 4  24104926.677    24104926.445    24104933.644
        25.000          19.000
  -8181740.456 5  -6375368.271 5  22648878.060    22648877.462    22648883.395
        72.000          49.000
 -24872691.017 9 -19381251.948 9  20376294.157    20376293.969    20376295.285
       216.000         335.000
 -21510556.445 9 -16761411.076 9  20585889.198    20585889.116    20585891.282
       278.000         228.000
 -16425164.398 8 -12798775.061 6  21599140.104    21599140.093    21599142.417
       183.000          92.000
 -15636536.389 6 -12184279.550 5  21857441.325    21857441.364    21857444.449
       110.000          75.000
 -11141424.847 5  -8681598.137 5  22101220.877    22101221.257    22101224.755
        68.000          63.000
  -2270842.637 4  -1769483.531 4  23910100.178    23910100.041    23910106.638
        26.000          16.000
 -17660978.287 9 -13761741.185 8  21251627.722    21251627.365    21251629.798
       251.000         191.000
  -3124517.743 4  -2434681.389 4  24051380.174    24051380.324    24051389.666
        32.000          21.000
  -1125477.827 4   -876989.707 4  24743435.799    24743435.737    24743449.839
        20.000          13.000
 01  3 31  0 11  0.0000000  0 11G10G22G17G15G18G 6G26G28G23G 3G21
  -2277142.817 4  -1774367.035 4  24125047.781    24125047.299    24125055.063
        26.000          19.000
  -8148655.058 5  -6349587.495 5  22655173.249    22655173.200    22655179.472
        67.000          51.000
 -24882110.133 9 -19388591.507 9  20374501.729    20374501.480    20374502.874
       217.000         331.000
 -21555896.217 9 -16796740.699 9  20577261.511    20577261.322    20577263.294
       272.000         229.000
 -16505868.202 8 -12861660.977 6  21583782.404    21583782.492    21583785.004
       176.000          93.000
 -15553021.819 6 -12119203.370 5  21873334.342    21873334.133    21873336.855
       112.000          72.000
 -11172480.961 5  -8705797.622 5  22095311.148    22095311.387    22095314.937
        65.000          60.000
  -2321540.842 4  -1808988.574 4  23900451.028    23900451.018    23900458.940
        28.000          17.000
 -17716050.249 9 -13804654.298 8  21241147.690    21241147.443    21241149.900
       250.000         193.000
  -3226171.607 4  -2513891.918 4  24032036.258    24032036.041    24032044.536
        25.000          14.000
  -1225980.626 4   -955303.155 4  24724310.693    24724310.869    24724324.515
        24.000          14.000
 01  3 31  0 11 30.0000000  0 11G10G22G17G15G18G 6G26G28G23G 3G21
  -2171284.502 4  -1691880.195 4  24145192.229    24145191.867    24145199.440
        24.000          17.000
  -8115031.166 5  -6323387.120 5  22661572.685    22661572.223    22661577.829
        64.000          46.000
 -24891179.002 9 -19395658.165 9  20372775.944    20372775.751    20372777.146
       213.000         333.000
 -21600894.838 9 -16831804.491 9  20568698.522    20568698.361    20568700.307
       269.000         234.000
 -16586188.938 8 -12924248.401 6  21568498.321    21568498.152    21568500.368
       174.000          93.000
 -15469156.748 6 -12053854.081 5  21889292.527    21889292.698    21889296.032
       104.000          76.000
 -11202923.476 5  -8729518.985 5  22089517.897    22089518.110    22089521.662
        68.000          57.000
  -2371725.290 4  -1848093.261 4  23890903.136    23890903.231    23890909.441
        39.000          21.000
 -17770696.768 9 -13847235.900 8  21230748.877    21230748.509    21230750.987
       249.000         192.000
  -3327671.797 4  -2592982.703 4  24012721.118    24012720.820    24012730.039
        19.000          20.000
  -1326379.933 4  -1033536.010 4  24705205.243    24705205.077    24705218.536
        27.000          12.000
 01  3 31  0 12  0.0000000  0 11G10G22G17G15G18G 6G26G28G23G 3G21
  -2065306.325 4  -1609299.972 4  24165359.263    24165358.871    24165366.975
        21.000          23.000
  -8080870.875 5  -6296768.768 5  22668072.208    22668072.147    22668078.338
        61.000          47.000
 -24899897.303 9 -19402451.670 9  20371117.184    20371116.900    20371118.162
       216.000         340.000
 -21645551.571 9 -16866601.873 9  20560200.695    20560200.462    20560202.326
       268.000         236.000
 -16666125.185 8 -12986536.219 6  21553286.929    21553286.762    21553288.861
       177.000          98.000
 -15384942.696 6 -11988232.859 5  21905318.511    21905318.437    21905321.824
       112.000          75.000
 -11232750.671 5  -8752760.874 5  22083842.296    22083842.379    22083845.655
        68.000          60.000
  -2421394.488 4  -1886796.453 4  23881451.135    23881450.852    23881457.261
        34.000          18.000
 -17824917.033 9 -13889485.355 8  21220430.822    21220430.584    21220433.052
       252.000         196.000
  -3429016.191 4  -2671952.028 4  23993435.754    23993435.784    23993443.951
        17.000          20.000
  -1426674.428 4  -1111687.194 4  24686119.880    24686119.998    24686133.197
        24.000          15.000
 01  3 31  0 12 30.0000000  0 11G10G22G17G15G18G 6G26G28G23G 3G21
  -1959210.385 4  -1526628.047 4  24185549.763    24185549.068    24185557.367
        26.000          28.000
  -8046175.651 5  -6269733.586 5  22674674.929    22674674.607    22674680.951
        66.000          48.000
 -24908264.854 9 -19408971.854 9  20369524.841    20369524.619    20369525.841
       216.000         331.000
 -21689865.742 9 -16901132.330 9  20551767.743    20551767.617    20551769.665
       271.000         236.000
 -16745675.225 8 -13048523.096 6  21538148.714    21538148.759    21538150.773
       178.000          97.000
 -15300381.294 6 -11922340.977 5  21921409.640    21921409.858    21921413.489
       102.000          76.000
 -11261961.088 5  -8775522.162 5  22078284.180    22078284.255    22078287.063
        73.000          61.000
  -2470546.754 4  -1925096.848 4  23872097.504    23872097.369    23872104.217
        28.000          19.000
 -17878710.051 9 -13931401.896 8  21210194.557    21210194.150    21210196.505
       250.000         192.000
  -3530202.282 4  -2750798.093 4  23974181.428    23974181.441    23974188.915
        31.000          19.000
  -1526862.684 4  -1189755.571 4  24667054.293    24667054.489    24667068.001
        20.000          15.000
 01  3 31  0 13  0.0000000  0 11G10G22G17G15G18G 6G26G28G23G 3G21
  -1852998.916 4  -1443866.078 4  24205761.296    24205760.784    24205768.350
        21.000          19.000
  -8010946.782 5  -6242282.584 5  22681378.946    22681378.542    22681384.722
        61.000          48.000
 -24916281.473 9 -19415218.572 9  20367999.649    20367999.314    20368000.366
       216.000         331.000
 -21733836.703 9 -16935395.358 9  20543400.401    20543400.224    20543402.222
       274.000         238.000
 -16824837.359 8 -13110207.718 6  21523084.669    21523084.568    21523086.544
       178.000          98.000
 -15215474.075 6 -11856179.645 5  21937566.655    21937566.852    21937570.808
        98.000          76.000
 -11290553.187 5  -8797801.637 5  22072842.971    22072843.205    22072845.995
        70.000          62.000
  -2519180.607 4  -1962993.283 4  23862841.696    23862841.801    23862849.003
        26.000          20.000
 -17932075.055 9 -13972984.924 8  21200039.418    21200039.056    21200041.334
       256.000         196.000
  -3631228.161 4  -2829519.289 4  23954956.726    23954956.437    23954964.838
        33.000          27.000
  -1626943.340 4  -1267740.095 4  24648009.835    24648009.245    24648022.049
        18.000          14.000
 01  3 31  0 13 30.0000000  0 11G10G22G17G15G18G 6G26G28G23G 3G21
  -1746673.888 4  -1361015.544 4  24225993.308    24225992.746    24226001.076
        23.000          19.000
  -7975185.954 5  -6214417.066 5  22688183.473    22688183.391    22688189.369
        67.000          44.000
 -24923946.925 9 -19421191.622 9  20366540.626    20366540.384    20366541.648
       221.000         335.000
 -21777463.961 9 -16969390.562 9  20535098.271    20535098.173    20535100.219
       276.000         241.000
 -16903609.964 8 -13171588.805 6  21508094.578    21508094.510    21508096.519
       172.000         101.000
 -15130222.388 6 -11789749.866 5  21953790.022    21953790.064    21953793.796
        99.000          73.000
 -11318525.566 5  -8819598.221 5  22067519.358    22067519.633    22067522.821
        69.000          64.000
  -2567294.144 4  -2000484.248 4  23853686.741    23853686.544    23853693.330
        25.000          21.000
 -17985011.284 9 -14014233.840 8  21189965.951    21189965.534    21189967.826
       252.000         196.000
  -3732091.671 4  -2908113.978 4  23935763.895    23935763.375    23935770.359
        34.000          21.000
  -1726914.733 4  -1345639.505 4  24628984.953    24628985.129    24628997.892
        25.000          15.000
 01  3 31  0 14  0.0000000  0 11G10G22G17G15G18G 6G26G28G23G 3G21
  -1640237.892 4  -1278078.615 4  24246247.619    24246247.551    24246255.227
        28.000          20.000
  -7938895.329 5  -6186138.722 5  22695089.481    22695089.324    22695095.681
        67.000          48.000
 -24931260.965 9 -19426890.831 9  20365148.836    20365148.520    20365149.721
       221.000         330.000
 -21820746.745 9 -17003117.347 9  20526861.926    20526861.819    20526863.654
       286.000         248.000
 -16981991.459 8 -13232665.135 6  21493178.974    21493178.974    21493180.877
       186.000          99.000
 -15044628.124 6 -11723053.154 5  21970077.683    21970077.925    21970081.991
        98.000          73.000
 -11345876.739 5  -8840910.751 5  22062314.973    22062315.253    22062318.303
        74.000          65.000
  -2614885.988 4  -2037568.741 4  23844630.939    23844630.807    23844637.640
        35.000          23.000
 -18037518.150 9 -14055148.189 8  21179973.813    21179973.604    21179975.910
       261.000         198.000
  -3832790.329 4  -2986580.209 4  23916600.232    23916600.030    23916608.373
        36.000          22.000
  -1826775.372 4  -1423452.624 4  24609981.269    24609981.172    24609995.226
        22.000          17.000
 01  3 31  0 14 30.0000000  0 11G10G22G17G15G18G 6G26G28G23G 3G21
  -1533692.695 4  -1195056.512 4  24266520.802    24266521.096    24266530.320
        19.000          20.000
  -7902076.939 5  -6157449.132 5  22702095.355    22702095.294    22702102.100
        58.000          49.000
 -24938223.726 9 -19432316.340 9  20363823.897    20363823.592    20363824.721
       216.000         330.000
 -21863684.451 9 -17036575.243 9  20518691.154    20518690.997    20518692.829
       284.000         253.000
 -17059980.257 8 -13293435.477 6  21478337.897    21478337.964    21478339.802
       192.000         101.000
 -14958692.888 6 -11656090.737 5  21986431.164    21986431.135    21986434.911
        90.000          71.000
 -11372605.383 5  -8861738.202 5  22057228.532    22057228.710    22057231.982
        72.000          66.000
  -2661954.430 4  -2074245.397 4  23835673.774    23835673.700    23835680.054
        30.000          21.000
 -18089595.000 9 -14095727.458 8  21170064.215    21170063.800    21170065.956
       254.000         201.000
  -3933321.720 4  -3064916.152 4  23897469.324    23897469.411    23897476.750
        38.000          23.000
  -1926524.127 4  -1501178.511 4  24591000.624    24590999.822    24591012.398
        25.000          13.000
 01  3 31  0 15  0.0000000  0 11G10G22G17G15G18G 6G26G28G23G 3G21
  -1427040.621 4  -1111951.160 4  24286816.462    24286816.568    24286825.841
        22.000          20.000
  -7864732.151 5  -6128349.379 5  22709202.787    22709202.416    22709209.121
        59.000          52.000
 -24944835.026 9 -19437467.978 9  20362565.830    20362565.553    20362566.605
       222.000         335.000
 -21906276.212 9 -17069763.572 9  20510586.135    20510585.919    20510587.895
       284.000         252.000
 -17137575.056 8 -13353898.811 6  21463572.048    21463572.088    21463573.863
       197.000         104.000
 -14872418.121 6 -11588863.757 5  22002848.830    22002848.860    22002852.384
        98.000          70.000
 -11398709.970 5  -8882079.368 5  22052259.917    22052260.504    22052264.335
        67.000          68.000
  -2708498.322 4  -2110513.313 4  23826815.737    23826816.096    23826823.262
        27.000          22.000
 -18141241.000 9 -14135971.006 8  21160236.125    21160235.797    21160238.049
       263.000         202.000
  -4033683.964 4  -3143120.287 4  23878370.368    23878370.332    23878378.613
        31.000          29.000
  -2026159.795 4  -1578816.273 4  24572040.368    24572039.450    24572052.218
        19.000          13.000
 01  3 31  0 15 30.0000000  0 11G10G22G17G15G18G 6G26G28G23G 3G21
  -1320284.015 4  -1028764.383 4  24307132.499    24307132.687    24307140.442
        21.000          15.000
  -7826862.438 5  -6098840.598 5  22716409.072    22716408.843    22716415.384
        63.000          48.000
 -24951094.679 9 -19442345.618 9  20361374.482    20361374.324    20361375.470
       219.000         332.000
 -21948521.696 9 -17102682.081 9  20502547.166    20502546.937    20502548.769
       284.000         250.000
 -17214774.144 8 -13414053.797 6  21448881.472    21448881.491    21448883.314
       200.000         107.000
 -14785805.330 6 -11521373.375 5  22019330.519    22019330.785    22019334.407
        96.000          73.000
 -11424189.220 5  -8901933.260 5  22047412.486    22047412.680    22047415.608
        74.000          66.000
  -2754515.900 4  -2146371.125 4  23818059.847    23818059.503    23818066.542
        31.000          25.000
 -18192455.391 9 -14175878.225 8  21150490.209    21150489.973    21150492.173
       260.000         200.000
  -4133874.732 4  -3221190.801 4  23859304.298    23859304.390    23859312.792
        29.000          30.000
  -2125680.055 4  -1656364.059 4  24553100.718    24553100.496    24553113.594
        19.000          13.000
 01  3 31  0 16  0.0000000  0 11G10G22G17G15G18G 6G26G28G23G 3G21
  -1213424.757 4   -945497.542 4  24327468.075    24327467.721    24327475.205
        19.000          14.000
  -7788469.779 5  -6068924.321 5  22723714.605    22723714.631    22723721.111
        69.000          44.000
 -24957002.381 9 -19446949.004 9  20360250.346    20360250.073    20360251.232
       223.000         334.000
 -21990420.375 9 -17135330.347 9  20494573.901    20494573.841    20494575.601
       292.000         248.000
 -17291575.962 8 -13473899.234 6  21434266.283    21434266.461    21434268.446
       202.000         113.000
 -14698856.194 6 -11453620.920 5  22035876.587    22035876.722    22035880.609
        91.000          73.000
 -11449041.642 5  -8921298.724 5  22042683.554    22042683.699    22042686.703
        78.000          72.000
  -2800005.536 4  -2181817.523 4  23809402.940    23809403.017    23809410.167
        31.000          23.000
 -18243237.553 9 -14215448.652 8  21140826.837    21140826.418    21140828.404
       259.000         200.000
  -4233891.846 4  -3299125.978 4  23840271.807    23840271.573    23840280.234
        29.000          26.000
  -2225084.018 4  -1733821.253 4  24534184.790    24534184.811    24534196.971
        24.000          15.000
 01  3 31  0 16 30.0000000  0 11G10G22G17G15G18G 6G26G28G23G 3G21
  -1106465.161 4   -862152.565 4  24347821.568    24347821.287    24347829.345
        21.000          19.000
  -7749556.593 5  -6038602.456 5  22731120.417    22731119.909    22731125.700
        63.000          43.000
 -24962557.987 9 -19451278.024 9  20359193.183    20359192.987    20359194.036
       221.000         327.000
 -22031971.382 9 -17167707.703 9  20486667.067    20486666.919    20486668.657
       286.000         250.000
 -17367979.094 8 -13533434.014 6  21419727.010    21419727.084    21419729.143
       194.000         111.000
 -14611572.398 6 -11385607.706 5  22052486.510    22052486.690    22052490.185
        93.000          67.000
 -11473266.124 5  -8940174.872 5  22038073.299    22038073.566    22038076.611
        74.000          67.000
  -2844965.802 4  -2216851.456 4  23800847.695    23800847.570    23800854.231
        34.000          22.000
 -18293586.746 9 -14254681.701 8  21131245.390    21131245.125    21131247.246
       259.000         200.000
  -4333732.878 4  -3376923.993 4  23821272.396    23821272.338    23821280.663
        26.000          20.000
  -2324370.570 4  -1811186.941 4  24515290.760    24515290.625    24515302.920
        22.000          14.000
 01  3 31  0 17  0.0000000  0 11G10G22G17G15G18G 6G26G28G23G 3G21
   -999407.702 4   -778731.343 4  24368194.099    24368193.902    24368202.220
        23.000          19.000
  -7710124.529 5  -6007876.272 4  22738623.971    22738623.683    22738629.619
        55.000          39.000
 -24967761.393 9 -19455332.618 9  20358203.100    20358202.785    20358203.861
       220.000         331.000
 -22073174.331 9 -17199813.847 9  20478826.292    20478826.188    20478828.070
       288.000         252.000
 -17443981.929 8 -13592656.875 6  21405264.101    21405264.115    21405266.207
       198.000         113.000
 -14523955.456 6 -11317334.890 5  22069159.358    22069159.453    22069163.361
        90.000          68.000
 -11496861.310 5  -8958560.670 5  22033583.170    22033583.292    22033586.762
        76.000          72.000
  -2889395.253 4  -2251471.763 4  23792392.538    23792392.467    23792399.623
        29.000          22.000
 -18343502.375 9 -14293576.907 8  21121746.588    21121746.353    21121748.633
       266.000         206.000
  -4433395.760 4  -3454583.177 4  23802308.074    23802307.701    23802314.859
        26.000          22.000
  -2423537.994 4  -1888459.771 4  24496420.554    24496419.961    24496432.219
        24.000          16.000
 01  3 31  0 17 30.0000000  0 11G10G22G17G15G18G 6G26G28G23G 3G21
   -892254.426 4   -695235.427 4  24388584.982    24388584.089    24388592.887
        29.000          15.000
  -7670174.979 5  -5976746.857 5  22746226.321    22746226.001    22746232.031
        58.000          44.000
 -24972612.290 9 -19459112.531 9  20357279.660    20357279.506    20357280.770
       219.000         328.000
 -22114028.591 9 -17231648.278 9  20471051.901    20471051.724    20471053.721
       285.000         254.000
 -17519582.978 8 -13651566.668 6  21390877.577    21390877.629    21390879.587
       204.000         118.000
 -14436007.008 6 -11248803.762 5  22085895.677    22085895.587    22085899.554
        93.000          66.000
 -11519825.981 5  -8976455.162 5  22029213.397    22029213.491    22029216.753
        76.000          70.000
  -2933292.526 4  -2285677.371 4  23784039.242    23784039.207    23784045.794
        23.000          27.000
 -18392984.074 9 -14332133.987 8  21112330.524    21112330.249    21112332.543
       267.000         209.000
  -4532878.117 4  -3532101.705 4  23783376.088    23783375.715    23783383.938
        28.000          25.000
  -2522584.821 4  -1965638.641 4  24477571.617    24477571.424    24477583.330
        23.000          20.000
 01  3 31  0 18  0.0000000  0 11G10G22G17G15G18G 6G26G28G23G 3G21
   -785007.420 4   -611666.482 4  24408992.337    24408992.367    24409001.519
        20.000          17.000
  -7629709.846 5  -5945215.682 5  22753926.151    22753926.038    22753932.581
        57.000          47.000
 -24977110.547 9 -19462617.660 9  20356423.686    20356423.492    20356424.737
       221.000         333.000
 -22154533.510 9 -17263210.503 9  20463343.868    20463343.748    20463345.858
       289.000         257.000
 -17594780.813 8 -13710162.266 6  21376567.813    21376567.858    21376569.716
       204.000         118.000
 -14347728.752 6 -11180015.632 5  22102694.382    22102694.597    22102698.333
        94.000          65.000
 -11542158.922 5  -8993857.390 5  22024962.937    22024963.289    22024966.895
        69.000          72.000
  -2976656.246 4  -2319467.191 4  23775788.188    23775788.256    23775794.181
        37.000          27.000
 -18442031.004 9 -14370352.287 8  21102997.069    21102996.818    21102998.990
       267.000         203.000
  -4632177.955 4  -3609477.995 4  23764479.718    23764479.870    23764487.746
        38.000          21.000
  -2621509.996 4  -2042722.676 4  24458745.734    24458745.840    24458757.396
        28.000          17.000
 01  3 31  0 18 30.0000000  0 11G10G22G17G15G18G 6G26G28G23G 3G21
   -677668.716 4   -528026.022 4  24429418.891    24429418.614    24429427.929
        19.000          17.000
  -7588731.365 5  -5913284.499 5  22761724.267    22761723.963    22761730.564
        58.000          44.000
 -24981255.964 9 -19465847.849 9  20355634.972    20355634.741    20355635.911
       218.000         336.000
 -22194688.306 9 -17294499.903 9  20455703.075    20455702.764    20455704.656
       281.000         257.000
 -17669573.809 8 -13768442.406 6  21362335.308    21362335.281    21362337.063
       199.000         121.000
 -14259122.336 6 -11110971.787 5  22119555.939    22119555.927    22119559.589
        94.000          62.000
 -11563858.834 5  -9010766.364 5  22020833.903    22020834.008    22020837.206
        73.000          70.000
  -3019484.909 4  -2352840.126 4  23767636.746    23767636.776    23767644.174
        30.000          25.000
 -18490642.461 9 -14408231.255 8  21093746.925    21093746.575    21093748.363
       268.000         202.000
  -4731292.783 5  -3686710.167 4  23745619.709    23745619.479    23745626.884
        44.000          22.000
  -2720311.554 4  -2119710.425 4  24439945.330    24439945.024    24439956.137
        28.000          17.000
 01  3 31  0 19  0.0000000  0 11G10G22G17G15G18G 6G26G28G23G 3G21
   -570240.355 4   -444315.792 4  24449862.775    24449861.903    24449870.726
        16.000          20.000
  -7547241.797 5  -5880955.076 5  22769619.614    22769619.304    22769625.615
        59.000          45.000
 -24985048.411 9 -19468802.996 9  20354913.533    20354913.250    20354914.230
       223.000         333.000
 -22234492.543 9 -17325516.135 9  20448128.379    20448128.207    20448129.996
       276.000         249.000
 -17743960.501 8 -13826405.951 6  21348179.944    21348179.967    21348181.717
       201.000         123.000
 -14170189.247 5 -11041673.389 5  22136479.662    22136479.535    22136483.306
        84.000          65.000
 -11584924.537 5  -9027181.142 5  22016825.023    22016825.290    22016828.239
        73.000          68.000
  -3061777.202 4  -2385795.116 4  23759589.321    23759589.252    23759595.895
        36.000          23.000
 -18538817.882 9 -14445770.464 8  21084579.311    21084579.014    21084580.823
       272.000         205.000
  -4830220.078 4  -3763796.185 4  23726793.239    23726793.461    23726801.718
        39.000          25.000
  -2818988.636 4  -2196601.203 4  24421166.532    24421166.378    24421177.845
        28.000          15.000
 01  3 31  0 19 30.0000000  0 11G10G22G17G15G18G 6G26G28G23G 3G21
   -462724.679 4   -360537.515 4  24470321.669    24470321.686    24470330.295
        22.000          14.000
  -7505242.701 5  -5848228.610 5  22777612.585    22777612.077    22777618.217
        56.000          49.000
 -24988487.880 9 -19471483.103 9  20354258.816    20354258.555    20354259.730
       221.000         332.000
 -22273945.602 9 -17356258.717 9  20440620.624    20440620.397    20440622.155
       278.000         252.000
 -17817939.633 8 -13884051.912 6  21334102.034    21334101.928    21334103.956
       199.000         123.000
 -14080931.346 6 -10972121.924 5  22153464.104    22153464.463    22153468.690
        85.000          63.000
 -11605355.054 5  -9043100.969 5  22012937.698    22012937.795    22012940.578
        79.000          74.000
  -3103531.823 4  -2418331.137 4  23751643.985    23751643.819    23751650.045
        34.000          19.000
 -18586556.697 9 -14482969.455 8  21075494.987    21075494.544    21075496.297
       274.000         203.000
  -4928957.621 4  -3840734.322 4  23708004.214    23708004.085    23708011.660
        34.000          22.000
  -2917539.839 4  -2273393.904 4  24402412.190    24402412.228    24402423.505
        29.000          13.000
 01  3 31  0 20  0.0000000  0 11G10G22G17G15G18G 6G26G28G23G 3G21
   -355123.749 4   -276692.770 4  24490799.114    24490798.555    24490806.493
        20.000          16.000
  -7462735.774 5  -5815106.433 5  22785701.046    22785700.609    22785707.390
        54.000          47.000
 -24991574.164 9 -19473887.999 9  20353671.349    20353671.102    20353672.388
       216.000         331.000
 -22313046.989 9 -17386727.263 9  20433179.709    20433179.569    20433181.310
       274.000         257.000
 -17891509.580 9 -13941379.029 6  21320101.927    21320102.004    21320103.800
       214.000         121.000
 -13991350.303 5 -10902318.650 5  22170511.152    22170511.356    22170515.485
        82.000          65.000
 -11625149.196 5  -9058524.926 5  22009170.527    22009170.757    22009173.702
        77.000          68.000
  -3144747.192 4  -2450446.926 4  23743800.283    23743800.333    23743807.609
        33.000          30.000
 -18633858.148 9 -14519827.643 8  21066493.525    21066493.239    21066495.089
       273.000         205.000
  -5027503.315 4  -3917522.974 4  23689250.930    23689251.117    23689258.807
        36.000          25.000
  -3015963.806 4  -2350087.442 4  24383681.893    24383682.290    24383694.394
        24.000          17.000
 01  3 31  0 20 30.0000000  0 11G10G22G17G15G18G 6G26G28G23G 3G21
   -247439.753 4   -192783.305 4  24511289.786    24511289.540    24511297.763
        18.000          16.000
  -7419723.041 5  -5781590.120 5  22793886.610    22793886.120    22793892.521
        58.000          47.000
 -24994307.001 8 -19476017.484 9  20353151.327    20353151.115    20353152.336
       212.000         329.000
 -22351795.860 9 -17416921.120 9  20425806.036    20425805.872    20425807.577
       280.000         255.000
 -17964669.021 9 -13998386.279 6  21306180.248    21306180.130    21306181.924
       213.000         123.000
 -13901447.688 5 -10832264.812 5  22187619.095    22187619.354    22187623.564
        81.000          59.000
 -11644305.822 5  -9073452.121 5  22005524.760    22005525.093    22005528.657
        74.000          77.000
  -3185422.153 4  -2482141.653 4  23736060.120    23736059.904    23736066.974
        33.000          24.000
 -18680721.844 9 -14556344.723 9  21057575.662    21057575.390    21057577.386
       273.000         217.000
  -5125854.823 4  -3994160.324 4  23670535.159    23670535.185    23670543.188
        36.000          26.000
  -3114258.514 4  -2426680.244 4  24364977.031    24364976.699    24364988.756
        16.000          20.000
 01  3 31  0 21  0.0000000  0 11G10G22G17G15G18G 6G26G28G23G 3G21
   -139674.584 4   -108810.596 4  24531796.702    24531796.562    24531804.786
        20.000          13.000
  -7376206.916 5  -5747681.567 5  22802166.554    22802166.496    22802172.695
        57.000          45.000
 -24996686.388 9 -19477871.546 9  20352698.656    20352698.437    20352699.533
       217.000         330.000
 -22390191.781 9 -17446839.956 9  20418499.573    20418499.346    20418501.071
       273.000         254.000
 -18037416.514 9 -14055072.528 6  21292336.691    21292336.697    21292338.487
       221.000         126.000
 -13811225.368 5 -10761961.851 5  22204788.119    22204788.290    22204792.262
        80.000          61.000
 -11662823.968 5  -9087881.788 5  22002000.948    22002001.226    22002004.730
        70.000          73.000
  -3225555.460 4  -2513414.271 4  23728423.682    23728423.270    23728429.738
        32.000          27.000
 -18727147.214 9 -14592520.254 9  21048740.923    21048740.723    21048742.871
       276.000         217.000
  -5224009.620 4  -4070644.346 4  23651855.673    23651855.989    23651865.550
        32.000          36.000
  -3212423.095 4  -2503171.677 4  24346297.151    24346297.034    24346308.067
        25.000          16.000
 01  3 31  0 21 30.0000000  0 11G10G22G17G15G18G 6G26G28G23G 3G21
    -31830.542 4    -24776.427 4  24552318.935    24552318.955    24552327.497
        17.000          17.000
  -7332189.582 5  -5713382.456 5  22810543.304    22810542.954    22810549.468
        56.000          45.000
 -24998712.023 9 -19479449.959 9  20352313.293    20352313.032    20352314.046
       217.000         333.000
 -22428234.123 9 -17476483.278 9  20411260.296    20411260.028    20411261.785
       273.000         258.000
 -18109750.671 9 -14111436.692 7  21278571.783    21278571.813    21278573.734
       217.000         131.000
 -13720684.826 5 -10691410.929 5  22222018.136    22222017.930    22222021.633
        79.000          59.000
 -11680702.525 5  -9101813.093 5  21998598.458    21998598.755    21998602.318
        73.000          74.000
  -3265145.532 4  -2544263.631 4  23720889.972    23720889.861    23720896.045
        37.000          24.000
 -18773133.803 9 -14628353.880 9  21039989.836    21039989.611    21039991.708
       278.000         214.000
  -5321965.481 4  -4146973.345 4  23633216.250    23633216.255    23633224.732
        41.000          32.000
  -3310456.227 4  -2579560.711 4  24327641.741    24327641.441    24327653.279
        22.000          16.000
 01  3 31  0 22  0.0000000  0 11G10G22G17G15G18G 6G26G28G23G 3G21
     76090.586 4     59317.714 4  24572855.613    24572855.510    24572864.791
        22.000          21.000
  -7287672.576 5  -5678693.975 5  22819015.065    22819014.644    22819020.834
        53.000          43.000
 -25000383.874 9 -19480752.690 9  20351995.081    20351994.757    20351995.922
       216.000         332.000
 -22465922.382 9 -17505850.681 9  20404088.314    20404088.164    20404089.978
       272.000         261.000
 -18181669.952 9 -14167477.576 7  21264886.326    21264886.271    21264887.751
       222.000         129.000
 -13629827.822 5 -10620613.400 5  22239307.160    22239307.366    22239311.411
        83.000          58.000
 -11697940.586 5  -9115245.301 5  21995318.661    21995318.741    21995321.862
        71.000          69.000
  -3304191.354 4  -2574688.896 4  23713459.449    23713459.415    23713465.773
        31.000          26.000
 -18818681.021 9 -14663845.138 9  21031322.559    21031322.263    21031324.187
       284.000         215.000
  -5419720.422 4  -4223145.801 4  23614613.362    23614613.545    23614622.057
        33.000          32.000
  -3408356.649 4  -2655846.346 4  24309011.501    24309011.408    24309022.543
        29.000          16.000
 01  3 31  0 22 30.0000000  0 10G10G17G15G18G 6G26G28G23G 3G21
    184086.575 4    143470.282 4  24593405.959    24593405.805    24593415.432
        23.000          16.000
 -25001701.934 8 -19481779.732 9  20351744.119    20351743.908    20351745.172
       210.000         339.000
 -22503255.874 9 -17534941.650 9  20396983.799    20396983.669    20396985.601
       273.000         266.000
 -18253173.109 9 -14223194.203 7  21251279.615    21251279.706    21251280.907
       231.000         132.000
 -13538656.146 5 -10549570.676 5  22256656.909    22256656.958    22256660.898
        79.000          60.000
 -11714537.107 5  -9128177.610 5  21992160.364    21992160.585    21992163.560
        73.000          71.000
  -3342691.589 4  -2604689.013 4  23706133.017    23706132.953    23706139.687
        27.000          27.000
 -18863788.360 9 -14698993.631 9  21022738.981    21022738.697    21022740.431
       284.000         219.000
  -5517271.939 4  -4299159.707 4  23596049.567    23596050.067    23596058.188
        33.000          30.000
  -3506122.788 4  -2732027.363 4  24290406.565    24290406.206    24290417.985
        27.000          20.000
 01  3 31  0 23  0.0000000  0 11G10G22G17G15G18G 6G26G28G23G 3G21
    292155.382 4    227679.710 4  24613970.724    24613970.584    24613980.183
        22.000          16.000
     24333.422 5     18960.764 5  22836240.345    22836240.131    22836247.586
        52.000          49.000
 -25002665.968 8 -19482530.920 9  20351560.372    20351560.254    20351561.750
       212.000         338.000
 -22540234.060 9 -17563755.760 9  20389947.051    20389946.901    20389948.788
       281.000         267.000
 -18324258.740 9 -14278585.489 7  21237752.434    21237752.446    21237753.663
       228.000         134.000
 -13447171.523 5 -10478284.105 5  22274065.572    22274065.796    22274069.851
        76.000          54.000
 -11730491.068 5  -9140609.240 5  21989124.423    21989124.650    21989127.624
        77.000          69.000
  -3380644.971 4  -2634262.998 4  23698910.462    23698910.396    23698916.745
        32.000          21.000
 -18908455.416 9 -14733799.040 9  21014239.375    21014238.982    21014240.602
       285.000         221.000
  -5614617.911 4  -4375013.440 4  23577526.700    23577526.587    23577533.687
        37.000          29.000
  -3603753.441 4  -2808102.788 4  24271827.926    24271827.758    24271839.225
        21.000          21.000
 01  3 31  0 23 30.0000000  0 11G10G22G17G15G18G 6G26G28G23G 3G21
    400294.717 4    311943.964 4  24634550.120    24634549.863    24634559.041
        16.000          19.000
     70336.573 5     54807.281 5  22844994.406    22844994.466    22845001.989
        51.000          47.000
 -25003275.972 8 -19483006.237 9  20351444.504    20351444.334    20351445.600
       212.000         337.000
 -22576856.241 9 -17592292.459 9  20382978.267    20382978.074    20382979.776
       275.000         267.000
 -18394925.473 9 -14333650.359 7  21224304.836    21224304.801    21224306.174
       229.000         137.000
 -13355375.643 5 -10406755.013 5  22291533.600    22291533.659    22291538.305
        72.000          56.000
 -11745801.709 5  -9152539.572 5  21986210.808    21986211.205    21986214.419
        79.000          66.000
  -3418050.470 4  -2663410.094 4  23691792.590    23691792.659    23691798.484
        34.000          19.000
 -18952681.688 9 -14768260.986 9  21005823.224    21005822.839    21005824.618
       280.000         222.000
  -5711755.806 4  -4450705.043 4  23559041.145    23559040.926    23559048.630
        36.000          30.000
  -3701247.029 4  -2884071.408 4  24253274.848    24253275.093    24253286.448
        27.000          19.000
 01  3 31  0 24  0.0000000  0 11G10G22G17G15G18G 6G26G28G23G 3G21
    508502.873 4    396261.842 4  24655140.894    24655141.191    24655149.735
        16.000          14.000
    116830.823 5     91036.444 5  22853842.381    22853842.257    22853849.365
        51.000          47.000
 -25003531.612 8 -19483205.422 9  20351395.745    20351395.600    20351396.904
       208.000         334.000
 -22613121.998 9 -17620551.433 9  20376077.045    20376076.838    20376078.600
       283.000         273.000
 -18465171.848 9 -14388387.678 7  21210937.053    21210937.117    21210938.674
       230.000         138.000
 -13263270.216 5 -10334984.703 5  22309060.914    22309061.002    22309065.633
        72.000          53.000
 -11760468.210 5  -9163967.983 5  21983419.697    21983420.083    21983423.265
        76.000          69.000
  -3454906.815 4  -2692129.257 4  23684779.364    23684778.963    23684785.075
        36.000          20.000
 -18996466.653 9 -14802379.054 9  20997490.984    20997490.675    20997492.437
       273.000         222.000
  -5808683.239 4  -4526232.638 4  23540595.836    23540595.798    23540603.342
        40.000          24.000
  -3798602.093 4  -2959932.123 4  24234748.090    24234748.430    24234759.818
        27.000          21.000
 01  3 31  0 24 30.0000000  0 11G10G22G17G15G18G 6G26G28G23G 3G21
    616777.760 4    480631.841 4  24675745.865    24675745.668    24675753.838
        23.000          12.000
    163814.374 5    127646.887 5  22862783.595    22862783.163    22862790.289
        50.000          43.000
 -25003432.989 9 -19483128.561 9  20351414.753    20351414.444    20351415.663
       216.000         334.000
 -22649030.540 9 -17648532.055 9  20369243.872    20369243.681    20369245.255
       285.000         269.000
 -18534996.742 9 -14442796.569 7  21197649.824    21197649.820    21197651.402
       229.000         141.000
 -13170856.963 5 -10262974.533 5  22326646.990    22326647.023    22326651.586
        77.000          55.000
 -11774489.549 5  -9174893.672 5  21980751.401    21980751.702    21980754.712
        76.000          67.000
  -3491212.872 4  -2720419.615 4  23677869.615    23677869.933    23677876.388
        29.000          23.000
 -19039809.842 9 -14836152.884 9  20989243.043    20989242.627    20989244.418
       281.000         225.000
  -5905397.855 4  -4601594.405 4  23522191.086    23522191.595    23522199.005
        38.000          28.000
  -3895817.898 4  -3035684.331 4  24216248.891    24216249.049    24216259.971
        29.000          22.000
 01  3 31  0 25  0.0000000  0 11G10G22G17G15G18G 6G26G28G23G 3G21
    725117.081 4    565051.932 4  24696360.802    24696361.036    24696369.949
        19.000          11.000
    211285.139 5    164636.978 4  22871816.605    22871816.062    22871823.808
        46.000          42.000
 -25002979.805 9 -19482775.408 9  20351500.965    20351500.666    20351501.868
       213.000         329.000
 -22684581.529 9 -17676234.059 9  20362478.662    20362478.492    20362480.024
       278.000         266.000
 -18604398.615 9 -14496875.833 7  21184443.092    21184442.984    21184444.496
       224.000         146.000
 -13078137.626 5 -10190725.857 5  22344290.876    22344291.179    22344295.510
        77.000          56.000
 -11787864.812 5  -9185315.929 5  21978206.134    21978206.439    21978209.644
        72.000          67.000
  -3526967.568 4  -2748280.347 4  23671065.233    23671065.503    23671071.707
        26.000          20.000
 -19082710.762 9 -14869582.081 9  20981079.379    20981078.923    20981080.582
       281.000         225.000
  -6001897.161 5  -4676788.398 4  23503828.971    23503828.942    23503835.757
        44.000          30.000
  -3992893.169 4  -3111327.036 4  24197776.053    24197775.928    24197786.447
        31.000          21.000
 01  3 31  0 25 30.0000000  0 11G10G22G17G15G18G 6G26G28G23G 3G21
    833519.108 4    649520.967 4  24716990.549    24716990.145    24716998.443
        16.000          13.000
    259240.534 5    202004.697 5  22880942.484    22880941.903    22880949.104
        49.000          43.000
 -25002171.778 9 -19482145.761 9  20351654.458    20351654.267    20351655.589
       215.000         329.000
 -22719774.139 9 -17703656.817 9  20355781.738    20355781.563    20355783.091
       285.000         266.000
 -18673376.335 9 -14550624.584 7  21171316.928    21171316.887    21171318.288
       224.000         145.000
 -12985114.104 5 -10118240.148 5  22361992.764    22361992.952    22361997.205
        74.000          52.000
 -11800593.451 5  -9195234.313 5  21975783.745    21975784.070    21975787.526
        70.000          71.000
  -3562169.479 4  -2775710.325 4  23664367.602    23664367.633    23664373.669
        39.000          24.000
 -19125169.077 9 -14902666.392 9  20972999.547    20972999.244    20973000.951
       280.000         228.000
  -6098179.188 4  -4751813.081 4  23485506.381    23485506.302    23485513.110
        40.000          28.000
  -4089825.851 4  -3186858.644 4  24179329.639    24179329.734    24179340.647
        32.000          20.000
 01  3 31  0 26  0.0000000  0 11G10G22G17G15G18G 6G26G28G23G 3G21
    941981.968 4    734037.485 4  24737630.867    24737630.256    24737638.538
        19.000          17.000
    307678.149 5    239748.173 4  22890160.706    22890160.120    22890166.533
        58.000          41.000
 -25001009.056 8 -19481239.724 9  20351875.920    20351875.693    20351876.854
       212.000         335.000
 -22754607.929 9 -17730799.981 9  20349152.977    20349152.785    20349154.438
       281.000         275.000
 -18741928.596 9 -14604041.812 7  21158271.573    21158271.668    21158273.077
       233.000         145.000
 -12891788.186 5 -10045518.814 5  22379752.709    22379752.780    22379756.858
        73.000          52.000
 -11812674.576 5  -9204648.138 5  21973485.332    21973485.368    21973488.708
        75.000          69.000
  -3596817.674 4  -2802708.830 4  23657773.074    23657773.030    23657780.451
        29.000          18.000
 -19167184.347 9 -14935405.483 9  20965004.174    20965003.799    20965005.649
       278.000         230.000
  -6194241.567 4  -4826666.585 4  23467224.674    23467224.928    23467233.009
        35.000          30.000
  -4186614.713 4  -3262278.183 4  24160911.097    24160910.947    24160921.784
        26.000          17.000
 01  3 31  0 26 30.0000000  0 11G10G22G17G15G18G 6G26G28G23G 3G21
   1050503.483 4    818599.809 4  24758281.706    24758281.574    24758289.342
        21.000          14.000
    356596.223 5    277866.036 4  22899469.154    22899468.695    22899475.721
        53.000          40.000
 -24999491.343 9 -19480057.074 9  20352164.976    20352164.637    20352165.668
       216.000         335.000
 -22789082.386 9 -17757663.144 9  20342592.787    20342592.594    20342594.069
       278.000         269.000
 -18810053.852 9 -14657126.305 7  21145307.635    21145307.712    21145309.299
       234.000         154.000
 -12798161.516 5  -9972563.128 5  22397569.558    22397569.641    22397573.742
        66.000          53.000
 -11824107.370 5  -9213556.772 5  21971309.807    21971310.123    21971312.996
        82.000          70.000
  -3630911.216 4  -2829275.150 4  23651286.039    23651286.086    23651292.143
        39.000          18.000
 -19208756.247 9 -14967799.082 9  20957092.828    20957092.633    20957094.605
       271.000         225.000
  -6290081.900 4  -4901347.089 4  23448987.518    23448987.620    23448995.058
        39.000          35.000
  -4283258.069 4  -3337584.354 4  24142519.715    24142520.065    24142530.544
        25.000          18.000
 01  3 31  0 27  0.0000000  0 11G10G22G17G15G18G 6G26G28G23G 3G21
   1159081.537 4    903206.120 4  24778943.013    24778942.650    24778950.658
        16.000          12.000
    405992.885 5    316356.821 5  22908869.341    22908868.944    22908875.921
        55.000          46.000
 -24997618.564 9 -19478597.751 9  20352521.059    20352520.869    20352522.065
       216.000         336.000
 -22823196.918 9 -17784245.852 9  20336100.587    20336100.551    20336102.220
       290.000         273.000
 -18877750.889 9 -14709877.126 7  21132425.424    21132425.381    21132426.786
       233.000         150.000
 -12704235.873 5  -9899374.467 5  22415443.562    22415443.366    22415447.145
        67.000          49.000
 -11834891.198 5  -9221959.722 5  21969257.588    21969257.875    21969260.504
        81.000          66.000
  -3664448.932 4  -2855408.372 4  23644903.724    23644903.746    23644910.268
        40.000          25.000
 -19249884.421 9 -14999846.932 9  20949266.630    20949266.239    20949268.008
       277.000         225.000
  -6385697.798 4  -4975852.677 4  23430792.640    23430792.481    23430800.134
        40.000          38.000
  -4379755.079 4  -3412776.486 4  24124157.357    24124157.132    24124167.724
        32.000          18.000
 01  3 31  0 27 30.0000000  0 10G22G17G15G18G 6G26G28G23G 3G21
    455865.714 5    355218.645 5  22918360.089    22918359.621    22918366.917
        57.000          47.000
 -24995390.565 9 -19476861.629 9  20352945.009    20352944.811    20352945.972
       217.000         333.000
 -22856950.836 9 -17810547.557 9  20329677.866    20329677.601    20329679.074
       282.000         275.000
 -18945018.609 9 -14762293.412 7  21119624.739    21119624.641    21119625.928
       228.000         151.000
 -12610012.923 5  -9825954.150 5  22433372.419    22433372.903    22433377.446
        71.000          50.000
 -11845025.401 5  -9229856.481 5  21967328.437    21967328.968    21967332.145
        82.000          68.000
  -3697429.888 4  -2881107.739 4  23638627.950    23638627.732    23638634.212
        36.000          23.000
 -19290568.386 9 -15031548.643 9  20941525.027    20941524.566    20941526.084
       276.000         223.000
  -6481086.707 4  -5050181.416 4  23412640.803    23412640.508    23412647.666
        37.000          31.000
  -4476104.674 4  -3487853.745 4  24105821.833    24105821.823    24105833.120
        29.000          23.000
 01  3 31  0 28  0.0000000  0 10G22G17G15G18G 6G26G28G23G 3G21
    506212.043 5    394449.413 5  22927940.712    22927940.144    22927947.038
        60.000          43.000
 -24992807.323 9 -19474848.695 9  20353436.593    20353436.327    20353437.502
       217.000         335.000
 -22890343.714 9 -17836567.929 9  20323323.070    20323322.935    20323324.565
       281.000         275.000
 -19011855.666 9 -14814374.119 7  21106905.736    21106905.804    21106907.048
       238.000         151.000
 -12515494.824 5  -9752303.849 5  22451359.598    22451359.579    22451363.843
        76.000          49.000
 -11854509.337 5  -9237246.524 5  21965524.030    21965524.390    21965527.373
        80.000          66.000
  -3729852.910 4  -2906372.346 4  23632457.762    23632457.837    23632463.854
        32.000          20.000
 -19330807.877 9 -15062904.007 9  20933867.495    20933867.113    20933868.727
       276.000         226.000
  -6576246.746 4  -5124331.828 4  23394532.588    23394532.227    23394539.164
        41.000          31.000
  -4572305.135 4  -3562814.799 4  24087515.709    24087515.373    24087526.338
        32.000          19.000
 01  3 31  0 28 30.0000000  0 10G22G17G15G18G 6G26G28G23G 3G21
    557029.498 5    434047.322 4  22937611.028    22937610.573    22937617.700
        53.000          41.000
 -24989868.691 9 -19472558.836 9  20353995.691    20353995.551    20353996.750
       213.000         327.000
 -22923374.905 9 -17862306.470 9  20317037.526    20317037.405    20317038.842
       278.000         280.000
 -19078260.928 9 -14866118.358 7  21094269.321    21094269.341    21094270.532
       238.000         155.000
 -12420683.263 5  -9678424.877 5  22469401.216    22469401.499    22469406.150
        68.000          47.000
 -11863342.342 5  -9244129.352 5  21963843.272    21963843.500    21963846.533
        72.000          67.000
  -3761717.173 4  -2931201.569 4  23626394.057    23626394.049    23626400.285
        36.000          24.000
 -19370602.509 9 -15093912.732 9  20926294.817    20926294.457    20926296.046
       285.000         231.000
  -6671175.106 5  -5198301.718 4  23376467.629    23376467.207    23376474.879
        47.000          35.000
  -4668354.968 4  -3637658.465 4  24069237.050    24069237.268    24069248.321
        26.000          23.000
 01  3 31  0 29  0.0000000  0 10G22G17G15G18G 6G26G28G23G 3G21
    608316.454 5    474011.058 4  22947370.858    22947370.389    22947376.646
        54.000          38.000
 -24986574.457 9 -19469991.894 9  20354622.707    20354622.393    20354623.566
       221.000         336.000
 -22956043.776 9 -17887762.689 9  20310820.745    20310820.575    20310822.225
       283.000         278.000
 -19144233.173 9 -14917525.177 7  21081715.360    21081715.308    21081716.358
       233.000         153.000
 -12325579.981 5  -9604318.582 5  22487499.374    22487499.067    22487503.825
        64.000          52.000
 -11871523.840 5  -9250504.524 5  21962286.100    21962286.345    21962289.534
        76.000          65.000
  -3793021.630 4  -2955594.595 4  23620436.910    23620436.846    23620443.267
        34.000          22.000
 -19409951.975 9 -15124574.567 9  20918806.904    20918806.520    20918807.967
       282.000         225.000
  -6765869.756 5  -5272089.502 4  23358447.500    23358447.226    23358454.279
        46.000          31.000
  -4764253.564 4  -3712384.293 4  24050987.990    24050988.269    24050998.786
        31.000          16.000
 01  3 31  0 29 30.0000000  0 10G22G17G15G18G 6G26G28G23G 3G21
    660070.730 5    514338.949 5  22957219.273    22957218.979    22957225.908
        53.000          45.000
 -24982924.701 9 -19467147.927 9  20355317.433    20355317.082    20355318.148
       215.000         326.000
 -22988349.957 9 -17912936.282 9  20304673.184    20304673.021    20304674.522
       276.000         278.000
 -19209771.179 9 -14968593.626 7  21069243.610    21069243.700    21069244.649
       234.000         157.000
 -12230186.702 5  -9529986.326 5  22505651.650    22505651.768    22505656.832
        65.000          48.000
 -11879053.309 5  -9256371.610 5  21960853.698    21960853.788    21960856.558
        81.000          67.000
  -3823765.436 4  -2979550.717 4  23614586.828    23614586.745    23614592.701
        35.000          24.000
 -19448856.134 9 -15154889.417 9  20911403.404    20911403.087    20911404.532
       286.000         224.000
  -6860328.275 5  -5345693.285 4  23340473.086    23340472.813    23340479.797
        45.000          42.000
  -4859999.639 4  -3786991.278 4  24032768.516    24032768.786    24032778.361
        34.000          21.000
 01  3 31  0 30  0.0000000  0 10G22G17G15G18G 6G26G28G23G 3G21
    712289.650 5    555028.884 4  22967156.118    22967155.683    22967162.891
        49.000          39.000
 -24978919.124 9 -19464026.710 9  20356079.529    20356079.283    20356080.360
       217.000         328.000
 -23020292.711 9 -17937826.688 9  20298594.626    20298594.389    20298595.890
       278.000         274.000
 -19274873.652 9 -15019322.701 7  21056855.056    21056855.065    21056855.887
       242.000         158.000
 -12134505.272 5  -9455429.524 5  22523859.368    22523859.555    22523864.593
        62.000          50.000
 -11885930.136 5  -9261730.136 5  21959545.800    21959545.886    21959547.839
        82.000          67.000
  -3853947.449 4  -3003069.089 4  23608842.924    23608842.876    23608849.391
        25.000          25.000
 -19487314.618 9 -15184856.987 9  20904085.066    20904084.694    20904086.138
       290.000         228.000
  -6954548.262 5  -5419111.229 4  23322544.168    23322543.606    23322549.579
        43.000          30.000
  -4955591.169 4  -3861477.821 4  24014577.906    24014577.908    24014587.899
        31.000          23.000
 01  3 31  0 30 30.0000000  0 10G22G17G15G18G 6G26G28G23G 3G21
    764970.507 5    596078.783 4  22977180.931    22977180.820    22977187.658
        49.000          36.000
 -24974557.753 9 -19460628.241 9  20356909.359    20356909.106    20356910.200
       217.000         330.000
 -23051871.642 9 -17962433.587 9  20292585.404    20292585.227    20292586.530
       281.000         277.000
 -19339539.442 9 -15069711.504 7  21044549.313    21044549.366    21044550.285
       251.000         160.000
 -12038537.475 5  -9380649.582 5  22542121.428    22542121.716    22542126.714
        64.000          45.000
 -11892153.900 5  -9266579.796 5  21958360.834    21958361.028    21958363.647
        81.000          67.000
  -3883567.032 4  -3026149.190 4  23603206.872    23603206.667    23603212.273
        30.000          22.000
 -19525327.104 9 -15214477.035 9  20896851.249    20896850.967    20896852.619
       287.000         229.000
  -7048527.342 4  -5492341.458 4  23304659.154    23304658.826    23304665.854
        40.000          31.000
  -5051027.398 4  -3935843.332 4  23996415.807    23996416.274    23996426.848
        32.000          27.000
 01  3 31  0 31  0.0000000  0 10G22G17G15G18G 6G26G28G23G 3G21
    818111.301 5    637487.058 4  22987293.745    22987293.471    22987300.295
        49.000          40.000
 -24969840.506 8 -19456952.466 9  20357806.745    20357806.590    20357807.901
       212.000         325.000
 -23083086.141 9 -17986756.520 9  20286645.179    20286644.992    20286646.478
       275.000         276.000
 -19403767.303 9 -15119759.061 7  21032327.091    21032327.120    21032328.085
       246.000         166.000
 -11942285.170 5  -9305647.952 5  22560437.129    22560437.605    22560442.797
        59.000          44.000
 -11897724.009 5  -9270920.111 5  21957300.474    21957300.662    21957303.621
        84.000          66.000
  -3912623.047 4  -3048790.160 4  23597676.954    23597677.153    23597683.330
        36.000          22.000
 -19562893.237 9 -15243749.279 9  20889702.979    20889702.558    20889703.872
       291.000         229.000
  -7142263.027 5  -5565382.052 4  23286821.626    23286821.406    23286828.209
        47.000          31.000
  -5146306.740 4  -4010086.563 4  23978285.203    23978284.971    23978295.550
        29.000          29.000
 01  3 31  0 31 30.0000000  0 10G22G17G15G18G 6G26G28G23G 3G21
    871710.101 5    679252.222 4  22997493.213    22997492.972    22997499.727
        48.000          39.000
 -24964767.110 9 -19452999.185 9  20358772.491    20358772.197    20358773.327
       213.000         325.000
 -23113935.634 9 -18010795.023 9  20280775.057    20280774.787    20280775.992
       275.000         279.000
 -19467556.111 9 -15169464.495 7  21020188.279    21020188.405    21020189.439
       248.000         168.000
 -11845750.186 5  -9230426.068 5  22578808.119    22578808.156    22578813.214
        62.000          45.000
 -11902640.091 5  -9274750.782 5  21956365.364    21956365.617    21956368.107
        77.000          68.000
  -3941114.761 4  -3070991.416 4  23592255.703    23592255.859    23592261.884
        32.000          27.000
 -19600012.743 9 -15272673.515 9  20882639.331    20882638.942    20882640.208
       292.000         233.000
  -7235753.169 5  -5638231.323 4  23269029.905    23269030.096    23269037.535
        43.000          35.000
  -5241427.712 4  -4084206.398 4  23960183.981    23960183.885    23960193.959
        35.000          26.000
 01  3 31  0 32  0.0000000  0 10G22G17G15G18G 6G26G28G23G 3G21
    925764.497 5    721372.403 4  23007779.006    23007778.892    23007786.060
        57.000          37.000
 -24959337.681 8 -19448768.460 9  20359805.737    20359805.521    20359806.551
       212.000         324.000
 -23144419.594 9 -18034548.708 9  20274973.877    20274973.650    20274975.088
       277.000         280.000
 -19530904.840 9 -15218827.009 8  21008133.458    21008133.384    21008134.490
       244.000         172.000
 -11748934.539 5  -9154985.484 5  22597232.680    22597232.336    22597236.862
        58.000          45.000
 -11906901.654 5  -9278071.447 5  21955553.886    21955554.211    21955557.131
        76.000          68.000
  -3969041.216 4  -3092752.222 4  23586941.317    23586941.230    23586947.167
        27.000          23.000
 -19636685.484 9 -15301249.618 9  20875660.525    20875660.215    20875661.570
       289.000         231.000
  -7328995.100 5  -5710887.174 5  23251287.104    23251286.999    23251294.221
        43.000          44.000
  -5336389.545 4  -4158202.213 4  23942112.536    23942112.733    23942122.655
        32.000          26.000
 01  3 31  0 32 30.0000000  0 10G22G17G15G18G 6G26G28G23G 3G21
    980271.594 5    763845.346 4  23018152.442    23018151.983    23018158.550
        56.000          38.000
 -24953552.000 9 -19444260.146 9  20360906.803    20360906.479    20360907.524
       216.000         323.000
 -23174537.543 9 -18058017.180 9  20269242.642    20269242.424    20269243.820
       276.000         282.000
 -19593812.246 9 -15267845.636 8  20996162.377    20996162.338    20996163.486
       243.000         178.000
 -11651840.017 5  -9079327.592 5  22615708.939    22615708.870    22615713.634
        65.000          44.000
 -11910508.442 5  -9280881.899 5  21954867.836    21954868.026    21954870.798
        84.000          69.000
  -3996401.863 4  -3114072.110 4  23581734.004    23581734.320    23581740.880
        29.000          26.000
 -19672911.211 9 -15329477.402 9  20868767.120    20868766.747    20868767.942
       285.000         232.000
  -7421986.286 5  -5783347.650 5  23233591.456    23233591.099    23233598.476
        46.000          43.000
  -5431190.906 4  -4232073.012 4  23924073.200    23924072.807    23924081.858
        26.000          23.000
 01  3 31  0 33  0.0000000  0 10G22G17G15G18G 6G26G28G23G 3G21
   1035228.999 5    806669.179 4  23028609.865    23028609.561    23028617.151
        53.000          39.000
 -24947409.982 9 -19439474.166 9  20362075.408    20362075.140    20362076.266
       215.000         321.000
 -23204288.660 9 -18081199.810 9  20263580.947    20263580.793    20263582.245
       273.000         284.000
 -19656277.122 9 -15316519.440 8  20984275.450    20984275.530    20984276.666
       254.000         180.000
 -11554468.517 5  -9003453.881 5  22634237.731    22634237.767    22634242.975
        59.000          44.000
 -11913460.097 6  -9283181.858 5  21954306.397    21954306.516    21954309.251
        85.000          73.000
  -4023195.817 4  -3134950.469 4  23576634.980    23576635.052    23576641.996
        28.000          27.000
 -19708689.682 9 -15357356.676 9  20861958.351    20861957.993    20861959.437
       290.000         231.000
  -7514724.430 5  -5855610.956 4  23215943.778    23215943.462    23215950.482
        47.000          38.000
  -5525830.462 4  -4305817.714 4  23906063.192    23906063.355    23906072.336
        36.000          22.000
 01  3 31  0 33 30.0000000  0 10G22G17G15G18G 6G26G28G23G 3G21
   1090634.739 5    849842.366 4  23039153.344    23039153.199    23039160.706
        55.000          41.000
 -24940911.571 9 -19434410.471 9  20363312.381    20363311.991    20363312.852
       217.000         322.000
 -23233672.536 9 -18104096.277 9  20257989.246    20257989.089    20257990.590
       265.000         285.000
 -19718298.486 9 -15364847.648 8  20972473.441    20972473.393    20972474.250
       253.000         179.000
 -11456821.816 5  -8927365.740 5  22652819.320    22652819.365    22652824.822
        59.000          46.000
 -11915756.219 5  -9284971.005 5  21953869.362    21953869.752    21953872.207
        81.000          72.000
  -4049422.540 4  -3155386.788 4  23571645.433    23571645.164    23571650.821
        30.000          21.000
 -19744020.711 9 -15384887.287 9  20855235.081    20855234.677    20855236.194
       284.000         237.000
  -7607207.264 5  -5927675.359 4  23198344.052    23198344.418    23198351.038
        50.000          34.000
  -5620306.968 4  -4379435.373 4  23888084.730    23888084.620    23888093.709
        34.000          26.000
 01  3 31  0 34  0.0000000  0 10G22G17G15G18G 6G26G28G23G 3G21
   1146486.522 5    893363.114 4  23049782.295    23049781.854    23049788.860
        59.000          38.000
 -24934056.800 9 -19429069.096 9  20364616.527    20364616.290    20364617.322
       217.000         322.000
 -23262688.820 9 -18126706.318 9  20252467.478    20252467.371    20252468.920
       265.000         284.000
 -19779875.199 9 -15412829.379 8  20960755.486    20960755.527    20960756.356
       248.000         180.000
 -11358901.976 5  -8851064.748 4  22671452.579    22671452.970    22671458.087
        56.000          38.000
 -11917396.598 5  -9286249.199 5  21953557.136    21953557.359    21953560.266
        80.000          73.000
  -4075080.949 4  -3175380.284 4  23566762.442    23566762.505    23566768.365
        38.000          24.000
 -19778904.359 9 -15412069.292 9  20848596.688    20848596.476    20848598.066
       284.000         237.000
  -7699432.407 5  -5999538.954 4  23180795.139    23180795.123    23180801.406
        58.000          38.000
  -5714619.039 4  -4452924.893 4  23870137.200    23870137.339    23870146.550
        35.000          26.000
 01  3 31  0 34 30.0000000  0 10G22G17G15G18G 6G26G28G23G 3G21
   1202781.724 5    937229.385 4  23060494.134    23060494.016    23060501.241
        50.000          35.000
 -24926845.626 9 -19423449.993 9  20365988.587    20365988.407    20365989.613
       217.000         324.000
 -23291336.925 9 -18149029.454 9  20247016.224    20247016.039    20247017.338
       270.000         286.000
 -19841006.155 9 -15460463.770 8  20949122.466    20949122.538    20949123.380
       249.000         179.000
 -11260710.938 5  -8774552.451 4  22690138.083    22690138.189    22690143.512
        52.000          38.000
 -11918380.788 5  -9287016.078 5  21953369.187    21953369.438    21953372.921
        82.000          69.000
  -4100170.345 4  -3194930.414 4  23561987.986    23561988.125    23561994.466
        30.000          31.000
 -19813340.352 9 -15438902.477 9  20842043.978    20842043.595    20842045.071
       284.000         236.000
  -7791397.689 5  -6071200.034 4  23163293.830    23163294.059    23163300.873
        47.000          42.000
  -5808765.496 4  -4526285.369 4  23852221.821    23852221.713    23852230.449
        39.000          26.000
 01  3 31  0 35  0.0000000  0 10G22G17G15G18G 6G26G28G23G 3G21
   1259517.539 5    981438.973 4  23071291.399    23071291.104    23071297.983
        50.000          34.000
 -24919277.775 9 -19417552.975 9  20367428.961    20367428.627    20367429.714
       215.000         320.000
 -23319616.196 9 -18171065.191 9  20241634.740    20241634.574    20241635.895
       264.000         289.000
 -19901690.207 9 -15507749.932 8  20937574.490    20937574.556    20937575.486
       254.000         185.000
 -11162250.454 5  -8697830.189 4  22708874.273    22708874.662    22708880.042
        54.000          39.000
 -11918708.713 5  -9287271.582 5  21953307.197    21953307.424    21953310.388
        82.000          76.000
  -4124689.968 4  -3214036.556 4  23557322.516    23557322.200    23557328.005
        33.000          25.000
 -19847328.384 9 -15465386.595 9  20835576.045    20835575.811    20835577.254
       287.000         240.000
  -7883100.235 5  -6142656.400 4  23145843.724    23145843.633    23145849.971
        52.000          35.000
  -5902744.921 4  -4599515.684 4  23834337.712    23834337.620    23834346.097
        36.000          23.000
 01  3 31  0 35 30.0000000  0 10G22G17G15G18G 6G26G28G23G 3G21
   1316691.629 4   1025990.085 4  23082171.004    23082170.651    23082178.322
        42.000          40.000
 -24911353.196 9 -19411377.985 9  20368936.936    20368936.621    20368937.707
       220.000         325.000
 -23347526.308 9 -18192813.276 9  20236323.600    20236323.402    20236324.839
       264.000         294.000
 -19961926.707 9 -15554687.350 8  20926111.527    20926111.730    20926112.773
       253.000         187.000
 -11063522.360 5  -8620899.362 4  22727662.548    22727662.348    22727667.629
        50.000          42.000
 -11918380.203 5  -9287015.571 5  21953370.122    21953370.219    21953372.964
        83.000          70.000
  -4148639.601 4  -3232698.544 4  23552764.391    23552764.117    23552770.847
        32.000          24.000
 -19880868.224 9 -15491521.469 9  20829193.802    20829193.358    20829194.776
       279.000         238.000
  -7974537.857 5  -6213906.334 4  23128443.278    23128443.236    23128449.566
        46.000          33.000
  -5996556.278 4  -4672615.061 4  23816485.417    23816485.407    23816493.708
        32.000          22.000
 01  3 31  0 36  0.0000000  0 10G22G17G15G18G 6G26G28G23G 3G21
   1374301.912 5   1070881.098 4  23093134.275    23093134.076    23093141.134
        49.000          38.000
 -24903071.729 9 -19404924.908 9  20370512.649    20370512.433    20370513.582
       216.000         320.000
 -23375066.633 9 -18214273.218 9  20231082.635    20231082.446    20231084.106
       264.000         290.000
 -20021714.498 9 -15601275.132 8  20914734.572    20914734.565    20914735.438
       251.000         190.000
 -10964528.685 5  -8543761.634 4  22746499.492    22746500.043    22746505.770
        55.000          42.000
 -11917394.931 5  -9286247.797 5  21953557.233    21953557.460    21953560.234
        78.000          73.000
  -4172018.396 4  -3250915.737 4  23548314.989    23548315.140    23548321.194
        33.000          22.000
 -19913959.765 9 -15517307.019 9  20822896.619    20822896.229    20822897.600
       282.000         240.000
  -8065708.242 5  -6284947.998 4  23111094.741    23111094.398    23111100.964
        47.000          41.000
  -6090198.343 4  -4745582.525 4  23798666.304    23798666.022    23798673.959
        38.000          23.000
 01  3 31  0 36 30.0000000  0 10G22G17G15G18G 6G26G28G23G 3G21
   1432346.086 5   1116110.188 4  23104179.527    23104179.307    23104186.685
        44.000          34.000
 -24894433.366 9 -19398193.711 9  20372156.537    20372156.285    20372157.503
       215.000         314.000
 -23402236.740 9 -18235444.672 9  20225912.540    20225912.300    20225913.700
       257.000         292.000
 -20081052.094 9 -15647512.113 8  20903443.164    20903443.087    20903443.869
       255.000         192.000
 -10865271.379 5  -8466418.481 4  22765388.414    22765388.628    22765394.015
        55.000          38.000
 -11915752.805 5  -9284968.206 5  21953869.536    21953869.618    21953872.540
        80.000          69.000
  -4194825.129 4  -3268687.182 4  23543975.975    23543975.883    23543981.196
        35.000          27.000
 -19946602.952 9 -15542743.207 9  20816684.854    20816684.422    20816685.658
       278.000         234.000
  -8156608.848 5  -6355779.441 4  23093796.359    23093796.190    23093802.697
        47.000          39.000
  -6183670.059 4  -4818417.267 4  23780878.470    23780878.411    23780887.037
        36.000          24.000
 01  3 31  0 37  0.0000000  0 10G22G17G15G18G 6G26G28G23G 3G21
   1490821.131 5   1161675.026 4  23115306.659    23115306.248    23115314.318
        44.000          35.000
 -24885438.042 9 -19391184.365 9  20373868.089    20373867.892    20373869.172
       222.000         320.000
 -23429035.846 9 -18256327.034 9  20220812.683    20220812.546    20220813.902
       268.000         292.000
 -20139938.662 9 -15693397.653 8  20892237.203    20892237.213    20892238.053
       250.000         193.000
 -10765752.187 5  -8388871.245 4  22784326.278    22784326.435    22784332.272
        56.000          39.000
 -11913453.644 5  -9283176.631 5  21954307.018    21954307.217    21954310.279
        81.000          71.000
  -4217059.650 4  -3286012.748 4  23539744.841    23539744.550    23539750.172
        30.000          27.000
 -19978797.537 9 -15567829.833 9  20810558.295    20810557.920    20810559.166
       277.000         238.000
  -8247237.279 5  -6426398.801 4  23076550.096    23076550.051    23076556.527
        49.000          35.000
  -6276969.950 4  -4891118.105 4  23763123.665    23763123.483    23763132.656
        36.000          31.000
 01  3 31  0 37 30.0000000  0 10G22G17G15G18G 6G26G28G23G 3G21
   1549724.338 5   1207573.484 4  23126515.727    23126515.437    23126523.208
        47.000          37.000
 -24876085.663 9 -19383896.806 9  20375647.690    20375647.521    20375648.947
       216.000         312.000
 -23455463.652 9 -18276920.065 9  20215783.482    20215783.354    20215784.740
       265.000         290.000
 -20198373.279 9 -15738931.028 8  20881117.325    20881117.337    20881118.174
       248.000         193.000
 -10665973.129 5  -8311121.512 4  22803314.156    22803314.181    22803319.765
        49.000          39.000
 -11910497.459 5  -9280873.090 5  21954869.962    21954870.155    21954872.949
        82.000          71.000
  -4238721.427 4  -3302892.025 4  23535622.372    23535622.239    23535628.025
        29.000          20.000
 -20010543.755 9 -15592567.086 9  20804517.216    20804516.787    20804518.092
       278.000         243.000
  -8337591.000 5  -6496804.082 4  23059356.688    23059356.284    23059362.679
        51.000          41.000
  -6370096.543 4  -4963683.919 4  23745402.154    23745402.044    23745410.928
        37.000          30.000
 01  3 31  0 38  0.0000000  0 10G22G17G15G18G 6G26G28G23G 3G21
   1609053.574 5   1253803.917 4  23137806.148    23137805.830    23137813.248
        47.000          35.000
 -24866376.111 9 -19376330.935 9  20377495.399    20377495.225    20377496.656
       218.000         319.000
 -23481519.520 9 -18297223.287 9  20210824.992    20210824.845    20210826.478
       267.000         296.000
 -20256354.933 9 -15784111.451 8  20870083.584    20870083.604    20870084.518
       252.000         196.000
 -10565936.086 5  -8233170.770 4  22822350.844    22822350.750    22822356.269
        50.000          40.000
 -11906884.128 5  -9278057.489 5  21955556.814    21955557.152    21955560.452
        76.000          75.000
  -4259809.899 4  -3319324.581 4  23531609.242    23531609.220    23531615.546
        37.000          26.000
 -20041841.501 9 -15616954.873 9  20798561.154    20798560.743    20798562.191
       275.000         243.000
  -8427667.714 5  -6566993.473 5  23042215.429    23042215.239    23042221.661
        52.000          49.000
  -6463048.915 4  -5036113.997 4  23727714.377    23727714.021    23727722.288
        31.000          32.000
 01  3 31  0 38 30.0000000  0 10G22G17G15G18G 6G26G28G23G 3G21
   1668806.631 5   1300364.618 4  23149176.896    23149176.870    23149184.157
        44.000          37.000
 -24856309.365 9 -19368486.726 9  20379411.184    20379411.023    20379412.301
       217.000         315.000
 -23507203.008 9 -18317236.352 9  20205937.925    20205937.724    20205938.989
       265.000         292.000
 -20313882.709 9 -15828938.206 8  20859136.530    20859136.518    20859137.267
       254.000         200.000
 -10465643.013 5  -8155020.506 4  22841435.978    22841436.076    22841441.599
        48.000          37.000
 -11902613.648 5  -9274729.830 5  21956370.269    21956370.136    21956373.100
        79.000          73.000
  -4280324.647 4  -3335310.093 4  23527706.122    23527705.873    23527711.715
        35.000          28.000
 -20072690.791 9 -15640993.219 9  20792690.870    20792690.433    20792691.736
       275.000         239.000
  -8517465.152 5  -6636965.260 5  23025126.929    23025126.821    23025133.005
        51.000          47.000
  -6555826.146 4  -5108407.610 4  23710059.046    23710058.847    23710066.960
        36.000          31.000
 01  3 31  0 39  0.0000000  0 10G22G17G15G18G 6G26G28G23G 3G21
   1728980.825 5   1347253.450 4  23160627.925    23160627.370    23160635.413
        48.000          39.000
 -24845885.356 9 -19360364.132 9  20381394.926    20381394.709    20381395.853
       225.000         316.000
 -23532513.714 9 -18336958.930 9  20201121.269    20201121.035    20201122.489
       265.000         299.000
 -20370955.833 9 -15873410.679 8  20848275.861    20848275.908    20848276.507
       248.000         202.000
 -10365095.856 5  -8076672.257 4  22860570.143    22860569.985    22860574.854
        44.000          36.000
 -11897685.992 6  -9270890.081 5  21957307.611    21957307.965    21957310.845
        85.000          73.000
  -4300265.087 4  -3350848.073 4  23523911.092    23523910.870    23523916.895
        25.000          25.000
 -20103091.442 9 -15664681.975 9  20786905.887    20786905.427    20786906.714
       277.000         244.000
  -8606981.050 5  -6706717.645 5  23008092.369    23008092.539    23008098.285
        58.000          45.000
  -6648426.670 4  -5180563.554 4  23692436.353    23692436.523    23692445.162
        36.000          29.000
 01  3 31  0 39 30.0000000  0 10G22G17G15G18G 6G26G28G23G 3G21
   1789573.106 5   1394468.059 4  23172157.784    23172157.496    23172165.583
        51.000          33.000
 -24835104.081 9 -19351963.134 9  20383446.595    20383446.375    20383447.455
       223.000         308.000
 -23557451.076 9 -18356390.580 9  20196375.770    20196375.657    20196377.027
       273.000         295.000
 -20427573.048 9 -15917527.907 8  20837501.626    20837501.742    20837502.447
       246.000         199.000
 -10264296.454 5  -7998127.486 4  22879750.505    22879750.828    22879756.861
        49.000          36.000
 -11892101.277 5  -9266538.338 5  21958370.285    21958370.458    21958373.342
        81.000          73.000
  -4319630.713 4  -3365938.164 4  23520225.952    23520225.906    23520232.042
        33.000          26.000
 -20133043.433 9 -15688021.119 9  20781205.826    20781205.515    20781206.905
       274.000         242.000
  -8696212.629 5  -6776248.493 5  22991111.861    22991111.968    22991117.727
        50.000          45.000
  -6740849.423 4  -5252580.995 4  23674849.220    23674849.209    23674857.503
        37.000          31.000
 01  3 31  0 40  0.0000000  0 10G22G17G15G18G 6G26G28G23G 3G21
   1850580.877 5   1442006.456 4  23183767.921    23183767.651    23183774.854
        49.000          30.000
 -24823965.440 9 -19343283.655 9  20385566.165    20385565.950    20385567.034
       229.000         312.000
 -23582014.687 9 -18375530.999 9  20191701.698    20191701.461    20191702.657
       275.000         301.000
 -20483733.508 9 -15961289.215 8  20826814.422    20826814.623    20826815.452
       250.000         205.000
 -10163246.782 5  -7919387.701 4  22898979.923    22898980.252    22898986.214
        50.000          35.000
 -11885859.502 6  -9261674.607 5  21959557.791    21959557.945    21959560.891
        85.000          68.000
  -4338420.998 4  -3380579.975 4  23516649.650    23516649.331    23516656.111
        32.000          26.000
 -20162546.790 9 -15711010.683 9  20775591.575    20775591.237    20775592.514
       276.000         240.000
  -8785157.543 5  -6845555.955 5  22974185.965    22974186.118    22974192.241
        55.000          43.000
  -6833093.083 4  -5324458.864 4  23657295.270    23657295.309    23657303.725
        35.000          30.000
 01  3 31  0 40 30.0000000  0 10G22G17G15G18G 6G26G28G23G 3G21
   1912002.211 5   1489867.086 4  23195456.403    23195456.040    23195463.213
        44.000          31.000
 -24812469.326 9 -19334325.625 9  20387754.023    20387753.778    20387754.656
       217.000         308.000
 -23606204.041 9 -18394379.771 9  20187098.291    20187098.257    20187099.568
       276.000         298.000
 -20539436.300 9 -16004693.896 8  20816214.539    20816214.692    20816215.520
       245.000         209.000
 -10061948.679 5  -7840454.297 4  22918256.879    22918257.144    22918262.727
        49.000          33.000
 -11878960.668 6  -9256298.865 5  21960870.755    21960871.090    21960873.806
        86.000          70.000
  -4356635.602 4  -3394773.159 4  23513184.083    23513184.216    23513189.981
        36.000          28.000
 -20191601.423 9 -15733650.590 9  20770062.567    20770062.291    20770063.561
       274.000         247.000
  -8873813.228 5  -6914638.045 5  22957315.921    22957315.714    22957321.695
        66.000          48.000
  -6925156.473 4  -5396196.300 4  23639776.173    23639776.125    23639783.953
        36.000          26.000
 01  3 31  0 41  0.0000000  0 10G22G17G15G18G 6G26G28G23G 3G21
   1973834.501 5   1538047.940 4  23207222.604    23207222.250    23207229.501
        44.000          32.000
 -24800615.774 9 -19325089.085 9  20390009.419    20390009.192    20390010.359
       220.000         310.000
 -23630018.305 9 -18412936.280 9  20182566.787    20182566.512    20182567.817
       268.000         300.000
 -20594680.566 9 -16047741.298 9  20805702.093    20805702.108    20805702.801
       254.000         213.000
  -9960404.253 5  -7761328.977 4  22937580.497    22937580.444    22937586.037
        46.000          36.000
 -11871404.954 6  -9250411.271 5  21962308.571    21962308.817    21962311.522
        87.000          68.000
  -4374273.860 4  -3408517.287 4  23509827.885    23509827.655    23509833.225
        36.000          23.000
 -20220207.299 9 -15755940.824 9  20764619.156    20764618.831    20764619.962
       279.000         244.000
  -8962177.487 5  -6983493.056 4  22940499.225    22940499.338    22940505.470
        49.000          40.000
  -7017038.329 4  -5467792.274 4  23622291.201    23622291.181    23622299.349
        35.000          30.000
 01  3 31  0 41 30.0000000  0 10G22G17G15G18G 6G26G28G23G 3G21
   2036074.835 5   1586546.740 4  23219066.061    23219065.958    23219073.668
        49.000          34.000
 -24788404.717 9 -19315573.978 9  20392333.193    20392332.959    20392334.063
       220.000         310.000
 -23653457.277 9 -18431200.370 9  20178106.404    20178106.211    20178107.402
       270.000         298.000
 -20649465.293 9 -16090430.612 9  20795276.768    20795276.918    20795277.584
       257.000         218.000
  -9858615.619 5  -7682013.371 4  22956950.436    22956950.349    22956956.065
        44.000          34.000
 -11863192.614 5  -9244012.026 5  21963871.411    21963871.614    21963874.253
        80.000          68.000
  -4391335.792 4  -3421812.303 4  23506581.403    23506581.422    23506587.315
        39.000          29.000
 -20248364.382 9 -15777881.350 9  20759260.960    20759260.671    20759261.819
       280.000         246.000
  -9050247.952 5  -7052119.130 5  22923740.147    22923740.159    22923746.675
        54.000          46.000
  -7108737.163 4  -5539245.645 4  23604840.179    23604840.836    23604849.190
        38.000          27.000
 01  3 31  0 42  0.0000000  0 10G22G17G15G18G 6G26G28G23G 3G21
   2098720.276 4   1635361.227 4  23230987.203    23230987.148    23230995.225
        41.000          35.000
 -24775836.090 9 -19305780.246 9  20394724.971    20394724.755    20394725.808
       226.000         312.000
 -23676520.477 9 -18449171.655 9  20173717.702    20173717.471    20173718.519
       263.000         299.000
 -20703789.572 9 -16132761.135 9  20784939.284    20784939.262    20784939.921
       252.000         216.000
  -9756584.649 5  -7602508.920 4  22976366.728    22976366.669    22976372.216
        47.000          31.000
 -11854323.729 5  -9237101.206 5  21965559.452    21965559.432    21965562.000
        83.000          70.000
  -4407820.656 4  -3434657.677 4  23503444.221    23503443.916    23503450.174
        32.000          30.000
 -20276072.796 9 -15799472.266 9  20753988.092    20753987.815    20753989.014
       271.000         243.000
  -9138021.993 5  -7120514.233 4  22907038.426    22907038.066    22907043.117
        59.000          42.000
  -7200251.974 4  -5610555.625 4  23587426.242    23587426.349    23587434.248
        38.000          28.000
 01  3 31  0 42 30.0000000  0 10G22G17G15G18G 6G26G28G23G 3G21
   2161768.543 5   1684489.566 4  23242985.627    23242985.143    23242992.693
        47.000          34.000
 -24762909.804 9 -19295707.813 9  20397185.106    20397184.770    20397185.646
       226.000         307.000
 -23699207.012 9 -18466849.437 9  20169400.455    20169400.280    20169401.469
       266.000         300.000
 -20757652.517 9 -16174732.180 9  20774689.612    20774689.649    20774690.001
       256.000         219.000
  -9654313.332 5  -7522817.197 4  22995828.687    22995828.375    22995833.963
        45.000          34.000
 -11844798.409 6  -9229678.878 5  21967371.964    21967372.047    21967374.797
        86.000          71.000
  -4423728.230 4  -3447053.198 4  23500417.228    23500417.334    23500423.072
        39.000          31.000
 -20303332.536 9 -15820713.572 9  20748800.649    20748800.388    20748801.550
       272.000         242.000
  -9225497.261 5  -7188676.547 4  22890391.832    22890391.725    22890396.682
        60.000          41.000
  -7291581.504 4  -5681721.251 4  23570047.001    23570046.775    23570054.594
        39.000          30.000
 01  3 31  0 43  0.0000000  0 10G22G17G15G18G 6G26G28G23G 3G21
   2225217.289 4   1733929.982 4  23255059.343    23255059.060    23255066.858
        39.000          29.000
 -24749625.774 9 -19285356.616 9  20399712.789    20399712.554    20399713.442
       228.000         311.000
 -23721516.809 9 -18484233.667 9  20165155.186    20165154.928    20165156.020
       275.000         300.000
 -20811053.394 9 -16216343.181 9  20764527.600    20764527.652    20764528.053
       255.000         217.000
  -9551803.440 4  -7442939.594 4  23015334.495    23015334.974    23015341.312
        40.000          34.000
 -11834617.086 5  -9221745.370 5  21969309.216    21969309.332    21969312.250
        82.000          73.000
  -4439058.288 4  -3458998.702 4  23497500.225    23497500.046    23497506.075
        40.000          29.000
 -20330143.954 9 -15841605.547 9  20743698.721    20743698.301    20743699.442
       271.000         243.000
  -9312671.217 5  -7256604.090 5  22873803.346    22873803.061    22873808.197
        60.000          47.000
  -7382725.024 4  -5752741.924 4  23552702.116    23552702.313    23552710.740
        41.000          31.000
 01  3 31  0 43 30.0000000  0 10G22G17G15G18G 6G26G28G23G 3G21
   2289063.849 4   1783680.368 4  23267208.623    23267208.139    23267216.830
        37.000          33.000
 -24735984.080 9 -19274726.726 9  20402308.576    20402308.360    20402309.318
       235.000         311.000
 -23743449.561 9 -18501324.095 9  20160981.550    20160981.306    20160982.237
       267.000         298.000
 -20863991.445 9 -16257593.535 9  20754453.745    20754453.797    20754454.274
       251.000         227.000
  -9449057.120 5  -7362877.747 4  23034887.975    23034887.853    23034893.351
        44.000          31.000
 -11823779.982 5  -9213300.886 5  21971370.889    21971371.081    21971374.356
        79.000          72.000
  -4453810.425 4  -3470493.896 4  23494692.081    23494692.415    23494698.593
        35.000          29.000
 -20356506.939 9 -15862148.092 9  20738681.963    20738681.682    20738682.732
       274.000         240.000
  -9399541.624 5  -7324295.073 5  22857271.550    22857271.575    22857276.957
        56.000          49.000
  -7473681.465 4  -5823616.834 4  23535393.118    23535393.311    23535402.111
        39.000          32.000
 01  3 31  0 44  0.0000000  0 10G22G17G15G18G 6G26G28G23G 3G21
   2353305.092 4   1833738.313 4  23279433.698    23279433.342    23279441.408
        38.000          33.000
 -24721984.480 9 -19263817.949 9  20404972.629    20404972.400    20404973.374
       232.000         312.000
 -23765004.256 9 -18518119.947 9  20156879.603    20156879.459    20156880.572
       271.000         300.000
 -20916465.934 9 -16298482.671 9  20744468.314    20744468.275    20744468.599
       245.000         225.000
  -9346076.485 5  -7282633.314 4  23054484.353    23054484.477    23054490.162
        45.000          30.000
 -11812287.395 5  -9204345.643 5  21973558.713    21973558.687    21973561.553
        79.000          72.000
  -4467984.302 4  -3481538.481 4  23491995.022    23491994.983    23492001.044
        30.000          26.000
 -20382421.519 9 -15882341.232 9  20733750.496    20733750.226    20733751.277
       276.000         241.000
  -9486106.050 5  -7391747.656 5  22840799.316    22840798.989    22840804.271
        57.000          53.000
  -7564449.153 4  -5894344.670 4  23518120.508    23518120.704    23518129.168
        37.000          34.000
 01  3 31  0 44 30.0000000  0 10G22G17G15G18G 6G26G28G23G 3G21
   2417938.298 5   1884101.667 4  23291733.344    23291733.081    23291740.852
        48.000          31.000
 -24707627.017 9 -19252630.326 9  20407704.816    20407704.533    20407705.547
       232.000         309.000
 -23786180.593 9 -18534620.977 9  20152850.039    20152849.774    20152850.889
       268.000         299.000
 -20968475.770 9 -16339009.728 9  20734571.053    20734571.051    20734571.278
       241.000         226.000
  -9242863.524 4  -7202207.860 4  23074125.487    23074125.474    23074131.266
        41.000          32.000
 -11800139.379 6  -9194879.653 5  21975870.391    21975870.652    21975873.102
        88.000          71.000
  -4481579.860 4  -3492132.445 4  23489408.510    23489408.344    23489413.994
        36.000          25.000
 -20407887.967 9 -15902185.175 9  20728904.406    20728904.089    20728905.075
       276.000         243.000
  -9572361.978 5  -7458959.856 5  22824384.722    22824384.681    22824390.418
        51.000          55.000
  -7655027.104 4  -5964924.650 4  23500885.632    23500885.180    23500892.490
        40.000          38.000
 01  3 31  0 45  0.0000000  0 10G22G17G15G18G 6G26G28G23G 3G21
   2482961.359 4   1934768.830 4  23304106.822    23304106.435    23304114.330
        41.000          31.000
 -24692911.687 9 -19241163.851 9  20410505.076    20410504.790    20410505.818
       236.000         308.000
 -23806978.253 9 -18550826.923 9  20148892.272    20148892.112    20148893.187
       267.000         301.000
 -21020020.318 9 -16379174.230 9  20724761.856    20724762.067    20724762.642
       247.000         230.000
  -9139419.967 4  -7121602.707 4  23093809.949    23093810.083    23093816.023
        42.000          29.000
 -11787336.587 6  -9184903.449 5  21978306.795    21978306.859    21978309.194
        85.000          71.000
  -4494596.807 4  -3502275.543 4  23486930.407    23486930.720    23486937.293
        31.000          31.000
 -20432906.260 9 -15921679.903 9  20724143.470    20724143.218    20724144.213
       281.000         238.000
  -9658306.881 5  -7525929.718 5  22808029.731    22808029.745    22808035.051
        57.000          50.000
  -7745414.555 5  -6035356.198 4  23483684.825    23483684.875    23483692.280
        43.000          35.000
 01  3 31  0 45 30.0000000  0 10G22G17G15G18G 6G26G28G23G 3G21
   2548371.590 4   1985737.679 4  23316554.240    23316553.900    23316561.790
        42.000          32.000
 -24677838.647 9 -19229418.634 9  20413373.434    20413373.192    20413374.222
       234.000         310.000
 -23827396.865 9 -18566737.509 9  20145006.754    20145006.498    20145007.583
       265.000         297.000
 -21071098.659 9 -16418975.452 9  20715041.893    20715042.010    20715042.731
       248.000         232.000
  -9035748.050 4  -7040819.608 4  23113538.355    23113538.235    23113544.407
        39.000          31.000
 -11773879.267 5  -9174417.246 5  21980866.948    21980867.191    21980870.252
        82.000          73.000
  -4507034.950 4  -3511967.620 4  23484564.327    23484564.332    23484570.140
        42.000          27.000
 -20457476.640 9 -15940825.606 9  20719468.061    20719467.703    20719468.662
       278.000         238.000
  -9743938.499 5  -7592655.465 5  22791734.328    22791734.277    22791739.937
        60.000          50.000
  -7835609.993 4  -6105638.116 4  23466521.567    23466521.236    23466528.115
        41.000          31.000
 01  3 31  0 46  0.0000000  0 10G22G17G15G18G 6G26G28G23G 3G21
   2614166.082 5   2037005.945 4  23329074.607    23329074.309    23329082.303
        49.000          30.000
 -24662407.866 9 -19217394.650 9  20416309.735    20416309.581    20416310.555
       235.000         309.000
 -23847435.872 9 -18582352.303 9  20141193.275    20141193.097    20141194.251
       262.000         295.000
 -21121710.028 9 -16458412.801 9  20705411.012    20705411.074    20705411.567
       250.000         239.000
  -8931849.877 5  -6959860.223 4  23133309.952    23133309.947    23133315.540
        43.000          31.000
 -11759767.826 5  -9163421.322 5  21983552.011    21983552.444    21983555.420
        82.000          72.000
  -4518894.071 4  -3521208.504 4  23482307.882    23482307.932    23482313.595
        40.000          30.000
 -20481599.374 9 -15959622.497 9  20714877.587    20714877.297    20714878.256
       272.000         238.000
  -9829254.572 5  -7659135.349 5  22775498.961    22775499.105    22775504.481
        69.000          49.000
  -7925612.801 4  -6175769.940 4  23449394.052    23449393.939    23449401.139
        40.000          34.000
 01  3 31  0 46 30.0000000  0 10G22G17G15G18G 6G26G28G23G 3G21
   2680341.810 4   2088571.270 4  23341667.757    23341667.414    23341675.416
        41.000          36.000
 -24646619.049 9 -19205091.672 9  20419314.066    20419313.905    20419315.069
       235.000         305.000
 -23867094.781 9 -18597670.906 9  20137452.254    20137452.059    20137453.224
       261.000         298.000
 -21171853.871 9 -16497485.841 9  20695869.042    20695869.041    20695869.329
       244.000         235.000
  -8827727.289 4  -6878725.975 4  23153124.063    23153123.987    23153129.972
        39.000          27.000
 -11745002.765 6  -9151916.101 5  21986362.529    21986362.590    21986365.228
        85.000          73.000
  -4530174.165 4  -3529998.165 4  23480160.743    23480160.811    23480167.164
        37.000          31.000
 -20505274.511 9 -15978070.612 9  20710372.305    20710371.989    20710373.019
       270.000         246.000
  -9914252.368 5  -7725367.240 5  22759324.528    22759324.560    22759329.695
        72.000          51.000
  -8015421.378 5  -6245750.415 4  23432304.106    23432303.763    23432310.747
        46.000          32.000
 01  3 31  0 47  0.0000000  0 10G22G17G15G18G 6G26G28G23G 3G21
   2746896.180 5   2140431.647 4  23354332.104    23354332.189    23354340.709
        44.000          34.000
 -24630472.170 9 -19192509.684 9  20422386.870    20422386.600    20422387.701
       232.000         307.000
 -23886373.174 9 -18612692.992 9  20133783.751    20133783.585    20133784.737
       257.000         295.000
 -21221529.359 9 -16536193.931 9  20686416.065    20686416.057    20686416.457
       242.000         242.000
  -8723382.220 4  -6797418.358 4  23172979.488    23172979.924    23172986.575
        39.000          31.000
 -11729584.594 6  -9139901.962 5  21989295.989    21989296.282    21989299.280
        86.000          75.000
  -4540874.817 4  -3538336.328 4  23478124.134    23478124.246    23478130.679
        35.000          29.000
 -20528502.111 9 -15996170.003 9  20705952.196    20705951.812    20705952.903
       265.000         241.000
  -9998929.519 5  -7791349.266 5  22743211.254    22743210.956    22743216.175
        60.000          51.000
  -8105034.499 5  -6315578.583 4  23415250.887    23415250.822    23415257.565
        50.000          30.000
 01  3 31  0 47 30.0000000  0 10G22G17G15G18G 6G26G28G23G 3G21
   2813826.959 4   2192585.328 4  23367069.038    23367068.674    23367077.403
        40.000          38.000
 -24613967.312 9 -19179648.749 9  20425527.401    20425527.266    20425528.432
       230.000         314.000
 -23905270.434 9 -18627418.105 9  20130187.707    20130187.579    20130188.601
       264.000         298.000
 -21270735.890 9 -16574536.600 9  20677052.133    20677052.186    20677052.785
       237.000         251.000
  -8618816.754 5  -6715939.003 4  23192878.239    23192878.433    23192884.904
        43.000          29.000
 -11713513.710 6  -9127379.221 5  21992354.646    21992354.804    21992357.518
        87.000          71.000
  -4550996.192 4  -3546223.106 4  23476198.620    23476198.689    23476205.033
        41.000          28.000
 -20551282.251 9 -16013920.723 9  20701617.125    20701616.806    20701617.955
       267.000         240.000
 -10083283.769 5  -7857079.697 5  22727159.432    22727159.182    22727164.173
        73.000          58.000
  -8194451.242 5  -6385253.746 4  23398235.059    23398234.942    23398241.881
        47.000          32.000
 01  3 31  0 48  0.0000000  0 10G22G17G15G18G 6G26G28G23G 3G21
   2881131.425 4   2245030.179 4  23379876.696    23379876.314    23379885.161
        38.000          34.000
 -24597104.529 9 -19166508.935 9  20428736.640    20428736.358    20428737.322
       238.000         307.000
 -23923786.072 9 -18641845.851 9  20126664.203    20126664.015    20126665.091
       259.000         293.000
 -21319472.367 9 -16612512.995 9  20667777.902    20667777.888    20667778.486
       230.000         257.000
  -8514032.957 5  -6634289.503 4  23212818.738    23212818.647    23212824.743
        43.000          30.000
 -11696790.610 5  -9114348.246 5  21995537.077    21995537.090    21995539.792
        79.000          64.000
  -4560538.062 4  -3553658.326 4  23474383.168    23474383.083    23474388.432
        34.000          25.000
 -20573615.207 9 -16031322.989 9  20697367.297    20697366.922    20697368.051
       264.000         243.000
 -10167312.512 5  -7922556.495 5  22711168.824    22711168.763    22711173.257
        71.000          49.000
  -8283670.447 4  -6454774.976 4  23381256.451    23381256.356    23381263.869
        39.000          33.000
 01  3 31  0 48 30.0000000  0 10G22G17G15G18G 6G26G28G23G 3G21
   2948806.347 4   2297763.715 4  23392754.618    23392754.574    23392763.445
        40.000          35.000
 -24579883.765 9 -19153090.166 9  20432013.427    20432013.181    20432014.401
       230.000         303.000
 -23941919.650 9 -18655975.881 9  20123213.502    20123213.312    20123214.391
       254.000         293.000
 -21367738.426 9 -16650122.839 9  20658593.020    20658593.060    20658593.569
       239.000         253.000
  -8409032.933 4  -6552471.514 4  23232798.633    23232799.099    23232805.553
        37.000          24.000
 -11679415.812 5  -9100809.464 5  21998843.409    21998843.517    21998845.937
        82.000          68.000
  -4569500.702 4  -3560642.190 4  23472677.104    23472677.249    23472683.535
        29.000          25.000
 -20595501.281 9 -16048377.024 9  20693202.662    20693202.274    20693203.134
       259.000         239.000
 -10251013.267 5  -7987777.715 5  22695240.961    22695240.979    22695245.972
        65.000          59.000
  -8372690.901 5  -6524141.322 4  23364316.035    23364316.245    23364323.726
        49.000          35.000
 01  3 31  0 49  0.0000000  0 10G22G17G15G18G 6G26G28G23G 3G21
   3016848.857 5   2350783.664 4  23405703.429    23405703.210    23405711.410
        47.000          31.000
 -24562304.940 9 -19139392.383 9  20435358.255    20435358.179    20435359.493
       233.000         309.000
 -23959670.811 9 -18669807.921 9  20119835.509    20119835.294    20119836.366
       257.000         294.000
 -21415533.181 9 -16687365.431 9  20649498.057    20649498.027    20649498.417
       239.000         254.000
  -8303818.751 4  -6470486.663 4  23252820.534    23252820.771    23252827.616
        40.000          28.000
 -11661390.103 5  -9086763.478 5  22002273.277    22002273.392    22002276.477
        84.000          70.000
  -4577883.835 4  -3567174.493 4  23471082.023    23471082.035    23471088.355
        35.000          29.000
 -20616940.720 9 -16065083.039 9  20689122.613    20689122.281    20689123.262
       262.000         242.000
 -10334383.733 5  -8052741.568 5  22679375.835    22679375.799    22679380.574
        69.000          58.000
  -8461511.463 4  -6593351.917 4  23347413.604    23347413.818    23347421.401
        41.000          35.000
 01  3 31  0 49 30.0000000  0 10G22G17G15G18G 6G26G28G23G 3G21
   3085256.558 4   2404088.216 4  23418721.438    23418721.081    23418728.939
        42.000          26.000
 -24544368.207 9 -19125415.717 9  20438771.739    20438771.520    20438772.751
       235.000         308.000
 -23977038.963 9 -18683341.502 9  20116530.425    20116530.261    20116531.268
       252.000         292.000
 -21462856.154 9 -16724240.395 9  20640492.671    20640492.757    20640493.102
       238.000         258.000
  -8198392.496 4  -6388336.573 4  23272883.422    23272883.078    23272889.608
        36.000          26.000
 -11642713.842 5  -9072210.578 5  22005827.414    22005827.551    22005830.732
        84.000          72.000
  -4585687.360 4  -3573255.127 4  23469596.634    23469596.646    23469602.960
        29.000          26.000
 -20637933.776 9 -16081441.221 9  20685127.760    20685127.410    20685128.428
       261.000         241.000
 -10417421.305 5  -8117446.028 5  22663574.168    22663574.105    22663579.515
        73.000          66.000
  -8550131.046 5  -6662405.890 4  23330550.303    23330550.106    23330557.771
        43.000          37.000
 01  3 31  0 50  0.0000000  0 10G22G17G15G18G 6G26G28G23G 3G21
   3154027.006 5   2457675.382 4  23431807.715    23431807.395    23431815.328
        43.000          27.000
 -24526073.396 9 -19111160.020 9  20442253.167    20442252.921    20442254.138
       231.000         302.000
 -23994023.750 9 -18696576.369 9  20113298.441    20113298.219    20113299.095
       260.000         291.000
 -21509706.759 9 -16760747.287 9  20631577.411    20631577.413    20631577.579
       238.000         256.000
  -8092756.048 4  -6306022.695 4  23292984.345    23292984.565    23292991.535
        35.000          25.000
 -11623387.789 6  -9057151.336 5  22009504.923    22009505.129    22009508.153
        91.000          73.000
  -4592911.336 4  -3578884.168 4  23468221.468    23468221.778    23468228.410
        36.000          26.000
 -20658480.577 9 -16097451.681 9  20681217.476    20681217.189    20681218.469
       261.000         241.000
 -10500123.805 5  -8181889.374 5  22647836.007    22647835.849    22647840.815
        67.000          55.000
  -8638548.681 4  -6731302.482 4  23313724.833    23313724.752    23313732.038
        38.000          37.000
 01  3 31  0 50 30.0000000  0 10G22G17G15G18G 6G26G28G23G 3G21
   3223157.169 4   2511542.885 4  23444962.897    23444962.572    23444971.173
        42.000          29.000
 -24507420.403 9 -19096625.210 9  20445802.748    20445802.493    20445803.698
       230.000         306.000
 -24010624.720 9 -18709512.168 9  20110139.200    20110139.059    20110140.133
       254.000         296.000
 -21556084.215 9 -16796885.494 9  20622751.925    20622751.971    20622752.167
       237.000         257.000
  -7986911.525 4  -6223546.675 4  23313126.723    23313126.858    23313133.501
        33.000          24.000
 -11603412.707 6  -9041586.366 5  22013305.748    22013306.015    22013309.048
        89.000          72.000
  -4599556.075 4  -3584061.852 4  23466958.114    23466957.998    23466963.873
        41.000          26.000
 -20678581.521 9 -16113114.718 9  20677392.468    20677392.104    20677393.277
       255.000         243.000
 -10582488.684 5  -8246069.639 5  22632162.550    22632162.501    22632167.022
        72.000          51.000
  -8726763.175 5  -6800040.792 4  23296937.815    23296937.928    23296945.057
        45.000          39.000
 01  3 31  0 51  0.0000000  0 10G22G17G15G18G 6G26G28G23G 3G21
   3292643.979 4   2565688.266 4  23458185.915    23458185.691    23458194.288
        41.000          29.000
 -24488409.359 9 -19081811.412 9  20449420.572    20449420.313    20449421.393
       232.000         305.000
 -24026841.368 9 -18722148.488 9  20107053.485    20107053.228    20107054.225
       253.000         300.000
 -21601987.862 9 -16832654.493 9  20614016.744    20614016.752    20614016.974
       236.000         259.000
  -7880861.017 4  -6140910.145 4  23333307.436    23333307.753    23333314.427
        35.000          21.000
 -11582789.135 5  -9025516.055 5  22017229.961    22017230.338    22017233.925
        83.000          69.000
  -4605621.416 4  -3588788.050 4  23465803.515    23465803.729    23465809.616
        38.000          26.000
 -20698236.797 9 -16128430.488 9  20673652.391    20673651.985    20673652.958
       252.000         241.000
 -10664513.590 5  -8309985.011 5  22616553.268    22616553.227    22616558.477
        70.000          57.000
  -8814773.471 5  -6868619.978 4  23280190.221    23280190.307    23280197.369
        47.000          42.000
 01  3 31  0 51 30.0000000  0 10G22G17G15G18G 6G26G28G23G 3G21
   3362484.547 4   2620109.313 4  23471475.480    23471475.388    23471484.305
        38.000          27.000
 -24469040.272 9 -19066718.618 9  20453106.214    20453106.055    20453107.137
       237.000         302.000
 -24042673.300 9 -18734484.999 9  20104040.361    20104040.266    20104041.304
       253.000         293.000
 -21647417.086 9 -16868053.812 9  20605372.025    20605371.893    20605371.971
       236.000         260.000
  -7774606.458 4  -6058114.631 4  23353525.969    23353527.108    23353534.284
        39.000          27.000
 -11561517.885 6  -9008941.071 5  22021278.435    22021278.753    22021281.573
        86.000          70.000
  -4611107.540 4  -3593062.901 4  23464760.059    23464760.095    23464765.817
        37.000          28.000
 -20717446.639 9 -16143399.164 9  20669996.518    20669996.257    20669997.504
       246.000         245.000
 -10746196.030 5  -8373633.469 5  22601009.822    22601009.709    22601014.642
        66.000          62.000
  -8902578.445 5  -6937039.184 4  23263481.839    23263481.593    23263488.154
        53.000          40.000
 01  3 31  0 52  0.0000000  0 10G22G17G15G18G 6G26G28G23G 3G21
   3432676.596 4   2674804.242 4  23484833.328    23484833.025    23484841.479
        35.000          25.000
 -24449313.237 9 -19051346.901 9  20456860.399    20456860.101    20456861.012
       234.000         301.000
 -24058120.282 9 -18746521.535 9  20101101.006    20101100.806    20101101.771
       251.000         295.000
 -21692371.288 9 -16903082.993 9  20596817.400    20596817.364    20596817.319
       239.000         264.000
  -7668149.907 4  -5975161.723 4  23373785.322    23373785.539    23373792.479
        34.000          26.000
 -11539599.649 5  -8991861.952 5  22025449.419    22025449.542    22025452.236
        80.000          69.000
  -4616014.518 4  -3596886.534 4  23463825.406    23463825.429    23463831.998
        32.000          31.000
 -20736211.403 9 -16158021.028 9  20666426.011    20666425.638    20666426.660
       247.000         244.000
 -10827533.646 5  -8437013.261 5  22585532.053    22585531.818    22585536.481
        75.000          56.000
  -8990177.053 5  -7005297.565 4  23246811.547    23246811.679    23246818.506
        54.000          42.000
 01  3 31  0 52 30.0000000  0 10G22G17G15G18G 6G26G28G23G 3G21
   3503217.384 4   2729770.911 4  23498256.845    23498256.517    23498265.195
        38.000          23.000
 -24429228.310 9 -19035696.310 9  20460682.436    20460682.125    20460683.129
       235.000         301.000
 -24073181.961 9 -18758257.869 9  20098234.734    20098234.610    20098235.583
       253.000         297.000
 -21736850.009 9 -16937741.677 9  20588353.416    20588353.374    20588353.296
       242.000         268.000
  -7561493.360 4  -5892052.992 4  23394082.393    23394082.132    23394088.898
        37.000          24.000
 -11517035.190 6  -8974279.265 5  22029742.575    22029742.943    22029746.386
        85.000          71.000
  -4620342.644 4  -3600259.045 4  23463001.842    23463001.924    23463008.397
        36.000          32.000
 -20754531.325 9 -16172296.260 9  20662939.716    20662939.421    20662940.441
       252.000         245.000
 -10908523.900 5  -8500122.376 5  22570119.211    22570119.203    22570124.159
        71.000          54.000
  -9077568.197 5  -7073394.296 4  23230181.492    23230181.569    23230188.045
        58.000          40.000
 01  3 31  0 53  0.0000000  0 10G22G17G15G18G 6G26G28G23G 3G21
   3574103.907 5   2785007.023 4  23511746.932    23511746.735    23511754.863
        45.000          23.000
 -24408785.387 9 -19019766.746 9  20464572.435    20464572.179    20464573.353
       232.000         304.000
 -24087857.836 9 -18769693.581 9  20095442.117    20095441.895    20095442.846
       250.000         294.000
 -21780852.781 9 -16972029.472 9  20579979.680    20579979.683    20579979.798
       237.000         271.000
  -7454638.889 4  -5808789.970 4  23414416.081    23414416.199    23414423.136
        34.000          24.000
 -11493825.316 6  -8956193.642 5  22034159.630    22034159.896    22034163.036
        89.000          70.000
  -4624091.902 4  -3603180.477 4  23462287.972    23462288.372    23462294.250
        35.000          29.000
 -20772406.766 9 -16186225.126 9  20659538.186    20659537.876    20659538.882
       250.000         243.000
 -10989164.556 5  -8562959.064 5  22554774.011    22554773.990    22554778.484
        72.000          55.000
  -9164750.470 5  -7141328.280 4  23213591.223    23213591.342    23213597.721
        55.000          41.000
 01  3 31  0 53 30.0000000  0 10G22G17G15G18G 6G26G28G23G 3G21
   3645332.889 5   2840510.017 4  23525301.362    23525300.946    23525309.143
        50.000          22.000
 -24387984.399 9 -19003558.149 9  20468530.398    20468530.181    20468531.570
       234.000         304.000
 -24102147.489 9 -18780828.334 9  20092722.783    20092722.600    20092723.587
       249.000         295.000
 -21824378.687 9 -17005945.679 9  20571697.015    20571697.023    20571697.066
       239.000         271.000
  -7347588.605 4  -5725374.344 4  23434786.154    23434786.616    23434794.277
        34.000          24.000
 -11469970.687 6  -8937605.577 5  22038699.170    22038699.259    22038702.733
        86.000          68.000
  -4627262.413 4  -3605650.897 4  23461685.630    23461685.364    23461691.676
        37.000          32.000
 -20789838.023 9 -16199807.858 9  20656221.189    20656220.893    20656221.773
       249.000         248.000
 -11069453.005 5  -8625521.249 5  22539495.524    22539495.512    22539500.193
        78.000          54.000
  -9251723.299 5  -7209099.028 4  23197040.406    23197040.407    23197046.998
        58.000          39.000
 01  3 31  0 54  0.0000000  0 10G22G17G15G18G 6G26G28G23G 3G21
   3716901.877 4   2896277.957 4  23538920.239    23538919.755    23538928.584
        42.000          26.000
 -24366825.297 9 -18987070.498 9  20472557.195    20472556.817    20472558.030
       228.000         302.000
 -24116050.272 9 -18791661.657 9  20090077.218    20090076.931    20090077.913
       243.000         292.000
 -21867427.476 9 -17039490.120 9  20563505.026    20563504.977    20563505.134
       234.000         282.000
  -7240344.876 4  -5641808.021 4  23455194.849    23455195.025    23455202.278
        35.000          25.000
 -11445472.542 6  -8918516.114 5  22043360.910    22043361.283    22043364.371
        86.000          71.000
  -4629854.324 4  -3607670.425 4  23461193.028    23461192.827    23461198.011
        41.000          31.000
 -20806825.473 9 -16213044.757 9  20652988.345    20652988.087    20652989.020
       247.000         247.000
 -11149386.677 6  -8687806.942 5  22524284.879    22524284.615    22524288.847
        86.000          60.000
  -9338485.616 5  -7276705.707 4  23180529.578    23180529.662    23180536.013
        54.000          34.000
 01  3 31  0 54 30.0000000  0 10G22G17G15G18G 6G26G28G23G 3G21
   3788808.379 4   2952308.913 4  23552603.497    23552603.366    23552612.232
        39.000          26.000
 -24345308.116 9 -18970303.800 9  20476651.309    20476651.156    20476652.502
       229.000         295.000
 -24129565.761 9 -18802193.193 9  20087505.045    20087504.913    20087506.058
       243.000         303.000
 -21909998.598 9 -17072662.371 9  20555403.779    20555403.808    20555404.028
       236.000         282.000
  -7132909.618 4  -5558092.416 4  23475638.532    23475638.947    23475646.534
        29.000          24.000
 -11420331.600 5  -8898925.770 5  22048145.073    22048145.194    22048148.463
        83.000          67.000
  -4631868.192 4  -3609239.509 4  23460808.202    23460808.395    23460814.478
        32.000          28.000
 -20823369.342 9 -16225935.997 9  20649840.040    20649839.743    20649840.735
       254.000         243.000
 -11228963.368 6  -8749814.447 5  22509141.407    22509141.279    22509145.451
        87.000          63.000
  -9425036.412 5  -7344147.529 4  23164059.503    23164059.447    23164065.717
        52.000          37.000
 01  3 31  0 55  0.0000000  0 10G22G17G15G18G 6G26G28G23G 3G21
   3861049.412 4   3008600.538 4  23566350.602    23566350.614    23566359.030
        40.000          24.000
 -24323432.928 9 -18953258.155 9  20480814.077    20480813.859    20480815.139
       228.000         291.000
 -24142693.796 9 -18812422.830 9  20085007.031    20085006.821    20085007.812
       247.000         299.000
 -21952091.601 9 -17105462.047 9  20547393.725    20547393.687    20547393.858
       231.000         286.000
  -7025284.877 4  -5474229.177 4  23496119.541    23496119.776    23496127.029
        35.000          21.000
 -11394548.575 5  -8878835.051 5  22053051.500    22053051.652    22053054.650
        83.000          64.000
  -4633304.479 4  -3610358.593 4  23460534.793    23460534.891    23460541.167
        36.000          29.000
 -20839470.094 9 -16238481.948 9  20646776.092    20646775.774    20646776.813
       251.000         249.000
 -11308180.804 5  -8811542.064 5  22494066.411    22494066.374    22494071.062
        84.000          68.000
  -9511374.526 5  -7411423.626 4  23147629.676    23147629.473    23147635.633
        51.000          33.000
 01  3 31  0 55 30.0000000  0 10G22G17G15G18G 6G26G28G23G 3G21
   3933621.663 4   3065150.206 4  23580161.884    23580161.219    23580169.350
        40.000          31.000
 -24301199.539 9 -18935933.367 9  20485044.909    20485044.723    20485045.891
       233.000         290.000
 -24155433.734 9 -18822349.927 9  20082582.405    20082582.330    20082583.313
       240.000         294.000
 -21993705.849 9 -17137888.643 9  20539474.914    20539474.856    20539474.872
       232.000         288.000
  -6917472.807 4  -5390219.994 4  23516635.338    23516635.784    23516642.942
        35.000          18.000
 -11368124.703 5  -8858244.994 5  22058079.886    22058080.010    22058082.738
        81.000          69.000
  -4634163.106 4  -3611027.523 4  23460371.719    23460371.681    23460377.866
        33.000          28.000
 -20855128.281 9 -16250683.046 9  20643796.267    20643795.976    20643797.004
       252.000         246.000
 -11387036.560 5  -8872987.816 5  22479060.677    22479060.574    22479064.963
        81.000          67.000
  -9597498.733 5  -7478533.050 4  23131240.733    23131240.534    23131246.667
        50.000          40.000
 01  3 31  0 56  0.0000000  0 10G22G17G15G18G 6G26G28G23G 3G21
   4006522.298 4   3121955.735 4  23594034.057    23594033.478    23594042.143
        40.000          31.000
 -24278608.302 9 -18918329.740 9  20489343.704    20489343.548    20489344.798
       230.000         287.000
 -24167785.458 9 -18831974.577 9  20080232.117    20080231.880    20080232.775
       241.000         299.000
 -22034840.720 9 -17169941.707 9  20531647.372    20531647.288    20531647.118
       223.000         292.000
  -6809475.445 4  -5306066.421 4  23537187.531    23537187.690    23537194.424
        36.000          21.000
 -11341060.898 6  -8837156.333 5  22063229.653    22063230.052    22063232.873
        88.000          67.000
  -4634444.401 4  -3611246.610 4  23460317.236    23460317.528    23460323.764
        34.000          25.000
 -20870344.201 9 -16262539.531 9  20640900.952    20640900.625    20640901.472
       249.000         249.000
 -11465528.027 5  -8934149.729 5  22464123.962    22464123.871    22464127.935
        82.000          67.000
  -9683408.221 5  -7545475.160 4  23114891.571    23114891.547    23114898.350
        52.000          40.000
 01  3 31  0 56 30.0000000  0 10G22G17G15G18G 6G26G28G23G 3G21
   4079748.853 4   3179015.253 4  23607968.064    23607967.754    23607977.112
        41.000          33.000
 -24255659.214 9 -18900447.303 9  20493710.794    20493710.675    20493711.826
       237.000         286.000
 -24179748.617 9 -18841296.511 9  20077955.836    20077955.603    20077956.371
       238.000         297.000
 -22075495.877 9 -17201620.962 9  20523910.529    20523910.565    20523910.580
       230.000         290.000
  -6701294.895 4  -5221770.117 4  23557772.258    23557773.324    23557780.993
        34.000          20.000
 -11313357.949 6  -8815569.594 5  22068501.316    22068501.576    22068504.671
        86.000          65.000
  -4634148.809 4  -3611016.195 4  23460374.607    23460374.617    23460380.297
        35.000          28.000
 -20885118.184 9 -16274051.660 9  20638089.661    20638089.334    20638090.153
       246.000         251.000
 -11543653.254 5  -8995026.303 5  22449257.179    22449256.922    22449260.781
        80.000          62.000
  -9769102.075 5  -7612249.217 5  23098584.798    23098584.538    23098590.810
        56.000          43.000
 01  3 31  0 57  0.0000000  0 10G22G17G15G18G 6G26G28G23G 3G21
   4153298.659 4   3236326.629 4  23621963.556    23621963.703    23621973.324
        40.000          33.000
 -24232352.298 9 -18882286.049 9  20498146.433    20498146.081    20498146.973
       229.000         286.000
 -24191322.439 9 -18850315.012 9  20075753.269    20075753.106    20075753.915
       243.000         305.000
 -22115671.037 9 -17232926.165 9  20516265.427    20516265.389    20516265.380
       218.000         289.000
  -6592933.201 4  -5137332.644 4  23578393.224    23578393.961    23578401.797
        31.000          25.000
 -11285017.037 6  -8793485.729 5  22073894.741    22073895.097    22073897.666
        86.000          64.000
  -4633276.882 4  -3610336.727 4  23460540.960    23460540.879    23460546.234
        33.000          30.000
 -20899450.850 9 -16285219.894 9  20635362.160    20635361.846    20635362.658
       248.000         245.000
 -11621409.673 6  -9055615.504 5  22434459.811    22434460.049    22434464.335
        87.000          65.000
  -9854579.425 5  -7678854.605 5  23082318.582    23082318.624    23082324.860
        55.000          46.000
 01  3 31  0 57 30.0000000  0 10G22G17G15G18G 6G26G28G23G 3G21
   4227168.485 4   3293887.370 4  23636021.305    23636021.022    23636030.505
        36.000          33.000
 -24208687.551 9 -18863845.946 9  20502649.499    20502649.217    20502650.115
       230.000         278.000
 -24202506.681 9 -18859029.960 9  20073625.001    20073624.751    20073625.666
       246.000         302.000
 -22155365.682 9 -17263856.959 9  20508711.689    20508711.674    20508711.563
       217.000         295.000
  -6484392.408 4  -5052755.623 4  23599049.831    23599049.567    23599056.629
        31.000          21.000
 -11256039.236 5  -8770905.619 5  22079408.905    22079409.259    22079411.758
        82.000          63.000
  -4631828.795 4  -3609208.291 4  23460815.960    23460815.876    23460821.383
        37.000          29.000
 -20913342.382 9 -16296044.392 9  20632718.478    20632718.218    20632719.040
       254.000         246.000
 -11698794.789 6  -9115915.383 5  22419734.420    22419734.347    22419738.193
        91.000          63.000
  -9939839.177 5  -7745290.442 5  23066093.446    23066093.436    23066100.108
        56.000          48.000
 01  3 31  0 58  0.0000000  0 10G22G17G15G18G 6G26G28G23G 3G21
   4301355.204 4   3351695.017 4  23650138.861    23650138.393    23650147.825
        30.000          28.000
 -24184665.094 9 -18845127.130 9  20507220.920    20507220.575    20507221.467
       234.000         282.000
 -24213300.954 9 -18867441.027 9  20071570.684    20071570.505    20071571.522
       247.000         304.000
 -22194579.270 9 -17294412.875 9  20501249.270    20501249.348    20501249.390
       213.000         291.000
  -6375674.570 4  -4968040.642 4  23619738.068    23619738.031    23619745.395
        29.000          23.000
 -11226425.577 5  -8747830.024 5  22085043.997    22085044.379    22085047.399
        82.000          66.000
  -4629804.952 4  -3607631.265 4  23461199.919    23461200.120    23461206.644
        37.000          28.000
 -20926793.345 9 -16306525.594 9  20630158.715    20630158.502    20630159.302
       253.000         246.000
 -11775806.326 6  -9175924.157 5  22405079.175    22405079.100    22405083.598
        89.000          70.000
 -10024879.999 5  -7811555.688 5  23049910.957    23049910.886    23049917.154
        59.000          44.000
 01  3 31  0 58 30.0000000  0 10G22G17G15G18G 6G26G28G23G 3G21
   4375856.138 4   3409747.495 4  23664315.160    23664314.824    23664324.958
        30.000          28.000
 -24160284.917 9 -18826129.579 9  20511859.962    20511859.804    20511860.911
       232.000         281.000
 -24223705.143 9 -18875548.147 9  20069590.871    20069590.652    20069591.590
       241.000         299.000
 -22233311.514 9 -17324593.734 9  20493878.708    20493878.736    20493878.843
       216.000         303.000
  -6266781.955 4  -4883189.462 4  23640458.827    23640459.199    23640467.135
        29.000          25.000
 -11196177.182 5  -8724259.845 5  22090799.960    22090800.305    22090803.601
        83.000          68.000
  -4627206.093 4  -3605606.150 4  23461696.428    23461696.028    23461701.302
        40.000          29.000
 -20939804.299 9 -16316663.934 9  20627682.794    20627682.529    20627683.326
       253.000         242.000
 -11852442.056 6  -9235640.127 5  22390495.550    22390495.657    22390500.096
        96.000          69.000
 -10109701.143 5  -7877649.759 5  23033770.165    23033770.159    23033775.608
        62.000          44.000
 01  3 31  0 59  0.0000000  0 10G22G17G15G18G 6G26G28G23G 3G21
   4450668.745 4   3468042.835 4  23678552.666    23678552.067    23678561.077
        35.000          25.000
 -24135546.858 9 -18806853.163 9  20516567.675    20516567.371    20516568.377
       231.000         280.000
 -24233718.696 9 -18883350.833 9  20067685.103    20067684.996    20067686.002
       235.000         303.000
 -22271562.041 8 -17354399.244 9  20486599.850    20486599.890    20486599.764
       208.000         301.000
  -6157716.673 4  -4798203.753 4  23661213.331    23661213.410    23661221.468
        27.000          21.000
 -11165295.158 5  -8700195.956 5  22096677.028    22096677.239    22096680.109
        84.000          63.000
  -4624032.403 4  -3603133.125 4  23462299.819    23462299.526    23462305.291
        38.000          27.000
 -20952375.721 9 -16326459.792 9  20625290.741    20625290.394    20625291.036
       246.000         247.000
 -11928699.245 6  -9295061.135 5  22375984.233    22375984.216    22375988.505
        90.000          69.000
 -10194301.088 5  -7943571.474 5  23017670.205    23017670.320    23017676.424
        61.000          46.000
 01  3 31  0 59 30.0000000  0 10G22G17G15G18G 6G26G28G23G 3G21
   4525790.132 4   3526578.796 4  23692847.403    23692847.230    23692856.349
        36.000          24.000
 -24110451.133 9 -18787298.042 9  20521343.126    20521342.869    20521343.902
       235.000         277.000
 -24243341.338 9 -18890849.015 9  20065853.968    20065853.817    20065854.801
       253.000         307.000
 -22309330.542 8 -17383829.170 9  20479412.794    20479412.725    20479412.662
       206.000         305.000
  -6048480.901 4  -4713085.203 4  23682001.190    23682001.222    23682008.855
        32.000          20.000
 -11133780.623 5  -8675639.220 5  22102674.111    22102674.393    22102677.089
        75.000          62.000
  -4620284.417 4  -3600212.585 4  23463012.255    23463012.539    23463018.229
        41.000          23.000
 -20964507.982 9 -16335913.453 9  20622982.046    20622981.675    20622982.343
       247.000         247.000
 -12004575.587 6  -9354185.366 5  22361545.609    22361545.651    22361549.180
        92.000          70.000
 -10278679.508 5  -8009320.555 5  23001613.906    23001613.850    23001619.726
        66.000          47.000
                            4 16
RINEX FILE SPLICE                                           COMMENT
teqc  2000Jul20     WCDA Data collecting20010331 02:12:10UTCCOMMENT
STATION INFORMATION EFFECTIVE FROM: 2000/03/15 18:18:00     COMMENT
                                TO: CURRENT DATE (above)    COMMENT
BIT 2 OF LLI FLAGS (+4) DATA COLLECTED UNDER 'AS' CONDITION COMMENT
L1 PHASE CENTRE 0.110m ABOVE ARP                            COMMENT
L2 PHASE CENTRE 0.128m ABOVE ARP                            COMMENT
where ARP is the Antenna Reference Point for HI measurement COMMENT
CONTACT gpsop@pgc.nrcan.gc.ca FOR ADDITIONAL INFORMATION    COMMENT
    P1 =    P1  TurboRogue; =    Y1  Benchmark              COMMENT
    L1 = L1(CA)                                             COMMENT
    P2 =    P2  TurboRogue; =    Y2  Benchmark              COMMENT
    L2 = L2(P2) TurboRogue; = L2(Y2) Benchmark              COMMENT
 SNR is mapped to RINEX snr flag value [1,4-9]              COMMENT
    SNR:   >316  >100  >31.6  >10  >3.2    >0 bad=0         COMMENT
L1 & L2:      9     8     7     6     5     4     1         COMMENT
 01  3 31  1  0  0.0000000  0 10G22G17G15G18G 6G26G28G23G 3G21
   4601217.109 4   3585352.887 4  23707201.245    23707200.896    23707210.119
        39.000          20.000
 -24084997.790 9 -18767464.269 9  20526186.978    20526186.682    20526187.428
       230.000         275.000
 -24252572.566 9 -18898042.140 9  20064097.480    20064097.318    20064098.193
       241.000         307.000
 -22346616.707 8 -17412883.256 9  20472317.258    20472317.225    20472317.341
       208.000         315.000
  -5939076.735 4  -4627835.422 4  23702820.212    23702820.388    23702827.613
        31.000          21.000
 -11101634.781 5  -8650590.543 5  22108791.143    22108791.295    22108794.199
        80.000          63.000
  -4615962.610 4  -3596844.961 4  23463834.434    23463834.756    23463840.262
        33.000          25.000
 -20976201.408 9 -16345025.154 9  20620756.735    20620756.356    20620757.061
       251.000         251.000
 -12080068.651 6  -9413010.984 5  22347179.301    22347179.491    22347183.046
       101.000          65.000
 -10362834.890 5  -8074895.874 5  22985599.675    22985599.583    22985605.231
        69.000          48.000
 01  3 31  1  0 30.0000000  0 10G22G17G15G18G 6G26G28G23G 3G21
   4676946.371 4   3644362.523 4  23721612.256    23721612.171    23721620.709
        42.000          18.000
 -24059186.933 9 -18747351.915 9  20531098.365    20531098.132    20531099.095
       233.000         273.000
 -24261411.974 9 -18904929.949 9  20062415.354    20062415.211    20062416.078
       246.000         309.000
 -22383419.950 8 -17441561.056 9  20465313.679    20465313.813    20465313.894
       206.000         316.000
  -5829506.340 4  -4542456.116 4  23723670.460    23723670.792    23723678.301
        27.000          17.000
 -11068858.948 5  -8625050.973 5  22115028.294    22115028.481    22115031.053
        81.000          57.000
  -4611067.662 4  -3593030.734 4  23464765.993    23464766.151    23464772.222
        34.000          29.000
 -20987456.620 9 -16353795.385 9  20618614.520    20618614.317    20618615.183
       249.000         247.000
 -12155176.096 6  -9471536.097 5  22332886.604    22332886.531    22332890.697
        95.000          71.000
 -10446766.591 5  -8140296.910 5  22969627.773    22969627.509    22969633.278
        63.000          51.000
 01  3 31  1  1  0.0000000  0 10G22G17G15G18G 6G26G28G23G 3G21
   4752975.461 5   3703605.773 4  23736080.325    23736080.041    23736088.790
        48.000          20.000
 -24033018.593 9 -18726960.988 9  20536078.227    20536077.990    20536078.844
       233.000         272.000
 -24269858.931 9 -18911511.947 9  20060808.066    20060807.833    20060808.630
       239.000         307.000
 -22419740.047 8 -17469862.358 9  20458402.389    20458402.362    20458402.358
       209.000         321.000
  -5719771.676 4  -4456948.812 4  23744551.941    23744552.438    23744560.100
        27.000          17.000
 -11035454.195 5  -8599021.325 5  22121385.221    22121385.384    22121387.913
        78.000          61.000
  -4605599.968 4  -3588770.206 4  23465806.941    23465806.905    23465813.010
        35.000          34.000
 -20998274.086 9 -16362224.520 9  20616556.359    20616555.978    20616556.636
       247.000         246.000
 -12229895.618 6  -9529758.925 5  22318667.991    22318668.121    22318671.957
        98.000          72.000
 -10530473.703 5  -8205522.943 5  22953698.208    22953698.143    22953703.769
        61.000          48.000
 01  3 31  1  1 30.0000000  0 10G22G17G15G18G 6G26G28G23G 3G21
   4829301.799 5   3763080.646 4  23750605.534    23750604.966    23750613.257
        45.000          17.000
 -24006492.760 9 -18706291.491 9  20541125.764    20541125.530    20541126.541
       230.000         272.000
 -24277913.451 9 -18917788.151 9  20059274.986    20059274.871    20059275.810
       237.000         306.000
 -22455576.643 8 -17497786.909 9  20451582.928    20451582.979    20451582.733
       211.000         319.000
  -5609874.993 4  -4371315.326 4  23765465.459    23765465.507    23765473.131
        29.000          16.000
 -11001421.874 5  -8572502.665 5  22127861.271    22127861.217    22127864.305
        82.000          65.000
  -4599560.309 4  -3584063.997 4  23466956.212    23466956.227    23466962.030
        37.000          28.000
 -21008654.681 9 -16370313.255 9  20614580.980    20614580.655    20614581.209
       241.000         241.000
 -12304224.951 6  -9587677.759 5  22304523.961    22304523.845    22304527.518
       101.000          73.000
 -10613955.488 5  -8270573.399 5  22937812.350    22937812.041    22937817.594
        68.000          51.000
 01  3 31  1  2  0.0000000  0 10G22G17G15G18G 6G26G28G23G 3G21
   4905922.274 4   3822784.688 4  23765185.422    23765184.891    23765193.995
        39.000          24.000
 -23979609.686 9 -18685343.670 9  20546241.564    20546241.369    20546242.289
       234.000         272.000
 -24285575.114 9 -18923758.240 9  20057817.297    20057817.012    20057817.806
       235.000         307.000
 -22490929.347 8 -17525334.418 9  20444855.495    20444855.543    20444855.243
       204.000         327.000
  -5499818.285 4  -4285557.103 4  23786409.077    23786409.136    23786416.618
        29.000          16.000
 -10966763.183 5  -8545495.945 5  22134456.554    22134456.684    22134459.728
        81.000          61.000
  -4592949.039 4  -3578912.412 4  23468214.740    23468214.738    23468220.243
        40.000          32.000
 -21018598.974 9 -16378062.021 9  20612688.493    20612688.210    20612688.868
       243.000         246.000
 -12378161.602 6  -9645290.613 5  22290453.667    22290453.704    22290457.600
       103.000          71.000
 -10697210.940 5  -8335447.516 5  22921969.011    22921968.963    22921974.306
        64.000          49.000
 01  3 31  1  2 30.0000000  0 10G22G17G15G18G 6G26G28G23G 3G21
   4982833.527 4   3882715.319 4  23779821.649    23779821.368    23779830.150
        36.000          23.000
 -23952369.336 9 -18664117.446 9  20551425.244    20551424.980    20551425.894
       235.000         269.000
 -24292843.591 9 -18929421.973 9  20056434.035    20056433.896    20056434.648
       238.000         309.000
 -22525798.129 8 -17552504.843 9  20438220.017    20438220.077    20438219.925
       202.000         322.000
  -5389603.767 4  -4199675.974 4  23807381.810    23807382.013    23807390.409
        29.000          21.000
 -10931479.418 5  -8518002.106 5  22141170.810    22141171.092    22141173.923
        79.000          62.000
  -4585766.986 4  -3573316.002 4  23469581.310    23469581.226    23469586.967
        35.000          29.000
 -21028107.187 9 -16385470.988 9  20610879.338    20610878.936    20610879.549
       240.000         249.000
 -12451703.215 6  -9702595.634 5  22276459.349    22276459.204    22276462.932
       100.000          73.000
 -10780238.845 5  -8400144.355 5  22906168.887    22906169.094    22906174.348
        70.000          47.000
 01  3 31  1  3  0.0000000  0 10G22G17G15G18G 6G26G28G23G 3G21
   5060032.627 4   3942870.216 4  23794511.069    23794511.067    23794521.207
        31.000          23.000
 -23924771.764 9 -18642612.866 9  20556676.886    20556676.636    20556677.565
       240.000         266.000
 -24299718.415 9 -18934778.976 9  20055125.636    20055125.505    20055126.450
       238.000         312.000
 -22560182.519 8 -17579297.826 9  20431676.750    20431676.915    20431676.705
       207.000         323.000
  -5279233.452 4  -4113673.405 4  23828384.836    23828384.780    23828393.234
        25.000          17.000
 -10895571.808 5  -8490022.093 5  22148003.694    22148003.909    22148006.816
        83.000          63.000
  -4578014.764 4  -3567275.348 4  23471056.085    23471056.060    23471062.560
        34.000          37.000
 -21037179.972 9 -16392540.669 9  20609152.509    20609152.222    20609153.070
       243.000         251.000
 -12524847.603 6  -9759591.126 5  22262540.364    22262540.323    22262543.551
        98.000          63.000
 -10863038.464 5  -8464663.305 5  22890413.153    22890412.969    22890417.659
        67.000          49.000
 01  3 31  1  3 30.0000000  0 10G22G17G15G18G 6G26G28G23G 3G21
   5137517.186 4   4003247.527 4  23809256.620    23809256.467    23809266.163
        33.000          24.000
 -23896817.100 9 -18620830.050 9  20561996.434    20561996.286    20561997.197
       245.000         267.000
 -24306199.547 9 -18939829.196 9  20053892.242    20053892.198    20053893.199
       243.000         308.000
 -22594082.358 8 -17605713.229 9  20425225.912    20425226.001    20425225.661
       205.000         326.000
  -5168709.573 4  -4027551.193 4  23849416.785    23849417.268    23849426.032
        24.000          20.000
 -10859041.932 5  -8461557.273 5  22154955.013    22154955.143    22154958.373
        77.000          66.000
  -4569693.096 4  -3560790.976 4  23472639.513    23472639.610    23472645.843
        32.000          34.000
 -21045817.938 9 -16399271.518 9  20607508.856    20607508.574    20607509.185
       240.000         248.000
 -12597592.423 6  -9816275.285 5  22248697.159    22248697.169    22248700.868
        98.000          78.000
 -10945608.649 5  -8529003.502 5  22874699.785    22874699.785    22874704.789
        72.000          47.000
 01  3 31  1  4  0.0000000  0 10G22G17G15G18G 6G26G28G23G 3G21
   5215284.375 4   4063845.065 4  23824055.609    23824055.152    23824064.286
        26.000          20.000
 -23868505.349 9 -18598768.967 9  20567384.021    20567383.783    20567384.770
       243.000         268.000
 -24312286.366 9 -18944572.166 9  20052734.198    20052734.047    20052734.876
       233.000         310.000
 -22627497.404 8 -17631750.877 9  20418867.316    20418867.353    20418866.975
       207.000         330.000
  -5058034.291 4  -3941311.039 4  23870477.683    23870478.025    23870487.276
        27.000          19.000
 -10821891.013 5  -8432608.504 5  22162024.676    22162024.830    22162027.689
        80.000          59.000
  -4560802.647 4  -3553863.380 4  23474331.690    23474331.782    23474337.748
        34.000          32.000
 -21054021.562 9 -16405663.926 9  20605947.682    20605947.349    20605947.996
       238.000         250.000
 -12669935.168 6  -9872646.140 5  22234930.802    22234930.815    22234934.287
       107.000          76.000
 -11027948.464 5  -8593164.162 5  22859030.815    22859030.669    22859036.138
        69.000          50.000
 01  3 31  1  4 30.0000000  0 10G22G17G15G18G 6G26G28G23G 3G21
   5293330.901 4   4124660.304 4  23838907.618    23838907.182    23838916.614
        30.000          17.000
 -23839836.714 9 -18576429.793 9  20572839.340    20572839.226    20572840.247
       241.000         262.000
 -24317978.761 9 -18949007.801 9  20051651.057    20051650.822    20051651.669
       237.000         313.000
 -22660427.427 8 -17657410.581 9  20412600.894    20412600.935    20412600.635
       209.000         336.000
  -4947209.666 4  -3854954.487 4  23891568.733    23891568.214    23891576.229
        29.000          21.000
 -10784120.630 5  -8403177.060 5  22169211.692    22169212.097    22169215.038
        75.000          54.000
  -4551344.230 4  -3546493.220 4  23476131.797    23476131.739    23476137.544
        41.000          32.000
 -21061791.382 9 -16411718.314 9  20604469.174    20604468.905    20604469.472
       240.000         247.000
 -12741873.797 6  -9928702.097 5  22221241.133    22221241.169    22221244.828
       114.000          84.000
 -11110056.417 5  -8657144.160 5  22843406.220    22843405.993    22843411.311
        68.000          51.000
 01  3 31  1  5  0.0000000  0 10G22G17G15G18G 6G26G28G23G 3G21
   5371653.454 4   4185690.649 4  23853811.967    23853811.789    23853821.523
        32.000          20.000
 -23810811.271 9 -18553812.576 9  20578362.860    20578362.638    20578363.540
       238.000         259.000
 -24323276.252 9 -18953135.712 9  20050642.776    20050642.619    20050643.536
       237.000         310.000
 -22692872.142 8 -17682692.131 9  20406426.939    20406426.926    20406426.598
       207.000         340.000
  -4836237.883 4  -3768483.291 4  23912686.438    23912685.973    23912693.879
        27.000          18.000
 -10745732.061 5  -8373263.879 5  22176517.476    22176517.676    22176520.082
        83.000          59.000
  -4541318.555 4  -3538681.020 4  23478040.098    23478039.958    23478045.200
        37.000          30.000
 -21069128.042 9 -16417435.168 9  20603073.282    20603072.893    20603073.345
       236.000         244.000
 -12813405.546 6  -9984441.014 5  22207628.926    22207629.083    22207632.745
       103.000          79.000
 -11191932.097 5  -8720943.186 5  22827825.625    22827825.503    22827830.522
        68.000          50.000
 01  3 31  1  5 30.0000000  0 10G22G17G15G18G 6G26G28G23G 3G21
   5450249.508 4   4246934.066 4  23868768.368    23868767.734    23868777.854
        30.000          21.000
 -23781428.938 9 -18530917.275 9  20583954.424    20583954.072    20583954.839
       232.000         258.000
 -24328178.544 9 -18956955.660 9  20049710.175    20049709.885    20049710.621
       238.000         314.000
 -22724831.489 8 -17707595.478 9  20400345.058    20400345.098    20400344.876
       204.000         336.000
  -4725120.992 4  -3681898.990 4  23933830.485    23933830.734    23933838.282
        24.000          13.000
 -10706726.942 5  -8342870.341 5  22183940.033    22183940.100    22183942.627
        77.000          61.000
  -4530726.528 4  -3530427.518 4  23480054.834    23480054.871    23480060.379
        34.000          26.000
 -21076032.103 9 -16422814.932 9  20601758.875    20601758.653    20601759.455
       232.000         244.000
 -12884528.437 6 -10039861.366 5  22194095.203    22194095.176    22194098.300
       112.000          81.000
 -11273574.730 5  -8784560.622 5  22812289.316    22812289.342    22812294.434
        73.000          53.000
 01  3 31  1  6  0.0000000  0 10G22G17G15G18G 6G26G28G23G 3G21
   5529116.271 4   4308388.452 4  23883776.800    23883776.597    23883785.885
        39.000          19.000
 -23751689.915 9 -18507744.077 9  20589613.312    20589613.076    20589614.052
       233.000         258.000
 -24332685.201 9 -18960467.301 9  20048852.535    20048852.324    20048852.966
       240.000         312.000
 -22756305.116 8 -17732120.334 9  20394355.840    20394355.824    20394355.537
       201.000         340.000
  -4613861.175 4  -3595203.293 4  23955003.416    23955003.156    23955010.694
        28.000          15.000
 -10667106.670 5  -8311997.464 5  22191479.205    22191479.484    22191482.295
        78.000          61.000
  -4519568.924 4  -3521733.323 4  23482178.217    23482178.262    23482184.473
        30.000          36.000
 -21082504.407 9 -16427858.263 9  20600527.344    20600527.015    20600527.786
       235.000         245.000
 -12955239.961 6 -10094961.145 5  22180638.734    22180638.643    22180642.375
       111.000          84.000
 -11354983.021 5  -8847995.446 5  22796797.444    22796797.457    22796803.042
        72.000          58.000
 01  3 31  1  6 30.0000000  0 10G22G17G15G18G 6G26G28G23G 3G21
   5608250.856 4   4370051.519 4  23898835.311    23898835.052    23898845.357
        38.000          23.000
 -23721594.144 9 -18484292.853 9  20595340.606    20595340.301    20595341.219
       237.000         261.000
 -24336795.894 9 -18963670.402 9  20048070.267    20048070.014    20048070.720
       238.000         307.000
 -22787292.932 8 -17756266.626 9  20388458.989    20388459.026    20388458.674
       200.000         339.000
  -4502460.635 4  -3508397.965 4  23976201.262    23976202.139    23976209.843
        19.000          17.000
 -10626872.792 5  -8280646.476 5  22199135.620    22199135.872    22199138.744
        75.000          61.000
  -4507846.393 4  -3512598.940 4  23484409.043    23484409.027    23484415.005
        32.000          35.000
 -21088545.321 9 -16432565.439 9  20599378.143    20599377.766    20599378.225
       233.000         241.000
 -13025537.756 6 -10149738.534 5  22167261.179    22167261.114    22167264.859
       107.000          80.000
 -11436155.936 5  -8911246.837 5  22781350.716    22781350.792    22781355.840
        76.000          55.000
 01  3 31  1  7  0.0000000  0 10G22G17G15G18G 6G26G28G23G 3G21
   5687649.783 5   4431920.587 4  23913945.440    23913945.144    23913954.436
        44.000          20.000
 -23691141.782 9 -18460563.762 9  20601135.645    20601135.386    20601136.183
       236.000         260.000
 -24340510.431 9 -18966564.816 9  20047363.220    20047363.061    20047363.827
       244.000         310.000
 -22817794.714 8 -17780034.193 9  20382654.592    20382654.680    20382654.246
       199.000         337.000
  -4390921.537 4  -3421484.691 4  23997426.439    23997426.908    23997435.180
        22.000          13.000
 -10586026.624 5  -8248818.351 5  22206908.781    22206908.925    22206911.489
        76.000          61.000
  -4495559.666 4  -3503024.931 4  23486747.152    23486747.335    23486753.548
        33.000          34.000
 -21094155.449 9 -16436936.930 9  20598310.618    20598310.197    20598310.675
       229.000         243.000
 -13095419.644 6 -10204191.836 5  22153963.142    22153963.155    22153966.658
       117.000          80.000
 -11517093.104 5  -8974314.530 5  22765949.009    22765948.891    22765953.633
        76.000          54.000
 01  3 31  1  7 30.0000000  0 10G22G17G15G18G 6G26G28G23G 3G21
   5767310.094 4   4493993.348 4  23929104.560    23929104.239    23929114.126
        39.000          21.000
 -23660333.010 9 -18436556.955 9  20606998.066    20606997.867    20606998.908
       237.000         256.000
 -24343828.419 9 -18969150.216 9  20046731.774    20046731.600    20046732.360
       237.000         307.000
 -22847810.318 8 -17803422.910 9  20376942.890    20376942.907    20376942.422
       200.000         343.000
  -4279245.857 4  -3334464.996 4  24018678.222    24018678.202    24018687.402
        22.000          14.000
 -10544569.867 5  -8216514.496 5  22214797.847    22214797.990    22214800.613
        78.000          61.000
  -4482709.812 4  -3493012.097 4  23489192.485    23489192.620    23489198.255
        36.000          28.000
 -21099335.669 9 -16440973.413 9  20597324.726    20597324.407    20597324.918
       226.000         245.000
 -13164883.501 6 -10258319.420 5  22140744.370    22140744.562    22140748.295
       115.000          83.000
 -11597793.736 5  -9037197.899 5  22750592.470    22750592.269    22750596.734
        81.000          55.000
 01  3 31  1  8  0.0000000  0 10G22G17G15G18G 6G26G28G23G 3G21
   5847229.364 4   4556267.900 4  23944311.967    23944311.724    23944321.761
        27.000          20.000
 -23629167.928 9 -18412272.511 9  20612928.659    20612928.407    20612929.526
       239.000         262.000
 -24346749.654 9 -18971426.486 9  20046175.941    20046175.764    20046176.398
       243.000         310.000
 -22877339.718 8 -17826432.760 9  20371323.536    20371323.508    20371323.123
       192.000         342.000
  -4167436.052 4  -3247340.740 4  24039953.812    24039954.963    24039963.758
        28.000          13.000
 -10502504.008 5  -8183735.969 5  22222802.522    22222802.773    22222805.578
        76.000          62.000
  -4469298.014 4  -3482561.361 4  23491745.094    23491745.123    23491750.191
        38.000          26.000
 -21104086.712 9 -16444675.489 9  20596420.532    20596420.181    20596420.770
       229.000         242.000
 -13233926.923 6 -10312119.402 5  22127605.975    22127605.985    22127609.630
       111.000          79.000
 -11678256.888 5  -9099896.223 5  22735279.749    22735279.947    22735284.962
        78.000          58.000
 01  3 31  1  8 30.0000000  0 10G22G17G15G18G 6G26G28G23G 3G21
   5927404.687 4   4618741.934 4  23959569.438    23959569.066    23959578.723
        36.000          22.000
 -23597646.691 9 -18387710.532 9  20618927.096    20618926.765    20618927.768
       234.000         258.000
 -24349273.519 9 -18973393.107 9  20045695.540    20045695.340    20045696.127
       245.000         310.000
 -22906382.658 8 -17849063.553 9  20365796.615    20365796.664    20365796.328
       192.000         341.000
  -4055494.133 4  -3160113.536 4  24061257.475    24061257.672    24061266.489
        24.000          14.000
 -10459830.682 5  -8150484.087 5  22230922.109    22230922.598    22230926.168
        73.000          62.000
  -4455324.804 4  -3471673.206 4  23494403.858    23494403.828    23494409.992
        34.000          30.000
 -21108409.146 9 -16448043.575 9  20595597.624    20595597.452    20595598.107
       227.000         244.000
 -13302547.500 6 -10365589.878 5  22114548.232    22114548.071    22114551.221
       122.000          80.000
 -11758481.279 5  -9162408.517 5  22720013.415    22720013.543    22720018.122
        79.000          56.000
 01  3 31  1  9  0.0000000  0 10G22G17G15G18G 6G26G28G23G 3G21
   6007832.870 4   4681413.079 4  23974873.644    23974873.275    23974884.395
        26.000          21.000
 -23565769.339 9 -18362871.037 9  20624992.908    20624992.727    20624993.808
       230.000         253.000
 -24351399.995 9 -18975050.064 9  20045291.008    20045290.797    20045291.453
       233.000         303.000
 -22934939.211 8 -17871315.341 9  20360362.573    20360362.555    20360362.037
       189.000         336.000
  -3943422.056 4  -3072784.930 4  24082583.741    24082584.355    24082593.312
        20.000          15.000
 -10416551.409 5  -8116759.999 5  22239159.280    22239159.305    22239161.801
        78.000          57.000
  -4440791.364 4  -3460348.499 4  23497169.587    23497169.535    23497175.673
        36.000          33.000
 -21112303.635 9 -16451078.200 9  20594856.570    20594856.277    20594856.967
       225.000         242.000
 -13370743.036 6 -10418729.147 5  22101570.717    22101570.485    22101573.840
       115.000          78.000
 -11838466.179 6  -9224734.200 5  22704793.435    22704793.207    22704797.252
        86.000          50.000
 01  3 31  1  9 30.0000000  0 10G22G17G15G18G 6G26G28G23G 3G21
   6088510.432 4   4744278.488 4  23990226.143    23990226.043    23990236.525
        29.000          20.000
 -23533536.020 9 -18337754.132 9  20631126.929    20631126.614    20631127.570
       232.000         254.000
 -24353128.668 9 -18976397.029 9  20044961.947    20044961.744    20044962.487
       242.000         307.000
 -22963009.120 8 -17893187.920 9  20355020.655    20355020.762    20355020.469
       184.000         345.000
  -3831222.106 4  -2985356.673 4  24103936.141    24103935.899    24103944.581
        27.000          16.000
 -10372667.863 5  -8082565.049 5  22247510.201    22247510.212    22247512.811
        81.000          60.000
  -4425698.550 4  -3448587.939 4  23500041.349    23500041.313    23500047.996
        30.000          37.000
 -21115770.954 9 -16453779.957 9  20594197.006    20594196.613    20594197.146
       230.000         241.000
 -13438511.425 6 -10471535.579 6  22088674.550    22088674.407    22088677.946
       113.000          85.000
 -11918210.854 5  -9286872.693 5  22689618.320    22689618.084    22689622.236
        84.000          54.000
 01  3 31  1 10  0.0000000  0 10G22G17G15G18G 6G26G28G23G 3G21
   6169434.710 4   4807336.177 4  24005625.776    24005625.642    24005636.496
        29.000          18.000
 -23500946.914 9 -18312360.004 9  20637328.212    20637327.994    20637329.116
       234.000         252.000
 -24354459.421 9 -18977433.950 9  20044708.656    20044708.461    20044709.196
       240.000         305.000
 -22990592.358 8 -17914681.281 9  20349771.831    20349771.817    20349771.572
       183.000         345.000
  -3718896.298 4  -2897830.346 4  24125310.763    24125310.944    24125319.374
        19.000          16.000
 -10328181.854 5  -8047900.665 5  22255974.754    22255974.959    22255978.385
        74.000          64.000
  -4410047.449 4  -3436392.368 4  23503019.912    23503019.644    23503026.522
        35.000          34.000
 -21118811.805 9 -16456149.404 9  20593618.156    20593617.940    20593618.439
       227.000         241.000
 -13505850.433 6 -10524007.389 6  22075860.358    22075860.335    22075863.753
       121.000          88.000
 -11997713.989 5  -9348822.969 5  22674488.880    22674488.825    22674493.121
        81.000          58.000
 01  3 31  1 10 30.0000000  0 10G22G17G15G18G 6G26G28G23G 3G21
   6250603.092 4   4870584.080 4  24021071.527    24021071.432    24021082.211
        24.000          15.000
 -23468002.000 9 -18286688.628 9  20643597.342    20643597.151    20643598.191
       224.000         248.000
 -24355391.735 9 -18978160.406 9  20044531.265    20044531.034    20044531.745
       245.000         308.000
 -23017689.041 8 -17935795.517 9  20344615.767    20344615.649    20344615.194
       181.000         349.000
  -3606446.885 4  -2810207.684 4  24146708.565    24146709.077    24146718.114
        21.000          13.000
 -10283095.015 5  -8012768.090 5  22264554.675    22264554.774    22264558.276
        65.000          62.000
  -4393839.023 4  -3423762.461 4  23506104.790    23506104.698    23506110.290
        36.000          32.000
 -21121426.944 9 -16458187.127 9  20593120.811    20593120.342    20593120.729
       221.000         237.000
 -13572757.448 7 -10576142.595 6  22063128.709    22063128.607    22063131.592
       134.000          88.000
 -12076975.328 6  -9410584.848 5  22659406.159    22659405.903    22659410.061
        87.000          60.000
 01  3 31  1 11  0.0000000  0 10G22G17G15G18G 6G26G28G23G 3G21
   6332012.699 4   4934019.963 4  24036563.747    24036563.439    24036573.491
        24.000          16.000
 -23434701.536 9 -18260740.228 9  20649934.279    20649934.104    20649935.144
       226.000         250.000
 -24355925.548 9 -18978576.365 9  20044429.970    20044429.708    20044430.238
       232.000         309.000
 -23044298.974 8 -17956530.463 9  20339551.813    20339551.846    20339551.505
       177.000         349.000
  -3493876.114 4  -2722490.472 4  24168129.577    24168129.734    24168139.903
        18.000          18.000
 -10237408.992 5  -7977168.647 5  22273248.624    22273248.813    22273251.968
        72.000          60.000
  -4377074.362 4  -3410699.134 4  23509294.649    23509294.578    23509300.533
        32.000          28.000
 -21123616.952 9 -16459893.576 9  20592703.792    20592703.482    20592703.967
       221.000         240.000
 -13639230.390 6 -10627939.558 6  22050478.985    22050478.842    22050482.224
       122.000          86.000
 -12155993.581 5  -9472157.324 5  22644368.767    22644368.624    22644373.137
        83.000          60.000
 01  3 31  1 11 30.0000000  0 10G22G17G15G18G 6G26G28G23G 3G21
   6413660.012 4   4997641.075 4  24052100.763    24052100.660    24052111.075
        28.000          16.000
 -23401045.556 9 -18234514.808 9  20656338.759    20656338.517    20656339.742
       229.000         252.000
 -24356060.424 9 -18978681.417 9  20044403.717    20044403.670    20044404.457
       239.000         312.000
 -23070422.174 8 -17976886.138 9  20334580.697    20334580.718    20334580.303
       178.000         352.000
  -3381186.095 4  -2634680.372 4  24189574.446    24189575.036    24189584.674
        18.000          12.000
 -10191125.494 5  -7941103.617 5  22282055.774    22282056.166    22282059.293
        72.000          61.000
  -4359754.463 4  -3397203.200 4  23512590.964    23512590.866    23512597.008
        36.000          33.000
 -21125382.497 9 -16461269.277 9  20592367.675    20592367.330    20592367.926
       216.000         238.000
 -13705266.912 6 -10679396.452 6  22037912.337    22037912.379    22037915.769
       124.000          86.000
 -12234768.441 6  -9533540.161 5  22629378.695    22629378.469    22629382.405
        88.000          56.000
 01  3 31  1 12  0.0000000  0 10G22G17G15G18G 6G26G28G23G 3G21
   6495541.927 4   5061444.938 4  24067683.199    24067683.147    24067693.315
        34.000          18.000
 -23367034.245 9 -18208012.538 9  20662811.014    20662810.847    20662811.884
       230.000         246.000
 -24355796.232 9 -18978475.510 9  20044454.434    20044454.120    20044454.704
       236.000         306.000
 -23096058.533 8 -17996862.458 9  20329702.239    20329702.184    20329701.701
       172.000         353.000
  -3268379.065 4  -2546779.052 4  24211040.913    24211041.457    24211051.170
        22.000          10.000
 -10144246.310 5  -7904574.372 5  22290977.060    22290977.286    22290979.884
        76.000          62.000
  -4341880.539 4  -3383275.519 4  23515992.395    23515992.165    23515997.895
        30.000          30.000
 -21126724.483 9 -16462314.946 9  20592112.143    20592111.873    20592112.455
       219.000         238.000
 -13770865.166 7 -10730511.836 6  22025429.370    22025429.343    22025432.549
       137.000          87.000
 -12313298.345 5  -9594732.107 5  22614434.632    22614434.532    22614438.484
        82.000          58.000
 01  3 31  1 12 30.0000000  0 10G22G17G15G18G 6G26G28G23G 3G21
   6577655.752 4   5125429.567 4  24083308.936    24083308.769    24083319.086
        30.000          18.000
 -23332667.587 9 -18181233.352 9  20669350.929    20669350.636    20669351.565
       231.000         243.000
 -24355132.581 9 -18977958.354 9  20044580.579    20044580.394    20044581.010
       237.000         306.000
 -23121208.156 8 -18016459.509 9  20324916.414    20324916.377    20324915.853
       174.000         350.000
  -3155457.086 4  -2458788.199 4  24232529.931    24232530.023    24232539.877
        21.000          14.000
 -10096773.209 5  -7867582.370 5  22300010.041    22300010.317    22300013.781
        70.000          58.000
  -4323453.595 4  -3368916.898 4  23519498.578    23519498.501    23519504.403
        30.000          28.000
 -21127643.634 9 -16463031.130 9  20591937.392    20591937.085    20591937.496
       223.000         237.000
 -13836022.671 7 -10781283.784 6  22013030.252    22013030.294    22013033.421
       137.000          95.000
 -12391582.694 5  -9655732.719 5  22599537.693    22599537.350    22599541.736
        82.000          64.000
 01  3 31  1 13  0.0000000  0 10G22G17G15G18G 6G26G28G23G 3G21
   6659998.918 4   5189592.866 4  24098979.563    24098979.245    24098988.992
        32.000          21.000
 -23297945.704 9 -18154177.344 9  20675958.206    20675957.996    20675958.869
       230.000         244.000
 -24354069.351 9 -18977129.838 9  20044782.722    20044782.535    20044783.371
       238.000         309.000
 -23145871.164 8 -18035677.378 9  20320222.919    20320222.941    20320222.579
       172.000         354.000
  -3042422.313 4  -2370709.433 4  24254040.419    24254040.494    24254050.346
        25.000          16.000
 -10048707.991 5  -7830128.947 5  22309157.044    22309157.166    22309160.532
        73.000          60.000
  -4304474.780 4  -3354128.297 4  23523109.509    23523109.484    23523116.500
        30.000          26.000
 -21128140.740 9 -16463418.432 9  20591842.756    20591842.432    20591842.863
       222.000         238.000
 -13900737.093 7 -10831710.501 6  22000715.715    22000715.537    22000718.738
       132.000          91.000
 -12469621.374 6  -9716541.910 5  22584686.844    22584686.990    22584691.288
        85.000          62.000
 01  3 31  1 13 30.0000000  0 10G22G17G15G18G 6G26G28G23G 3G21
   6742568.146 4   5253932.316 4  24114691.377    24114691.020    24114701.131
        29.000          17.000
 -23262869.099 9 -18126844.978 9  20682633.066    20682632.814    20682633.828
       233.000         242.000
 -24352606.285 9 -18975989.760 9  20045061.225    20045061.026    20045061.660
       238.000         311.000
 -23170047.567 7 -18054516.074 9  20315622.405    20315622.339    20315621.933
       164.000         358.000
  -2929277.090 4  -2282544.611 4  24275570.587    24275571.156    24275581.423
        21.000          12.000
 -10000052.418 5  -7792215.444 5  22318416.538    22318416.601    22318419.373
        72.000          58.000
  -4284945.364 4  -3338910.603 4  23526826.310    23526826.231    23526832.264
        29.000          25.000
 -21128216.634 9 -16463477.538 9  20591828.263    20591827.950    20591828.411
       215.000         234.000
 -13965006.271 7 -10881790.238 6  21988485.643    21988485.540    21988488.527
       140.000          91.000
 -12547412.608 6  -9777158.301 5  22569883.793    22569883.740    22569887.883
        88.000          62.000
 01  3 31  1 14  0.0000000  0 10G22G17G15G18G 6G26G28G23G 3G21
   6825360.120 4   5318445.337 4  24130446.119    24130445.925    24130455.808
        31.000          11.000
 -23227437.711 9 -18099236.193 9  20689375.407    20689375.209    20689376.284
       228.000         239.000
 -24350743.210 9 -18974537.998 9  20045415.780    20045415.635    20045416.105
       240.000         309.000
 -23193737.185 7 -18072975.472 9  20311114.216    20311114.274    20311113.971
       168.000         363.000
  -2816023.637 4  -2194295.459 4  24297122.180    24297122.658    24297133.119
        23.000          13.000
  -9950808.230 5  -7753843.230 5  22327786.622    22327787.080    22327790.153
        67.000          59.000
  -4264866.350 4  -3323264.659 4  23530647.449    23530647.323    23530653.025
        29.000          24.000
 -21127872.144 9 -16463209.072 9  20591893.712    20591893.409    20591893.949
       218.000         236.000
 -14028828.260 7 -10931521.534 6  21976340.297    21976340.514    21976343.289
       154.000          97.000
 -12624955.415 6  -9837581.107 5  22555127.341    22555127.314    22555131.789
        89.000          65.000
 01  3 31  1 14 30.0000000  0 10G22G17G15G18G 6G26G28G23G 3G21
   6908371.804 4   5383129.586 4  24146243.656    24146243.253    24146252.811
        29.000          15.000
 -23191651.549 9 -18071350.895 9  20696185.236    20696184.960    20696186.256
       226.000         241.000
 -24348479.732 9 -18972774.230 9  20045846.231    20045846.135    20045846.860
       239.000         305.000
 -23216940.241 7 -18091055.722 9  20306698.940    20306698.819    20306698.619
       164.000         370.000
  -2702663.994 4  -2105963.551 4  24318695.069    24318695.078    24318704.683
        24.000          13.000
  -9900977.523 5  -7715014.019 5  22337268.998    22337269.165    22337272.326
        61.000          59.000
  -4244239.154 4  -3307191.572 4  23534572.266    23534572.023    23534578.844
        27.000          26.000
 -21127107.981 9 -16462613.583 9  20592039.068    20592038.807    20592039.343
       216.000         235.000
 -14092201.033 7 -10980902.817 6  21964280.472    21964280.548    21964283.735
       141.000          94.000
 -12702249.723 6  -9897810.285 5  22540419.042    22540418.840    22540422.980
        90.000          63.000
 01  3 31  1 15  0.0000000  0 10G22G17G15G18G 6G26G28G23G 3G21
   6991600.612 4   5447983.015 4  24162081.441    24162081.324    24162090.960
        31.000          15.000
 -23155510.835 9 -18043189.337 9  20703062.802    20703062.563    20703063.613
       227.000         236.000
 -24345815.638 9 -18970698.297 9  20046353.316    20046353.221    20046353.794
       238.000         307.000
 -23239656.785 7 -18108756.877 9  20302375.937    20302376.044    20302375.621
       166.000         365.000
  -2589200.262 4  -2017550.561 4  24340285.921    24340286.507    24340296.612
        19.000          12.000
  -9850562.200 5  -7675729.315 5  22346862.304    22346862.616    22346865.978
        65.000          59.000
  -4223064.896 4  -3290692.241 4  23538600.898    23538601.085    23538607.965
        24.000          26.000
 -21125925.052 8 -16461691.788 9  20592264.280    20592263.966    20592264.297
       210.000         238.000
 -14155122.054 7 -11029932.082 6  21952307.122    21952307.232    21952309.926
       146.000          89.000
 -12779294.805 6  -9957845.260 5  22525757.916    22525757.828    22525761.727
        97.000          66.000
 01  3 31  1 15 30.0000000  0 10G22G17G15G18G 6G26G28G23G 3G21
   7075043.786 4   5513003.480 4  24177960.301    24177959.756    24177970.482
        26.000          17.000
 -23119015.752 9 -18014751.639 9  20710007.741    20710007.522    20710008.296
       234.000         230.000
 -24342750.776 9 -18968310.064 9  20046936.610    20046936.482    20046937.129
       239.000         309.000
 -23261886.967 8 -18126079.057 9  20298146.010    20298145.986    20298145.239
       171.000         369.000
  -2475634.468 4  -1929057.994 4  24361896.141    24361897.060    24361907.261
        20.000          12.000
  -9799564.027 5  -7635990.409 5  22356568.007    22356568.134    22356570.719
        66.000          59.000
  -4201344.840 4  -3273767.585 4  23542734.436    23542734.328    23542741.022
        30.000          24.000
 -21124324.180 8 -16460444.334 9  20592568.767    20592568.514    20592568.923
       210.000         234.000
 -14217589.133 7 -11078607.620 6  21940419.751    21940419.812    21940423.075
       140.000          94.000
 -12856089.545 6 -10017685.184 5  22511143.683    22511143.766    22511147.923
        96.000          64.000
 01  3 31  1 16  0.0000000  0 10G22G17G15G18G 6G26G28G23G 3G21
   7158697.952 4   5578188.330 4  24193879.624    24193879.091    24193889.725
        26.000          18.000
 -23082166.496 9 -17986037.947 9  20717019.646    20717019.496    20717020.578
       233.000         231.000
 -24339284.607 9 -18965609.132 9  20047596.255    20047596.051    20047596.688
       241.000         311.000
 -23283630.767 7 -18143022.241 9  20294008.110    20294008.168    20294007.569
       167.000         375.000
  -2361968.916 4  -1840487.733 4  24383524.907    24383528.066    24383537.523
        16.000          11.000
  -9747985.057 5  -7595799.003 5  22366382.252    22366382.625    22366385.634
        68.000          57.000
  -4179080.294 4  -3256418.617 4  23546972.023    23546971.753    23546977.859
        24.000          21.000
 -21122306.167 8 -16458871.832 9  20592952.528    20592952.292    20592953.002
       209.000         235.000
 -14279600.233 7 -11126927.842 6  21928619.710    21928619.605    21928622.739
       136.000         101.000
 -12932633.116 6 -10077329.387 5  22496578.355    22496578.101    22496582.028
        95.000          64.000
 01  3 31  1 16 30.0000000  0  9G22G17G18G 6G26G28G23G 3G21
   7242559.785 4   5643534.984 4  24209837.427    24209837.209    24209848.077
        26.000          24.000
 -23044963.017 9 -17957048.192 9  20724099.220    20724099.010    20724100.207
       227.000         225.000
 -23304888.427 7 -18159586.616 9  20289962.731    20289962.834    20289962.357
       164.000         370.000
  -2248205.948 4  -1751841.601 4  24405175.226    24405176.012    24405186.441
        20.000          14.000
  -9695827.164 5  -7555156.507 5  22376307.083    22376307.511    22376311.021
        58.000          54.000
  -4156272.385 4  -3238646.281 4  23551312.798    23551312.670    23551317.836
        24.000          21.000
 -21119871.747 8 -16456974.874 9  20593415.831    20593415.488    20593416.240
       205.000         229.000
 -14341153.121 7 -11174891.028 6  21916906.017    21916906.194    21916909.277
       136.000          87.000
 -13008924.602 6 -10136777.146 5  22482060.585    22482060.368    22482064.236
        96.000          61.000
 01  3 31  1 17  0.0000000  0  9G22G17G18G 6G26G28G23G 3G21
   7326626.611 4   5709041.350 4  24225835.409    24225835.420    24225845.585
        29.000          22.000
 -23007405.793 9 -17927782.866 9  20731246.517    20731246.210    20731247.067
       230.000         226.000
 -23325659.922 7 -18175772.168 9  20286010.123    20286010.210    20286009.568
       163.000         379.000
  -2134347.683 4  -1663121.208 4  24426843.671    24426843.238    24426853.931
        17.000          15.000
  -9643092.480 5  -7514064.689 5  22386342.313    22386342.733    22386346.136
        64.000          51.000
  -4132922.416 4  -3220451.580 4  23555755.642    23555755.204    23555761.679
        29.000          26.000
 -21117021.778 8 -16454754.132 9  20593958.363    20593957.997    20593958.518
       211.000         237.000
 -14402245.541 7 -11222495.417 6  21905281.144    21905281.064    21905284.131
       153.000         109.000
 -13084963.369 6 -10196027.973 5  22467590.401    22467590.460    22467594.113
       105.000          66.000
 01  3 31  1 17 30.0000000  0  9G22G17G18G 6G26G28G23G 3G21
   7410895.655 4   5774705.288 4  24241870.738    24241870.716    24241881.831
        24.000          19.000
 -22969494.885 9 -17898241.921 9  20738460.273    20738460.137    20738461.345
       225.000         227.000
 -23345945.556 7 -18191579.124 9  20282149.978    20282149.971    20282149.377
       167.000         380.000
  -2020396.152 4  -1574328.145 4  24448526.721    24448527.010    24448538.019
        18.000          12.000
  -9589782.620 5  -7472524.592 5  22396487.575    22396487.786    22396490.901
        67.000          58.000
  -4109032.165 4  -3201835.872 4  23560301.949    23560301.684    23560308.221
        30.000          24.000
 -21113756.984 9 -16452210.131 9  20594579.600    20594579.383    20594579.799
       215.000         230.000
 -14462875.612 7 -11269739.516 6  21893743.239    21893743.130    21893746.101
       146.000          95.000
 -13160748.771 6 -10255081.380 5  22453168.931    22453168.706    22453172.540
       104.000          66.000
 01  3 31  1 18  0.0000000  0 10G22G17G15G18G 6G26G28G23G 3G21
   7495364.041 4   5840524.545 4  24257944.476    24257944.081    24257955.661
        23.000          21.000
 -22931230.382 9 -17868425.519 9  20745741.939    20745741.792    20745742.785
       221.000         223.000
      5718.460 9      4456.405 9  20050998.714    20050998.507    20050999.116
       237.000         309.000
 -23365745.325 7 -18207007.488 9  20278381.918    20278381.972    20278381.625
       166.000         388.000
  -1906353.663 4  -1485464.198 4  24470229.824    24470229.203    24470239.478
        16.000          11.000
  -9535899.814 5  -7430538.064 5  22406740.751    22406741.038    22406744.476
        68.000          55.000
  -4084602.591 4  -3182799.913 4  23564950.577    23564950.663    23564956.603
        35.000          22.000
 -21110078.308 8 -16449343.624 9  20595279.806    20595279.402    20595279.811
       205.000         233.000
 -14523041.209 7 -11316621.685 6  21882293.965    21882294.030    21882296.797
       146.000          98.000
 -13236279.638 6 -10313936.424 5  22438795.380    22438795.268    22438799.293
        99.000          67.000
 01  3 31  1 18 30.0000000  0 10G22G17G15G18G 6G26G28G23G 3G21
   7580028.285 4   5906496.431 4  24274055.993    24274055.896    24274067.461
        28.000          16.000
 -22892612.350 9 -17838333.613 9  20753090.706    20753090.497    20753091.680
       226.000         225.000
     11193.664 9      8722.796 9  20052040.618    20052040.400    20052041.025
       244.000         310.000
 -23385059.476 7 -18222057.449 9  20274706.965    20274706.872    20274706.194
       168.000         386.000
  -1792222.318 4  -1396530.993 4  24491948.104    24491947.960    24491958.872
        21.000           9.000
  -9481445.867 5  -7388106.451 5  22417103.638    22417103.619    22417106.689
        63.000          55.000
  -4059635.215 4  -3163344.873 4  23569701.168    23569701.334    23569707.341
        27.000          20.000
 -21105986.609 8 -16446155.281 9  20596058.313    20596057.948    20596058.420
       210.000         231.000
 -14582739.939 7 -11363140.075 6  21870933.745    21870933.745    21870936.532
       143.000          98.000
 -13311555.585 6 -10372592.841 5  22424470.788    22424470.703    22424474.783
       107.000          70.000
 01  3 31  1 19  0.0000000  0 10G22G17G15G18G 6G26G28G23G 3G21
   7664885.304 4   5972618.563 4  24290205.343    24290204.522    24290215.072
        25.000          15.000
 -22853641.205 9 -17807966.497 9  20760506.957    20760506.787    20760507.702
       224.000         218.000
     17071.025 9     13302.557 9  20053159.041    20053158.866    20053159.478
       243.000         311.000
 -23403888.212 7 -18236729.155 9  20271123.802    20271123.864    20271123.142
       162.000         391.000
  -1678004.228 4  -1307530.170 4  24513683.133    24513683.053    24513693.720
        20.000          11.000
  -9426422.969 5  -7345231.469 5  22427574.375    22427574.468    22427577.198
        63.000          52.000
  -4034131.456 4  -3143471.868 4  23574554.791    23574554.698    23574560.939
        29.000          17.000
 -21101482.826 8 -16442645.832 9  20596915.094    20596914.851    20596915.421
       204.000         232.000
 -14641969.921 7 -11409293.211 6  21859662.318    21859662.505    21859665.310
       149.000          98.000
 -13386575.705 6 -10431049.907 5  22410195.148    22410194.955    22410198.723
       108.000          68.000
 01  3 31  1 19 30.0000000  0 10G22G17G15G18G 6G26G28G23G 3G21
   7749932.484 4   6038888.877 4  24306388.475    24306388.376    24306399.130
        21.000          14.000
 -22814317.397 9 -17777324.600 9  20767989.991    20767989.751    20767990.828
       226.000         221.000
     23351.038 9     18196.082 9  20054354.194    20054353.979    20054354.473
       236.000         307.000
 -23422231.555 7 -18251022.643 9  20267632.923    20267633.006    20267632.544
       165.000         396.000
  -1563701.570 4  -1218463.482 4  24535435.452    24535434.897    24535445.221
        18.000          11.000
  -9370833.250 5  -7301914.840 5  22438152.512    22438152.753    22438155.140
        61.000          47.000
  -4008092.660 4  -3123181.969 4  23579510.713    23579510.633    23579516.833
        34.000          23.000
 -21096567.774 8 -16438815.917 9  20597850.381    20597850.163    20597850.686
       204.000         228.000
 -14700729.168 7 -11455079.536 6  21848480.840    21848480.740    21848483.496
       147.000          98.000
 -13461339.439 6 -10489307.191 5  22395967.852    22395967.786    22395971.550
       107.000          72.000
 01  3 31  1 20  0.0000000  0  9G22G17G15G18G26G28G23G 3G21
   7835167.177 4   6105305.288 4  24322608.510    24322608.043    24322618.778
        27.000          13.000
 -22774640.979 9 -17746407.955 9  20775540.041    20775539.873    20775541.075
       223.000         222.000
     30033.891 9     23403.482 9  20055625.665    20055625.556    20055626.084
       243.000         307.000
 -23440089.939 7 -18264938.237 9  20264234.690    20264234.724    20264234.157
       166.000         393.000
  -9314678.762 5  -7258158.215 5  22448838.736    22448838.640    22448841.407
        61.000          50.000
  -3981520.291 4  -3102476.320 4  23584566.114    23584566.232    23584572.961
        31.000          25.000
 -21091242.496 9 -16434666.354 9  20598864.059    20598863.695    20598864.101
       213.000         232.000
 -14759015.717 7 -11500497.525 6  21837389.756    21837389.587    21837391.410
       149.000          91.000
 -13535845.677 6 -10547363.824 5  22381789.568    22381789.437    22381793.247
       106.000          72.000
 01  3 31  1 20 30.0000000  0  9G22G17G15G18G26G28G23G 3G21
   7920585.895 4   6171865.090 4  24338863.277    24338862.713    24338873.563
        23.000          12.000
 -22734611.999 9 -17715216.581 9  20783157.578    20783157.343    20783158.357
       215.000         223.000
     37120.109 9     28925.184 9  20056974.018    20056973.909    20056974.596
       241.000         305.000
 -23457463.619 7 -18278476.141 9  20260928.770    20260928.748    20260928.070
       163.000         399.000
  -9257961.609 5  -7213963.209 5  22459631.299    22459631.401    22459634.528
        63.000          51.000
  -3954416.050 4  -3081356.189 4  23589724.511    23589724.648    23589730.947
        29.000          24.000
 -21085507.856 8 -16430197.806 9  20599955.411    20599955.041    20599955.353
       204.000         228.000
 -14816827.046 7 -11545545.218 6  21826387.892    21826387.879    21826390.870
       151.000          97.000
 -13610093.909 6 -10605219.410 5  22367660.374    22367660.377    22367664.152
       108.000          74.000
 01  3 31  1 21  0.0000000  0  9G22G17G15G18G26G28G23G 3G21
   8006185.309 4   6238565.704 4  24355152.705    24355152.200    24355163.182
        23.000          13.000
 -22694230.770 9 -17683750.750 9  20790841.503    20790841.347    20790842.794
       219.000         221.000
     44609.434 9     34761.017 9  20058399.270    20058399.180    20058399.821
       243.000         309.000
 -23474352.701 7 -18291636.442 9  20257714.918    20257714.868    20257714.155
       168.000         395.000
  -9200683.816 5  -7169331.292 5  22470530.991    22470531.302    22470534.475
        70.000          52.000
  -3926781.338 4  -3059822.771 4  23594983.596    23594983.318    23594989.815
        27.000          22.000
 -21079364.671 8 -16425410.909 9  20601124.341    20601124.032    20601124.388
       207.000         230.000
 -14874161.141 7 -11590221.033 6  21815477.309    21815477.327    21815480.446
       155.000         105.000
 -13684082.823 6 -10662872.930 5  22353580.878    22353580.776    22353584.423
       111.000          72.000
 01  3 31  1 21 30.0000000  0  9G22G17G15G18G26G28G23G 3G21
   8091962.657 4   6305404.977 4  24371475.633    24371474.907    24371485.638
        28.000          15.000
 -22653497.417 8 -17652010.482 9  20798593.215    20798592.942    20798594.054
       209.000         216.000
     52502.148 9     40911.173 9  20059901.173    20059901.033    20059901.822
       242.000         310.000
 -23490757.482 7 -18304419.370 9  20254593.123    20254593.119    20254592.366
       166.000         397.000
  -9142847.575 5  -7124264.238 5  22481536.988    22481537.455    22481540.258
        60.000          51.000
  -3898617.488 4  -3037877.025 4  23600342.953    23600342.860    23600348.756
        34.000          17.000
 -21072813.948 8 -16420306.457 9  20602370.949    20602370.612    20602370.952
       206.000         232.000
 -14931016.007 7 -11634523.431 6  21804658.534    21804658.408    21804661.206
       155.000         103.000
 -13757812.461 6 -10720324.422 5  22339550.113    22339550.124    22339554.096
       109.000          76.000
 01  3 31  1 22  0.0000000  0  9G22G17G15G18G26G28G23G 3G21
   8177915.386 4   6372380.878 4  24387832.256    24387831.758    24387842.445
        29.000          16.000
 -22612412.210 8 -17619996.107 9  20806411.223    20806411.043    20806412.521
       211.000         221.000
     60798.481 9     47375.860 9  20061480.022    20061479.880    20061480.520
       245.000         310.000
 -23506678.157 7 -18316825.069 9  20251563.518    20251563.486    20251562.769
       161.000         405.000
  -9084454.759 5  -7078763.443 5  22492648.848    22492648.984    22492652.455
        65.000          53.000
  -3869926.253 4  -3015520.297 4  23605802.977    23605802.721    23605808.451
        34.000          20.000
 -21065856.621 8 -16414885.150 9  20603694.652    20603694.443    20603694.891
       210.000         229.000
 -14987390.009 7 -11678451.132 6  21793930.803    21793930.701    21793933.633
       153.000         107.000
 -13831281.620 6 -10777572.957 5  22325569.361    22325569.333    22325573.054
       109.000          77.000
 01  3 31  1 22 30.0000000  0  8G22G17G18G26G28G23G 3G21
   8264040.570 4   6439491.186 4  24404221.492    24404221.236    24404231.834
        35.000          17.000
 -22570975.110 8 -17587707.497 9  20814296.529    20814296.363    20814297.670
       210.000         214.000
 -23522115.120 7 -18328853.852 9  20248625.765    20248625.872    20248625.236
       159.000         404.000
  -9025507.795 5  -7032830.813 5  22503866.254    22503866.471    22503869.565
        61.000          51.000
  -3840709.097 4  -2992753.744 4  23611363.223    23611363.010    23611369.070
        37.000          17.000
 -21058493.668 8 -16409147.780 9  20605095.888    20605095.590    20605096.054
       203.000         232.000
 -15043280.889 7 -11722002.386 6  21783295.507    21783295.316    21783297.632
       159.000         105.000
 -13904489.933 6 -10834618.235 5  22311637.957    22311638.092    22311641.663
       115.000          74.000
 01  3 31  1 23  0.0000000  0  8G22G17G18G26G28G23G 3G21
   8350334.769 4   6506733.175 4  24420643.588    24420643.209    24420653.616
        29.000          20.000
 -22529186.508 9 -17555144.973 8  20822248.765    20822248.553    20822249.693
       216.000         211.000
 -23537068.567 7 -18340505.874 9  20245780.308    20245780.320    20245779.648
       159.000         399.000
  -8966008.760 5  -6986467.919 5  22515188.323    22515188.851    22515191.619
        63.000          49.000
  -3810967.537 4  -2969578.618 4  23617022.027    23617022.148    23617028.379
        32.000          15.000
 -21050725.890 8 -16403094.984 9  20606574.002    20606573.713    20606574.167
       203.000         230.000
 -15098686.558 7 -11765175.559 6  21772751.656    21772751.601    21772753.961
       160.000          94.000
 -13977436.827 6 -10891459.811 5  22297756.888    22297756.760    22297760.366
       114.000          81.000
 01  3 31  1 23 30.0000000  0  8G22G17G18G26G28G23G 3G21
   8436794.659 4   6574104.243 4  24437095.280    24437094.958    24437106.800
        25.000          22.000
 -22487046.630 8 -17522308.717 8  20830267.579    20830267.425    20830268.576
       211.000         209.000
 -23551539.086 7 -18351781.594 9  20243026.502    20243026.565    20243025.995
       159.000         404.000
  -8905960.138 5  -6939676.940 5  22526615.234    22526615.448    22526618.955
        60.000          49.000
  -3780703.236 4  -2945996.162 4  23622781.683    23622781.652    23622787.044
        33.000          21.000
 -21042554.220 8 -16396727.448 9  20608129.197    20608128.837    20608129.155
       208.000         234.000
 -15153604.999 8 -11807969.093 6  21762300.719    21762300.708    21762303.634
       172.000         108.000
 -14050121.459 6 -10948097.029 5  22283925.213    22283925.241    22283928.807
       118.000          77.000
 01  3 31  1 24  0.0000000  0  8G22G17G18G26G28G23G 3G21
   8523417.763 4   6641602.473 4  24453578.971    24453578.990    24453590.864
        27.000          27.000
 -22444555.795 8 -17489198.998 8  20838353.343    20838353.156    20838354.385
       206.000         206.000
 -23565526.655 7 -18362680.986 9  20240364.794    20240364.854    20240364.230
       163.000         412.000
  -8845363.757 5  -6892459.015 5  22538146.422    22538146.869    22538150.172
        68.000          50.000
  -3749917.815 4  -2922007.652 4  23628640.406    23628640.133    23628646.489
        33.000          21.000
 -21033979.662 8 -16390045.985 9  20609760.804    20609760.508    20609760.950
       201.000         235.000
 -15208034.319 7 -11850381.464 6  21751943.393    21751943.310    21751945.900
       166.000         107.000
 -14122542.879 6 -11004529.165 5  22270144.260    22270143.997    22270146.971
       126.000          76.000
 01  3 31  1 24 30.0000000  0  9G15G22G17G18G26G28G23G 3G21
      9640.679 9      7513.176 9  20070526.871    20070526.566    20070527.104
       236.000         301.000
   8610201.270 4   6709225.721 4  24470095.514    24470094.755    24470105.761
        29.000          23.000
 -22401714.100 8 -17455815.888 8  20846506.108    20846505.861    20846506.956
       205.000         205.000
 -23579031.702 7 -18373204.388 9  20237794.947    20237794.965    20237794.254
       161.000         407.000
  -8784222.013 5  -6844816.175 5  22549781.518    22549781.726    22549785.042
        62.000          49.000
  -3718612.911 4  -2897614.356 4  23634597.939    23634597.685    23634603.634
        36.000          20.000
 -21025003.285 8 -16383051.424 9  20611468.977    20611468.597    20611469.139
       203.000         230.000
 -15261972.355 7 -11892411.022 6  21741678.992    21741679.009    21741681.813
       164.000         112.000
 -14194700.409 6 -11060755.661 5  22256412.814    22256412.735    22256415.945
       123.000          80.000
 01  3 31  1 25  0.0000000  0  9G15G22G17G18G26G28G23G 3G21
     20361.795 9     15867.276 9  20072566.927    20072566.730    20072567.219
       242.000         305.000
   8697142.143 4   6776971.566 4  24486638.034    24486637.804    24486650.530
        26.000          24.000
 -22358521.862 8 -17422159.679 8  20854725.213    20854725.044    20854726.398
       208.000         208.000
 -23592054.567 7 -18383352.067 9  20235316.780    20235316.802    20235316.097
       160.000         409.000
  -8722537.196 5  -6796750.166 5  22561519.635    22561519.903    22561523.566
        54.000          52.000
  -3686790.166 4  -2872817.557 4  23640653.520    23640653.397    23640659.053
        41.000          16.000
 -21015626.005 8 -16375744.483 9  20613253.169    20613252.904    20613253.635
       204.000         231.000
 -15315417.155 8 -11934056.257 6  21731509.158    21731509.136    21731511.490
       177.000         103.000
 -14266593.173 6 -11116775.853 5  22242732.039    22242731.974    22242734.910
       121.000          79.000
 01  3 31  1 25 30.0000000  0  9G15G22G17G18G26G28G23G 3G21
     31487.575 9     24536.685 9  20074683.991    20074683.846    20074684.474
       243.000         302.000
   8784236.884 4   6844837.338 4  24503211.939    24503211.730    24503224.090
        25.000          20.000
 -22314979.215 8 -17388230.405 8  20863011.086    20863010.876    20863012.266
       206.000         206.000
 -23604595.677 7 -18393124.347 9  20232930.419    20232930.340    20232929.606
       157.000         412.000
  -8660311.573 5  -6748262.784 5  22573361.604    22573361.601    22573364.353
        56.000          44.000
  -3654451.311 4  -2847618.573 4  23646807.006    23646806.878    23646812.839
        39.000          16.000
 -21005848.667 8 -16368125.797 9  20615113.887    20615113.573    20615114.251
       208.000         233.000
 -15368366.985 8 -11975315.807 6  21721432.793    21721432.757    21721435.327
       173.000         107.000
 -14338221.048 6 -11172589.638 5  22229101.129    22229101.141    22229104.434
       122.000          80.000
 01  3 31  1 26  0.0000000  0 10G15G22G17G31G18G26G28G23G 3G21
     43018.300 9     33521.645 9  20076878.251    20076878.157    20076878.613
       245.000         297.000
   8871482.649 4   6912820.796 4  24519815.646    24519814.802    24519826.065
        17.000          13.000
 -22271086.607 8 -17354028.415 8  20871363.667    20871363.455    20871364.870
       208.000         203.000
   -218985.077 4   -170637.198 4  24379062.268    24379061.593    24379068.336
        16.000           4.000
 -23616655.371 7 -18402521.503 9  20230635.225    20230635.282    20230634.662
       154.000         411.000
  -8597547.388 5  -6699355.684 4  22585305.776    22585305.837    22585307.981
        57.000          42.000
  -3621598.140 4  -2822018.820 4  23653059.406    23653059.307    23653064.888
        42.000          16.000
 -20995672.262 8 -16360196.145 9  20617050.478    20617050.167    20617050.705
       203.000         231.000
 -15420819.881 7 -12016188.117 6  21711451.084    21711451.090    21711453.842
       162.000         109.000
 -14409582.714 6 -11228195.995 5  22215521.393    22215521.300    22215524.561
       123.000          78.000
 01  3 31  1 26 30.0000000  0 10G15G22G17G31G18G26G28G23G 3G21
     54953.759 9     42821.947 9  20079149.540    20079149.388    20079150.065
       240.000         301.000
   8958876.797 4   6980919.874 4  24536445.799    24536445.680    24536456.591
        22.000          10.000
 -22226844.107 8 -17319553.784 8  20879782.519    20879782.445    20879783.838
       204.000         201.000
   -321282.819 4   -250349.564 4  24359595.555    24359595.457    24359604.761
        16.000           7.000
 -23628233.984 7 -18411543.788 9  20228432.171    20228432.095    20228431.284
       153.000         413.000
  -8534246.955 5  -6650030.765 5  22597350.491    22597350.718    22597353.996
        59.000          51.000
  -3588232.182 4  -2796019.501 4  23659408.145    23659408.269    23659414.977
        36.000          21.000
 -20985097.960 8 -16351956.447 9  20619062.633    20619062.383    20619062.921
       204.000         230.000
 -15472773.955 7 -12056671.743 6  21701564.642    21701564.699    21701567.231
       167.000         109.000
 -14480677.938 7 -11283594.730 5  22201992.599    22201992.468    22201995.455
       129.000          81.000
 01  3 31  1 27  0.0000000  0 10G15G22G17G31G18G26G28G23G 3G21
     67294.392 9     52437.982 9  20081497.799    20081497.687    20081498.450
       243.000         303.000
   9046416.508 4   7049132.359 4  24553103.496    24553102.986    24553115.155
        16.000          10.000
 -22182251.918 8 -17284806.644 8  20888267.988    20888267.891    20888269.492
       204.000         198.000
   -423352.763 4   -329884.369 4  24340171.249    24340171.950    24340181.512
        18.000           6.000
 -23639331.921 7 -18420191.527 9  20226320.317    20226320.251    20226319.478
       156.000         413.000
  -8470412.448 5  -6600289.626 5  22609497.996    22609498.127    22609501.579
        54.000          48.000
  -3554355.143 4  -2769621.933 4  23665855.208    23665855.150    23665861.552
        33.000          20.000
 -20974126.759 8 -16343407.487 9  20621150.630    20621150.275    20621150.741
       202.000         230.000
 -15524227.245 8 -12096765.145 6  21691773.291    21691773.287    21691775.870
       170.000         111.000
 -14551506.119 7 -11338785.384 5  22188514.079    22188514.056    22188517.234
       130.000          84.000
 01  3 31  1 27 30.0000000  0 10G15G22G17G31G18G26G28G23G 3G21
     80040.307 9     62369.859 9  20083923.353    20083923.226    20083923.859
       240.000         304.000
   9134098.431 4   7117455.683 4  24569789.412    24569789.167    24569801.099
        23.000          10.000
 -22137310.390 8 -17249787.336 8  20896820.179    20896820.052    20896821.767
       198.000         198.000
   -525192.612 4   -409239.857 4  24320790.367    24320791.431    24320802.035
         9.000           7.000
 -23649949.699 7 -18428465.108 9  20224299.654    20224299.660    20224299.004
       156.000         414.000
  -8406046.457 5  -6550134.409 5  22621746.425    22621746.519    22621750.347
        52.000          45.000
  -3519969.059 4  -2742827.727 4  23672398.540    23672398.656    23672405.091
        31.000          20.000
 -20962759.657 8 -16334550.046 9  20623313.720    20623313.408    20623313.907
       208.000         233.000
 -15575177.789 8 -12136466.806 6  21682077.612    21682077.735    21682080.459
       178.000         112.000
 -14622066.180 6 -11393767.119 5  22175086.929    22175086.837    22175089.872
       124.000          82.000
 01  3 31  1 28  0.0000000  0 10G15G22G17G31G18G26G28G23G 3G21
     93191.639 9     72617.633 9  20086426.153    20086425.970    20086426.540
       243.000         302.000
   9221919.289 4   7185887.284 4  24586500.811    24586500.666    24586513.168
        23.000          10.000
 -22092019.704 8 -17214495.949 8  20905439.396    20905439.078    20905440.228
       198.000         196.000
   -626799.450 4   -488413.740 4  24301454.637    24301455.365    24301465.658
        10.000           9.000
 -23660087.532 7 -18436364.697 9  20222370.533    20222370.478    20222369.798
       150.000         415.000
  -8341151.261 5  -6499566.819 5  22634095.418    22634095.480    22634099.162
        50.000          43.000
  -3485075.553 4  -2715638.107 4  23679038.521    23679038.569    23679044.590
        28.000          15.000
 -20950997.544 8 -16325384.786 9  20625551.849    20625551.577    20625552.199
       206.000         235.000
 -15625623.513 8 -12175775.091 6  21672478.626    21672478.485    21672480.875
       180.000         114.000
 -14692357.561 7 -11448539.505 6  22161710.803    22161710.739    22161713.818
       132.000          86.000
 01  3 31  1 28 30.0000000  0 10G15G22G17G31G18G26G28G23G 3G21
    106748.374 9     83181.312 9  20089005.845    20089005.662    20089006.260
       236.000         295.000
   9309876.440 4   7254425.114 4  24603238.580    24603238.097    24603251.083
        20.000          13.000
 -22046380.218 8 -17178932.769 8  20914124.059    20914123.916    20914125.204
       204.000         200.000
   -728170.620 4   -567403.979 4  24282167.447    24282167.147    24282175.600
        14.000          13.000
 -23669745.950 7 -18443890.726 9  20220532.494    20220532.563    20220531.849
       153.000         409.000
  -8275729.102 5  -6448588.552 5  22646545.686    22646545.693    22646548.906
        55.000          48.000
  -3449676.443 4  -2688054.521 4  23685775.596    23685775.091    23685781.315
        25.000          18.000
 -20938841.488 8 -16315912.548 9  20627865.135    20627864.828    20627865.456
       203.000         238.000
 -15675562.779 8 -12214688.739 6  21662975.582    21662975.409    21662977.778
       171.000         115.000
 -14762379.878 7 -11503102.221 6  22148385.915    22148385.816    22148388.988
       130.000          87.000
 01  3 31  1 29  0.0000000  0 10G15G22G17G31G18G26G28G23G 3G21
    120710.444 9     94060.852 9  20091662.730    20091662.572    20091663.183
       231.000         298.000
   9397967.141 4   7323066.985 4  24620002.634    24620002.193    24620014.543
        26.000          11.000
 -22000392.323 8 -17143098.117 8  20922875.727    20922875.347    20922876.528
       196.000         199.000
   -829303.597 4   -646208.643 4  24262921.352    24262920.712    24262930.264
        14.000          13.000
 -23678925.270 7 -18451043.431 9  20218785.925    20218785.754    20218785.085
       154.000         413.000
  -8209782.368 5  -6397201.539 5  22659094.444    22659094.764    22659097.862
        59.000          43.000
  -3413773.488 4  -2660078.348 4  23692607.381    23692607.106    23692613.396
        28.000          22.000
 -20926292.650 8 -16306134.259 9  20630253.051    20630252.781    20630253.414
       202.000         236.000
 -15724993.724 8 -12253206.294 6  21653568.817    21653568.668    21653570.984
       170.000         109.000
 -14832132.228 6 -11557454.566 6  22135112.360    22135112.244    22135115.442
       125.000          90.000
 01  3 31  1 29 30.0000000  0 10G15G22G17G31G18G26G28G23G 3G21
    135078.018 9    105256.376 9  20094396.330    20094396.285    20094397.219
       232.000         292.000
   9486188.396 4   7391810.546 4  24636789.934    24636790.008    24636802.842
        19.000          13.000
 -21954056.141 8 -17106992.063 8  20931692.836    20931692.624    20931694.088
       198.000         196.000
   -930195.528 4   -724825.425 4  24243719.800    24243720.324    24243731.025
        10.000           8.000
 -23687626.276 7 -18457823.430 9  20217129.817    20217129.826    20217129.341
       153.000         415.000
  -8143313.530 5  -6345407.707 5  22671743.072    22671743.353    22671746.630
        59.000          49.000
  -3377368.677 4  -2631711.119 4  23699534.969    23699534.829    23699541.372
        26.000          24.000
 -20913351.977 8 -16296050.641 9  20632715.544    20632715.289    20632715.943
       206.000         234.000
 -15773914.344 8 -12291326.201 6  21644259.474    21644259.455    21644261.878
       180.000         113.000
 -14901614.085 7 -11611596.146 6  22121890.446    22121890.364    22121893.265
       132.000          88.000
 01  3 31  1 30  0.0000000  0 10G15G22G17G31G18G26G28G23G 3G21
    149851.254 9    116768.030 9  20097207.545    20097207.438    20097208.431
       233.000         298.000
   9574536.840 4   7460653.233 4  24653603.889    24653603.270    24653614.884
        24.000          15.000
 -21907372.181 8 -17070615.036 8  20940576.297    20940576.183    20940577.845
       201.000         194.000
  -1030843.896 4   -803252.398 4  24224567.951    24224568.561    24224577.673
        16.000           6.000
 -23695849.360 7 -18464231.022 9  20215565.114    20215565.077    20215564.487
       152.000         409.000
  -8076324.846 5  -6293208.787 5  22684490.214    22684490.383    22684494.218
        50.000          44.000
  -3340463.934 4  -2602954.318 4  23706557.524    23706557.577    23706564.615
        26.000          24.000
 -20900020.501 8 -16285662.491 9  20635252.605    20635252.261    20635252.832
       205.000         233.000
 -15822323.093 8 -12329047.238 6  21635047.244    21635047.272    21635049.850
       180.000         114.000
 -14970825.001 7 -11665526.605 6  22108719.744    22108719.712    22108722.779
       128.000          87.000
 01  3 31  1 30 30.0000000  0 10G15G22G17G31G18G26G28G23G 3G21
    165030.060 9    128595.656 9  20100096.315    20100096.095    20100096.871
       237.000         292.000
   9663009.372 4   7529592.598 4  24670438.738    24670438.545    24670450.223
        19.000          14.000
 -21860340.466 8 -17033967.005 8  20949526.483    20949526.284    20949527.647
       202.000         189.000
  -1131246.062 4   -881487.618 4  24205463.820    24205463.761    24205470.786
        19.000           7.000
 -23703594.978 7 -18470266.570 9  20214091.030    20214091.107    20214090.538
       150.000         416.000
  -8008818.912 5  -6240606.828 4  22697336.579    22697336.756    22697339.991
        55.000          42.000
  -3303061.044 4  -2573809.375 4  23713674.831    23713674.755    23713682.580
        21.000          22.000
 -20886299.226 8 -16274970.596 9  20637863.368    20637863.166    20637863.905
       207.000         236.000
 -15870218.243 8 -12366368.067 6  21625933.570    21625933.368    21625935.471
       182.000         112.000
 -15039764.298 7 -11719245.413 6  22095600.787    22095600.851    22095603.882
       135.000          91.000
 01  3 31  1 31  0.0000000  0 10G15G22G17G31G18G26G28G23G 3G21
    180614.901 9    140739.651 9  20103061.968    20103061.743    20103062.485
       234.000         287.000
   9751603.549 4   7598626.740 4  24687298.213    24687297.719    24687310.037
        18.000          15.000
 -21812961.363 8 -16997048.279 8  20958542.302    20958542.160    20958543.706
       197.000         187.000
  -1231399.390 4   -959528.952 4  24186404.579    24186404.362    24186411.833
        20.000           8.000
 -23710863.655 7 -18475930.475 9  20212708.126    20212708.007    20212707.370
       155.000         413.000
  -7940798.170 5  -6187603.709 4  22710280.460    22710280.585    22710283.715
        55.000          39.000
  -3265161.721 4  -2544277.589 4  23720887.151    23720887.075    23720894.404
        24.000          25.000
 -20872189.168 8 -16263975.751 9  20640548.508    20640548.247    20640549.067
       209.000         238.000
 -15917597.603 8 -12403286.986 6  21616917.003    21616917.104    21616919.506
       183.000         119.000
 -15108431.474 7 -11772752.171 6  22082533.977    22082533.912    22082536.954
       136.000          93.000
 01  3 31  1 31 30.0000000  0 10G15G22G17G31G18G26G28G23G 3G21
    196605.781 9    153200.072 9  20106105.080    20106104.911    20106105.449
       238.000         290.000
   9840316.616 4   7667753.550 4  24704180.165    24704180.105    24704192.266
        20.000          14.000
 -21765235.107 8 -16959859.072 8  20967624.370    20967624.262    20967625.785
       194.000         188.000
  -1331301.304 4  -1037374.297 4  24167393.791    24167393.645    24167400.736
        17.000           8.000
 -23717655.688 7 -18481222.963 9  20211415.552    20211415.518    20211414.878
       156.000         417.000
  -7872265.067 5  -6134201.377 5  22723321.846    22723322.254    22723325.493
        53.000          44.000
  -3226768.054 4  -2514360.603 4  23728193.700    23728193.679    23728200.187
        21.000          23.000
 -20857691.454 8 -16252678.841 9  20643307.399    20643307.080    20643307.890
       205.000         238.000
 -15964459.432 8 -12439802.639 6  21607999.508    21607999.587    21608002.133
       188.000         121.000
 -15176825.545 7 -11826046.126 6  22069519.102    22069519.016    22069521.761
       146.000          93.000
 01  3 31  1 32  0.0000000  0 10G15G22G17G31G18G26G28G23G 3G21
    213002.758 9    165976.941 9  20109225.176    20109224.988    20109225.702
       235.000         284.000
   9929145.295 4   7736970.430 4  24721083.818    24721083.512    24721095.942
        18.000          18.000
 -21717162.039 8 -16922399.611 8  20976772.796    20976772.536    20976773.876
       198.000         187.000
  -1430949.301 4  -1115021.780 4  24148429.647    24148428.971    24148439.480
        17.000          14.000
 -23723971.803 7 -18486144.614 9  20210213.499    20210213.469    20210212.881
       147.000         408.000
  -7803222.021 5  -6080401.739 4  22736460.502    22736460.874    22736464.100
        51.000          40.000
  -3187881.965 4  -2484059.930 4  23735592.455    23735592.728    23735600.340
        23.000          23.000
 -20842807.064 9 -16241080.615 9  20646139.846    20646139.555    20646140.245
       214.000         236.000
 -16010802.041 8 -12475913.695 6  21599180.830    21599180.782    21599183.301
       185.000         122.000
 -15244945.869 7 -11879126.772 6  22056556.065    22056556.036    22056558.855
       152.000          93.000
 01  3 31  1 32 30.0000000  0 10G15G22G17G31G18G26G28G23G 3G21
    229806.025 9    179070.387 9  20112422.644    20112422.494    20112423.266
       229.000         283.000
  10018086.125 4   7806274.671 4  24738008.196    24738007.974    24738020.851
        20.000          14.000
 -21668742.540 8 -16884670.222 8  20985986.692    20985986.435    20985987.996
       191.000         186.000
  -1530340.698 4  -1192469.317 4  24129516.249    24129515.963    24129526.253
        24.000          17.000
 -23729812.487 7 -18490695.799 9  20209102.066    20209102.025    20209101.357
       145.000         403.000
  -7733671.320 5  -6026206.486 5  22749696.031    22749696.028    22749699.803
        51.000          48.000
  -3148505.409 4  -2453377.094 4  23743086.309    23743086.287    23743094.002
        22.000          23.000
 -20827537.199 9 -16229182.038 9  20649045.877    20649045.553    20649046.053
       220.000         240.000
 -16056623.470 8 -12511618.638 6  21590461.463    21590461.288    21590463.661
       184.000         121.000
 -15312792.009 7 -11931993.761 6  22043645.497    22043645.312    22043648.010
       154.000          94.000
 01  3 31  1 33  0.0000000  0 10G15G22G17G31G18G26G28G23G 3G21
    247015.262 9    192480.164 9  20115697.306    20115697.219    20115698.102
       233.000         286.000
  10107136.406 4   7875664.238 4  24754954.476    24754954.116    24754967.150
        24.000          14.000
 -21619976.963 8 -16846671.146 8  20995266.398    20995266.193    20995267.672
       190.000         183.000
  -1629472.650 4  -1269714.669 4  24110654.519    24110653.887    24110661.687
        26.000          21.000
 -23735178.374 7 -18494877.014 9  20208081.049    20208081.069    20208080.309
       144.000         408.000
  -7663615.776 5  -5971617.863 4  22763027.409    22763027.381    22763030.328
        57.000          40.000
  -3108640.411 4  -2422313.639 4  23750672.119    23750672.232    23750680.245
        28.000          25.000
 -20811882.994 9 -16216983.983 9  20652024.845    20652024.516    20652025.044
       219.000         241.000
 -16101922.371 8 -12546916.416 6  21581841.259    21581841.101    21581843.513
       182.000         121.000
 -15380363.348 7 -11984646.619 6  22030786.962    22030786.881    22030789.521
       148.000          95.000
 01  3 31  1 33 30.0000000  0 10G15G22G17G31G18G26G28G23G 3G21
    264630.668 9    206206.448 9  20119049.808    20119049.585    20119050.260
       238.000         285.000
  10196293.601 4   7945137.108 4  24771921.726    24771920.960    24771933.360
        19.000          15.000
 -21570865.630 8 -16808402.650 8  21004612.051    21004611.860    21004613.314
       185.000         181.000
  -1728342.337 4  -1346755.685 4  24091838.096    24091837.744    24091846.230
        21.000          17.000
 -23740069.869 7 -18498688.567 9  20207149.999    20207150.138    20207149.486
       147.000         411.000
  -7593057.983 5  -5916638.013 5  22776453.532    22776453.986    22776457.456
        54.000          45.000
  -3068288.875 4  -2390871.028 4  23758352.221    23758352.046    23758358.951
        40.000          21.000
 -20795845.469 9 -16204487.216 9  20655076.755    20655076.381    20655076.811
       215.000         236.000
 -16146696.823 8 -12581805.528 6  21573320.402    21573320.528    21573323.072
       185.000         121.000
 -15447659.135 7 -12037084.764 6  22017980.862    22017980.730    22017983.251
       151.000          94.000
 01  3 31  1 34  0.0000000  0 10G15G22G17G31G18G26G28G23G 3G21
    282652.125 9    220249.117 9  20122479.220    20122479.043    20122479.639
       234.000         287.000
  10285554.834 4   8014691.027 4  24788907.930    24788907.439    24788919.310
        18.000          14.000
 -21521408.540 8 -16769864.705 8  21014023.381    21014023.155    21014024.756
       184.000         181.000
  -1826947.372 4  -1423590.437 4  24073075.067    24073074.485    24073082.147
        25.000          19.000
 -23744487.557 7 -18502130.905 9  20206309.435    20206309.437    20206308.825
       143.000         408.000
  -7522000.052 5  -5861268.320 5  22789976.345    22789976.288    22789979.556
        51.000          44.000
  -3027452.801 4  -2359050.864 4  23766122.835    23766122.877    23766129.731
        36.000          20.000
 -20779425.707 9 -16191692.609 9  20658201.398    20658201.038    20658201.334
       217.000         240.000
 -16190944.994 8 -12616284.555 6  21564900.969    21564900.847    21564902.895
       193.000         123.000
 -15514678.721 7 -12089307.691 6  22005227.415    22005227.176    22005229.730
       148.000         100.000
 01  3 31  1 34 30.0000000  0 10G15G22G17G31G18G26G28G23G 3G21
    301079.784 9    234608.297 9  20125985.706    20125985.607    20125986.374
       234.000         280.000
  10374916.730 4   8084323.403 4  24805912.388    24805911.983    24805924.816
        24.000          13.000
 -21471606.040 8 -16731057.589 8  21023500.715    21023500.465    21023501.830
       181.000         179.000
  -1925284.912 4  -1500216.765 4  24054361.352    24054361.350    24054368.751
        22.000          19.000
 -23748432.201 7 -18505204.654 9  20205558.641    20205558.723    20205558.222
       146.000         409.000
  -7450444.552 5  -5805510.943 4  22803592.596    22803592.683    22803596.433
        51.000          39.000
  -2986134.453 4  -2326854.922 4  23773985.184    23773984.870    23773993.464
        24.000          25.000
 -20762624.863 9 -16178601.044 9  20661398.420    20661398.063    20661398.565
       213.000         239.000
 -16234665.395 8 -12650352.325 6  21556581.282    21556581.151    21556583.148
       194.000         119.000
 -15581421.793 7 -12141315.142 6  21992526.391    21992526.355    21992528.634
       150.000          92.000
 01  3 31  1 35  0.0000000  0 10G15G22G17G31G18G26G28G23G 3G21
    319913.845 9    249284.137 9  20129569.980    20129569.745    20129570.389
       234.000         281.000
  10464376.070 4   8154031.649 4  24822935.569    24822935.506    24822948.002
        18.000          13.000
 -21421458.631 8 -16691981.728 8  21033043.592    21033043.388    21033044.683
       186.000         178.000
  -2023352.324 4  -1576632.617 4  24035699.349    24035698.978    24035706.527
        20.000          17.000
 -23751904.148 7 -18507910.063 9  20204898.167    20204898.147    20204897.600
       147.000         411.000
  -7378394.073 5  -5749367.858 4  22817303.547    22817303.520    22817307.322
        51.000          41.000
  -2944335.682 4  -2294284.648 4  23781939.592    23781939.490    23781947.330
        26.000          26.000
 -20745444.124 9 -16165213.482 9  20664667.855    20664667.505    20664667.990
       216.000         235.000
 -16277856.290 8 -12684007.501 6  21548361.745    21548361.749    21548364.089
       191.000         124.000
 -15647888.019 7 -12193106.877 6  21979877.927    21979877.980    21979880.568
       156.000          96.000
 01  3 31  1 35 30.0000000  0  9G15G17G31G18G26G28G23G 3G21
    339154.402 9    264276.745 9  20133231.389    20133231.148    20133231.710
       230.000         281.000
 -21370966.667 8 -16652637.391 8  21042651.746    21042651.545    21042653.057
       172.000         172.000
  -2121147.057 4  -1652836.003 4  24017089.720    24017089.235    24017096.734
        23.000          16.000
 -23754904.030 7 -18510247.632 9  20204327.250    20204327.293    20204326.701
       146.000         411.000
  -7305851.363 5  -5692841.266 4  22831108.292    22831108.352    22831111.561
        47.000          39.000
  -2902058.709 4  -2261341.736 4  23789984.100    23789984.307    23789992.272
        25.000          27.000
 -20727884.451 9 -16151530.660 9  20668009.500    20668009.175    20668009.462
       217.000         236.000
 -16320516.135 8 -12717248.870 6  21540243.466    21540243.644    21540246.056
       192.000         121.000
 -15714076.864 7 -12244682.472 6  21967282.817    21967282.702    21967285.275
       156.000          99.000
 01  3 31  1 36  0.0000000  0  9G15G17G31G18G26G28G23G 3G21
    358801.167 9    279585.910 9  20136969.795    20136969.659    20136970.350
       234.000         278.000
 -21320130.391 8 -16613024.801 8  21052325.853    21052325.530    21052327.036
       181.000         172.000
  -2218666.519 4  -1728824.895 4  23998531.742    23998531.059    23998538.881
        25.000          20.000
 -23757432.715 7 -18512218.039 9  20203846.193    20203846.127    20203845.546
       146.000         407.000
  -7232818.590 5  -5635932.680 4  22845004.904    22845005.364    22845009.391
        47.000          41.000
  -2859305.276 4  -2228027.574 4  23798120.604    23798120.513    23798128.284
        25.000          27.000
 -20709946.772 9 -16137553.270 9  20671422.919    20671422.576    20671422.915
       214.000         236.000
 -16362643.094 8 -12750075.005 6  21532227.435    21532227.363    21532229.648
       199.000         126.000
 -15779987.307 7 -12296041.129 6  21954740.277    21954740.199    21954742.792
       156.000          99.000
 01  3 31  1 36 30.0000000  0  9G15G17G31G18G26G28G23G 3G21
    378854.275 9    295211.687 9  20140785.932    20140785.679    20140786.388
       235.000         278.000
 -21268950.237 8 -16573144.285 8  21062065.122    21062064.836    21062066.467
       174.000         175.000
  -2315908.095 4  -1804597.233 4  23980027.120    23980026.540    23980034.139
        24.000          17.000
 -23759490.733 7 -18513821.679 9  20203454.498    20203454.553    20203453.876
       150.000         411.000
  -7159298.776 5  -5578644.667 4  22858994.902    22858995.383    22859000.056
        43.000          39.000
  -2816077.786 4  -2194343.974 4  23806346.380    23806346.364    23806353.907
        23.000          25.000
 -20691632.235 9 -16123282.214 9  20674907.817    20674907.548    20674908.098
       219.000         241.000
 -16404235.503 8 -12782484.601 6  21524312.023    21524312.037    21524314.728
       198.000         125.000
 -15845619.000 7 -12347182.582 6  21942250.709    21942250.720    21942253.243
       161.000          97.000
 01  3 31  1 37  0.0000000  0  9G15G17G31G18G26G28G23G 3G21
    399313.771 9    311154.130 9  20144679.134    20144678.958    20144679.706
       233.000         276.000
 -21217426.466 8 -16532995.944 8  21071869.761    21071869.509    21071871.147
       178.000         171.000
  -2412868.779 4  -1880150.735 4  23961575.848    23961575.846    23961582.495
        26.000          15.000
 -23761078.490 7 -18515058.887 9  20203152.431    20203152.373    20203151.703
       148.000         414.000
  -7085294.508 5  -5520979.284 4  22873079.176    22873079.503    22873083.084
        44.000          41.000
  -2772378.232 4  -2160292.556 4  23814662.059    23814661.987    23814669.922
        22.000          25.000
 -20672942.123 9 -16108718.526 9  20678464.432    20678464.203    20678464.819
       219.000         240.000
 -16445291.889 8 -12814476.517 6  21516499.911    21516499.788    21516501.756
       203.000         121.000
 -15910971.116 7 -12398106.185 6  21929814.479    21929814.486    21929817.183
       153.000         101.000
 01  3 31  1 37 30.0000000  0  9G15G17G31G18G26G28G23G 3G21
    420179.689 9    327413.256 9  20148649.873    20148649.675    20148650.360
       235.000         278.000
 -21165559.562 8 -16492580.213 8  21081739.692    21081739.490    21081741.066
       173.000         170.000
  -2509546.070 4  -1955483.403 4  23943176.433    23943176.727    23943185.445
        20.000          19.000
 -23762196.929 7 -18515930.390 9  20202939.580    20202939.574    20202938.922
       148.000         414.000
  -7010807.964 5  -5462937.938 4  22887253.088    22887253.329    22887257.321
        50.000          39.000
  -2728208.812 4  -2125875.011 4  23823067.512    23823067.636    23823075.233
        26.000          20.000
 -20653877.589 9 -16093863.081 9  20682092.141    20682091.909    20682092.755
       220.000         244.000
 -16485810.595 8 -12846049.465 6  21508789.299    21508789.326    21508791.345
       206.000         126.000
 -15976043.316 7 -12448811.673 6  21917431.596    21917431.608    21917434.269
       162.000         104.000
 01  3 31  1 38  0.0000000  0  9G15G17G31G18G26G28G23G 3G21
    441452.008 9    343989.051 9  20152697.884    20152697.631    20152698.311
       232.000         274.000
 -21113349.868 8 -16451897.375 7  21091674.945    21091674.687    21091676.234
       180.000         166.000
  -2605937.173 4  -2030593.061 4  23924835.884    23924836.124    23924842.364
        26.000          23.000
 -23762846.711 7 -18516436.716 9  20202815.823    20202815.834    20202815.274
       149.000         416.000
  -6935841.868 4  -5404522.895 4  22901517.842    22901517.931    22901522.920
        41.000          40.000
  -2683571.657 4  -2091092.999 4  23831561.875    23831562.075    23831569.679
        25.000          20.000
 -20634439.807 9 -16078716.805 9  20685791.118    20685790.884    20685791.642
       218.000         237.000
 -16525789.889 8 -12877202.087 6  21501181.102    21501181.081    21501183.486
       200.000         125.000
 -16040835.102 7 -12499298.659 6  21905102.334    21905102.241    21905104.691
       157.000         106.000
 01  3 31  1 38 30.0000000  0  9G15G17G31G18G26G28G23G 3G21
    463130.748 9    360881.566 9  20156823.120    20156822.937    20156823.684
       233.000         275.000
 -21060797.555 8 -16410947.547 7  21101675.305    21101675.052    21101676.655
       172.000         167.000
  -2702039.489 4  -2105477.713 4  23906548.103    23906547.489    23906554.546
        26.000          26.000
 -23763028.278 7 -18516578.200 9  20202781.271    20202781.391    20202780.645
       149.000         411.000
  -6860398.835 5  -5345736.142 4  22915874.326    22915874.761    22915879.261
        44.000          39.000
  -2638468.799 4  -2055948.063 4  23840145.073    23840145.196    23840152.342
        28.000          18.000
 -20614629.716 9 -16063280.406 9  20689561.102    20689560.823    20689561.349
       215.000         234.000
 -16565228.499 8 -12907933.401 6  21493676.367    21493676.264    21493678.258
       204.000         122.000
 -16105345.687 7 -12549566.535 6  21892825.960    21892825.991    21892828.488
       155.000         104.000
 01  3 31  1 39  0.0000000  0  9G15G17G31G18G26G28G23G 3G21
    485215.878 9    378090.740 9  20161025.904    20161025.639    20161026.502
       237.000         278.000
 -21007902.903 8 -16369730.956 7  21111740.610    21111740.488    21111742.103
       174.000         160.000
  -2797850.503 4  -2180135.346 4  23888315.463    23888314.906    23888322.365
        21.000          24.000
 -23762742.564 7 -18516355.561 9  20202835.832    20202835.872    20202835.040
       145.000         406.000
  -6784481.505 5  -5286579.770 4  22930322.345    22930322.503    22930325.562
        51.000          32.000
  -2592902.622 4  -2020442.124 4  23848816.953    23848816.827    23848822.486
        32.000          12.000
 -20594448.642 9 -16047554.921 9  20693401.788    20693401.445    20693401.704
       217.000         239.000
 -16604124.511 8 -12938241.901 6  21486274.730    21486274.755    21486276.584
       204.000         121.000
 -16169575.121 7 -12599615.331 6  21880603.215    21880603.169    21880605.985
       158.000         107.000
 01  3 31  1 39 30.0000000  0  9G15G17G31G18G26G28G23G 3G21
    507707.524 9    395616.684 9  20165306.015    20165305.763    20165306.497
       236.000         275.000
 -20954666.378 8 -16328247.971 7  21121871.497    21121871.244    21121872.651
       171.000         160.000
  -2893367.568 4  -2254563.962 4  23870139.302    23870138.856    23870145.870
        31.000          22.000
 -23761990.031 7 -18515769.181 9  20202979.039    20202979.043    20202978.283
       146.000         411.000
  -6708092.580 5  -5227055.956 4  22944858.801    22944858.607    22944861.935
        46.000          33.000
  -2546875.321 4  -1984576.864 4  23857574.782    23857574.799    23857582.324
        32.000          16.000
 -20573897.736 9 -16031541.261 9  20697312.265    20697311.952    20697312.513
       216.000         236.000
 -16642476.521 8 -12968126.516 6  21478976.707    21478976.635    21478978.481
       204.000         126.000
 -16233522.543 7 -12649444.374 6  21868434.449    21868434.391    21868436.925
       154.000         104.000
 01  3 31  1 40  0.0000000  0  9G15G17G31G18G26G28G23G 3G21
    530605.670 9    413459.401 9  20169663.649    20169663.260    20169663.860
       238.000         273.000
 -20901088.415 8 -16286498.947 7  21132067.151    21132066.820    21132068.274
       173.000         158.000
  -2988587.926 4  -2328761.412 4  23852018.595    23852018.298    23852025.731
        25.000          20.000
 -23760771.551 7 -18514819.723 9  20203210.711    20203210.768    20203210.118
       146.000         410.000
  -6631234.830 5  -5167166.818 4  22959483.527    22959483.734    22959487.800
        43.000          38.000
  -2500389.128 4  -1948354.006 4  23866421.589    23866421.426    23866428.342
        23.000          16.000
 -20552977.980 8 -16015240.155 9  20701292.801    20701292.586    20701293.414
       211.000         235.000
 -16680283.311 8 -12997586.285 7  21471782.132    21471782.056    21471784.087
       207.000         132.000
 -16297187.167 7 -12699053.063 6  21856319.577    21856319.516    21856321.938
       166.000         105.000
 01  3 31  1 40 30.0000000  0  9G15G17G31G18G26G28G23G 3G21
    553910.014 9    431618.648 9  20174098.014    20174097.776    20174098.495
       236.000         270.000
 -20847169.424 7 -16244484.166 7  21142327.464    21142327.318    21142328.798
       168.000         156.000
  -3083509.020 4  -2402725.649 4  23833953.237    23833953.995    23833962.573
        27.000          20.000
 -23759087.873 7 -18513507.791 9  20203531.409    20203531.329    20203530.517
       146.000         411.000
  -6553910.653 5  -5106914.160 4  22974198.205    22974198.349    22974201.822
        44.000          33.000
  -2453446.190 4  -1911775.258 4  23875353.893    23875353.986    23875361.301
        27.000          17.000
 -20531690.647 8 -15998652.636 9  20705343.799    20705343.513    20705344.259
       212.000         238.000
 -16717543.228 8 -13026619.920 7  21464691.810    21464691.634    21464693.666
       204.000         132.000
 -16360568.966 7 -12748441.364 6  21844258.275    21844258.303    21844260.488
       169.000         105.000
 01  3 31  1 41  0.0000000  0  9G15G17G31G18G26G28G23G 3G21
    577620.695 9    450094.518 9  20178610.060    20178609.776    20178610.560
       236.000         272.000
 -20792909.764 7 -16202203.918 7  21152652.553    21152652.346    21152653.919
       167.000         152.000
  -3178128.056 4  -2476454.513 4  23815947.777    23815947.733    23815956.707
        26.000          19.000
 -23756939.683 7 -18511833.882 9  20203939.913    20203939.938    20203939.310
       143.000         408.000
  -6476122.870 5  -5046300.233 4  22989001.008    22989001.069    22989004.352
        46.000          35.000
  -2406048.780 4  -1874842.407 4  23884373.580    23884373.926    23884381.038
        27.000          13.000
 -20510036.897 9 -15981779.610 9  20709464.239    20709464.033    20709464.808
       213.000         236.000
 -16754254.705 8 -13055226.200 7  21457705.963    21457705.836    21457707.513
       212.000         131.000
 -16423666.908 8 -12797608.483 6  21832251.293    21832251.246    21832253.405
       174.000         109.000
 01  3 31  1 41 30.0000000  0  9G15G17G31G18G26G28G23G 3G21
    601737.422 9    468886.769 9  20183198.899    20183198.825    20183199.848
       240.000         276.000
 -20738310.012 7 -16159658.712 7  21163042.482    21163042.216    21163044.033
       162.000         151.000
  -3272442.460 4  -2549945.997 4  23798001.814    23798001.693    23798008.716
        23.000          19.000
 -23754327.660 7 -18509798.540 9  20204437.106    20204437.097    20204436.315
       146.000         406.000
  -6397874.290 5  -4985327.291 4  23003891.541    23003891.536    23003895.110
        50.000          38.000
  -2358199.095 4  -1837557.116 4  23893479.861    23893479.400    23893486.942
        20.000          12.000
 -20488017.974 8 -15964622.027 9  20713654.333    20713654.069    20713654.886
       209.000         235.000
 -16790416.566 8 -13083404.216 7  21450823.942    21450823.881    21450826.351
       210.000         136.000
 -16486480.807 8 -12846554.269 6  21820298.112    21820298.102    21820300.076
       176.000         108.000
 01  3 31  1 42  0.0000000  0  9G15G17G31G18G26G28G23G 3G21
    626260.156 9    487995.373 9  20187865.543    20187865.391    20187866.333
       242.000         272.000
 -20683370.418 7 -16116848.681 7  21173497.172    21173496.950    21173498.751
       156.000         150.000
  -3366449.395 4  -2623197.903 4  23780113.891    23780113.712    23780119.955
        32.000          26.000
 -23751252.525 7 -18507402.327 9  20205022.124    20205022.248    20205021.515
       148.000         408.000
  -6319167.482 4  -4923997.356 4  23018868.186    23018868.290    23018871.975
        41.000          37.000
  -2309899.476 4  -1799921.246 4  23902669.880    23902670.120    23902677.854
        18.000          11.000
 -20465635.027 8 -15947180.771 9  20717913.480    20717913.338    20717914.209
       206.000         232.000
 -16826027.072 8 -13111152.594 7  21444047.805    21444047.716    21444049.696
       206.000         134.000
 -16549010.172 8 -12895278.338 6  21808399.316    21808399.222    21808401.218
       180.000         115.000
 01  3 31  1 42 30.0000000  0 10G15G14G17G31G18G26G28G23G 3G21
    651188.847 9    507420.300 9  20192609.669    20192609.486    20192610.174
       243.000         269.000
   -155325.474 4   -121032.046 4  24592265.890    24592266.509    24592276.437
        17.000           7.000
 -20628091.110 7 -16073773.901 7  21184016.954    21184016.535    21184018.207
       151.000         149.000
  -3460146.295 4  -2696208.211 4  23762283.082    23762282.643    23762289.651
        30.000          23.000
 -23747714.986 7 -18504645.800 9  20205695.528    20205695.442    20205694.744
       146.000         411.000
  -6240005.339 4  -4862312.635 4  23033931.425    23033931.928    23033936.305
        39.000          34.000
  -2261152.245 4  -1761936.554 4  23911946.388    23911947.103    23911954.512
        22.000          15.000
 -20442889.140 8 -15929456.724 9  20722242.065    20722241.832    20722242.562
       207.000         231.000
 -16861084.604 8 -13138470.085 7  21437376.690    21437376.594    21437378.331
       209.000         138.000
 -16611254.482 8 -12943780.286 6  21796554.527    21796554.366    21796556.426
       179.000         117.000
 01  3 31  1 43  0.0000000  0 10G15G14G17G31G18G26G28G23G 3G21
    676523.526 9    527161.577 9  20197430.594    20197430.359    20197431.174
       241.000         269.000
   -271781.027 4   -211776.080 4  24570105.320    24570105.291    24570115.466
        16.000           7.000
 -20572472.663 7 -16030434.882 7  21194600.652    21194600.364    21194602.101
       159.000         148.000
  -3553530.736 4  -2768975.061 4  23744512.478    23744512.175    23744518.861
        26.000          20.000
 -23743716.084 7 -18501529.760 9  20206456.362    20206456.326    20206455.679
       147.000         410.000
  -6160390.331 5  -4800275.042 4  23049081.899    23049082.405    23049086.637
        43.000          37.000
  -2211959.684 4  -1723604.828 4  23921308.100    23921307.752    23921315.421
        22.000          10.000
 -20419781.464 8 -15911450.744 9  20726639.356    20726639.122    20726639.770
       208.000         230.000
 -16895588.119 8 -13165355.880 7  21430810.170    21430810.198    21430812.565
       198.000         133.000
 -16673213.261 8 -12992059.738 6  21784764.456    21784764.167    21784765.987
       180.000         121.000
 01  3 31  1 43 30.0000000  0 10G15G14G17G31G18G26G28G23G 3G21
    702264.266 9    547219.300 9  20202329.083    20202328.822    20202329.468
       251.000         274.000
   -388201.080 4   -302492.462 4  24547951.500    24547951.203    24547960.368
        19.000           9.000
 -20516515.583 7 -15986831.995 7  21205248.517    21205248.454    21205250.309
       155.000         149.000
  -3646599.813 4  -2841496.182 4  23726802.025    23726801.783    23726808.437
        23.000          22.000
 -23739256.500 7 -18498054.754 9  20207305.058    20207304.978    20207304.302
       149.000         406.000
  -6080325.192 4  -4737886.613 4  23064318.406    23064318.536    23064322.604
        39.000          33.000
  -2162324.192 4  -1684927.970 4  23930753.943    23930753.688    23930761.312
        23.000          16.000
 -20396313.320 8 -15893163.880 9  20731105.536    20731105.126    20731105.648
       209.000         225.000
 -16929536.052 8 -13191808.750 7  21424350.376    21424350.320    21424352.672
       204.000         140.000
 -16734886.482 8 -13040116.678 6  21773027.758    21773027.720    21773029.882
       182.000         120.000
 01  3 31  1 44  0.0000000  0 10G15G14G17G31G18G26G28G23G 3G21
    728411.145 9    567593.492 9  20207304.638    20207304.405    20207305.104
       250.000         274.000
   -504582.923 4   -393179.074 4  24525805.369    24525804.890    24525813.357
        16.000           6.000
 -20460220.187 7 -15942965.488 7  21215961.849    21215961.494    21215963.001
       151.000         149.000
  -3739350.657 4  -2913769.301 4  23709150.834    23709150.781    23709158.542
        28.000          25.000
 -23734337.062 7 -18494221.427 9  20208241.131    20208241.197    20208240.527
       154.000         406.000
  -5999812.844 4  -4675149.840 4  23079639.178    23079639.383    23079643.817
        37.000          39.000
  -2112248.201 4  -1645907.882 4  23940283.208    23940283.126    23940290.965
        26.000          13.000
 -20372485.801 8 -15874596.969 9  20735639.535    20735639.278    20735639.907
       207.000         228.000
 -16962927.085 9 -13217827.683 7  21417996.557    21417996.402    21417998.412
       215.000         141.000
 -16796273.143 8 -13087950.323 6  21761346.223    21761346.047    21761348.283
       185.000         124.000
 01  3 31  1 44 30.0000000  0 10G15G14G17G31G18G26G28G23G 3G21
    754964.046 9    588284.063 9  20212357.476    20212357.293    20212357.990
       252.000         269.000
   -620924.028 4   -483833.960 4  24503664.398    24503664.314    24503674.613
        18.000           8.000
 -20403586.746 7 -15898835.570 7  21226738.194    21226738.098    21226740.018
       155.000         147.000
  -3831780.701 4  -2985792.448 4  23691561.953    23691562.047    23691569.174
        25.000          23.000
 -23728958.466 7 -18490030.293 9  20209264.859    20209264.732    20209263.956
       149.000         404.000
  -5918855.840 4  -4612066.532 4  23095044.381    23095044.592    23095049.035
        38.000          35.000
  -2061733.996 4  -1606546.354 4  23949895.573    23949895.787    23949903.859
        26.000          19.000
 -20348300.064 8 -15855750.928 9  20740241.975    20740241.633    20740242.275
       205.000         229.000
 -16995759.786 9 -13243411.540 7  21411748.555    21411748.555    21411750.345
       214.000         136.000
 -16857372.644 8 -13135560.200 6  21749719.237    21749719.100    21749721.184
       181.000         121.000
 01  3 31  1 45  0.0000000  0 10G15G14G17G31G18G26G28G23G 3G21
    781922.822 9    609290.881 9  20217487.278    20217487.217    20217488.048
       257.000         268.000
   -737221.917 4   -574455.181 4  24481532.123    24481532.691    24481541.956
        16.000           7.000
 -20346615.742 7 -15854442.597 7  21237579.476    21237579.345    21237581.253
       152.000         145.000
  -3923887.238 4  -3057563.534 4  23674035.020    23674035.061    23674041.539
        30.000          22.000
 -23723121.582 7 -18485482.036 9  20210375.295    20210375.296    20210374.549
       154.000         406.000
  -5837456.674 4  -4548638.616 4  23110534.146    23110534.476    23110538.662
        38.000          33.000
  -2010783.822 4  -1566845.091 4  23959591.399    23959591.111    23959598.923
        22.000          18.000
 -20323757.321 8 -15836626.711 9  20744912.186    20744911.931    20744912.576
       205.000         224.000
 -17028032.777 8 -13268559.268 7  21405606.868    21405606.930    21405608.790
       210.000         133.000
 -16918184.502 8 -13182945.942 6  21738146.874    21738146.852    21738149.032
       182.000         123.000
 01  3 31  1 45 30.0000000  0 10G15G14G17G31G18G26G28G23G 3G21
    809287.541 9    630614.033 9  20222694.913    20222694.652    20222695.331
       253.000         269.000
   -853473.962 4   -665040.641 4  24459410.846    24459410.690    24459419.789
        16.000           7.000
 -20289307.781 7 -15809787.074 7  21248485.248    21248484.960    21248486.650
       153.000         143.000
  -4015667.800 4  -3129080.621 4  23656570.452    23656570.018    23656576.216
        29.000          23.000
 -23716827.111 7 -18480577.225 9  20211572.924    20211573.014    20211572.304
       150.000         404.000
  -5755618.447 4  -4484868.621 4  23126106.863    23126107.323    23126112.623
        38.000          39.000
  -1959400.033 4  -1526805.948 4  23969370.206    23969369.851    23969377.437
        26.000          18.000
 -20298858.748 8 -15817225.225 9  20749650.281    20749649.893    20749650.552
       211.000         228.000
 -17059744.824 9 -13293269.907 7  21399572.353    21399572.346    21399574.239
       222.000         139.000
 -16978708.226 8 -13230107.168 6  21726629.445    21726629.296    21726631.677
       180.000         127.000
 01  3 31  1 46  0.0000000  0 10G15G14G17G31G18G26G28G23G 3G21
    837057.491 9    652252.932 9  20227979.558    20227979.238    20227979.817
       251.000         262.000
   -969677.344 4   -755588.214 4  24437299.968    24437299.343    24437307.079
        17.000           9.000
 -20231663.201 7 -15764869.235 7  21259454.934    21259454.692    21259456.147
       151.000         145.000
  -4107119.997 4  -3200341.824 4  23639167.146    23639166.740    23639173.357
        38.000          22.000
 -23710076.096 7 -18475316.677 9  20212857.694    20212857.680    20212856.982
       152.000         400.000
  -5673343.718 4  -4420758.446 4  23141763.913    23141764.390    23141768.606
        35.000          34.000
  -1907585.144 4  -1486430.867 4  23979229.235    23979229.255    23979237.878
        26.000          20.000
 -20273605.645 8 -15797547.504 9  20754455.673    20754455.407    20754456.127
       208.000         225.000
 -17090894.762 9 -13317542.535 7  21393644.850    21393644.683    21393646.660
       219.000         142.000
 -17038944.143 8 -13277044.124 6  21715166.824    21715166.713    21715169.010
       180.000         124.000
 01  3 31  1 46 30.0000000  0 10G15G14G17G31G18G26G28G23G 3G21
    865232.682 9    674207.614 9  20233340.941    20233340.761    20233341.378
       250.000         269.000
  -1085829.656 4   -846096.047 4  24415196.624    24415196.013    24415204.000
        20.000           9.000
 -20173682.363 7 -15719689.391 7  21270488.031    21270487.852    21270489.496
       149.000         141.000
  -4198241.009 4  -3271345.014 4  23621827.744    23621827.191    23621832.592
        33.000          14.000
 -23702869.185 7 -18469700.883 9  20214229.212    20214229.215    20214228.438
       153.000         409.000
  -5590635.392 4  -4356310.406 4  23157503.800    23157503.789    23157507.786
        42.000          37.000
  -1855341.672 4  -1445721.803 4  23989171.176    23989171.137    23989179.180
        28.000          16.000
 -20247999.201 8 -15777594.451 9  20759328.472    20759328.159    20759328.879
       207.000         222.000
 -17121481.259 9 -13341376.117 7  21387824.262    21387824.208    21387826.110
       217.000         138.000
 -17098891.247 8 -13323756.039 6  21703759.282    21703759.216    21703761.327
       182.000         123.000
 01  3 31  1 47  0.0000000  0 10G15G14G17G31G18G26G28G23G 3G21
    893813.331 9    696478.242 9  20238779.734    20238779.550    20238780.105
       250.000         267.000
  -1201928.255 4   -936562.006 4  24393101.066    24393100.740    24393110.630
        19.000          10.000
 -20115365.765 7 -15674247.923 7  21281585.605    21281585.281    21281586.849
       148.000         139.000
  -4289027.986 4  -3342087.916 4  23604549.600    23604549.893    23604556.781
        33.000          20.000
 -23695207.375 7 -18463730.629 9  20215687.086    20215687.105    20215686.448
       155.000         404.000
  -5507496.329 4  -4291526.751 4  23173324.512    23173324.704    23173328.501
        40.000          35.000
  -1802671.887 4  -1404680.564 4  23999195.519    23999194.783    23999202.324
        23.000          19.000
 -20222040.619 8 -15757367.010 9  20764268.199    20764267.893    20764268.627
       209.000         221.000
 -17151503.103 9 -13364769.708 7  21382111.546    21382111.531    21382112.981
       217.000         140.000
 -17158548.987 8 -13370242.472 7  21692406.723    21692406.682    21692408.779
       177.000         128.000
 01  3 31  1 47 30.0000000  0 10G15G14G17G31G18G26G28G23G 3G21
    922799.101 9    719064.553 9  20244295.557    20244295.305    20244295.979
       251.000         268.000
  -1317970.497 4  -1026984.038 4  24371018.264    24371017.874    24371028.145
        15.000           8.000
 -20056713.831 7 -15628545.176 7  21292745.874    21292745.847    21292748.048
       147.000         139.000
  -4379478.139 4  -3412568.323 4  23587337.700    23587337.387    23587344.479
        31.000          28.000
 -23687091.559 7 -18457406.632 9  20217231.521    20217231.534    20217230.881
       160.000         414.000
  -5423929.080 4  -4226409.448 4  23189226.933    23189227.015    23189231.020
        37.000          33.000
  -1749578.409 4  -1363309.189 4  24009297.292    24009297.615    24009305.844
        24.000          19.000
 -20195731.115 8 -15736866.126 9  20769274.731    20769274.425    20769275.150
       206.000         215.000
 -17180958.837 9 -13387722.184 7  21376505.973    21376505.908    21376507.822
       215.000         140.000
 -17217917.389 8 -13416503.445 7  21681109.238    21681109.263    21681111.132
       184.000         130.000
 01  3 31  1 48  0.0000000  0 10G15G14G17G31G18G26G28G23G 3G21
    952190.336 9    741966.828 9  20249888.490    20249888.239    20249888.923
       251.000         265.000
  -1433953.798 4  -1117360.155 4  24348949.013    24348947.455    24348956.185
        16.000           8.000
 -19997727.120 7 -15582581.555 7  21303971.669    21303971.359    21303973.016
       143.000         138.000
  -4469589.035 4  -3482784.408 4  23570189.808    23570189.652    23570196.256
        34.000          24.000
 -23678522.670 7 -18450729.583 9  20218862.239    20218862.264    20218861.506
       156.000         417.000
  -5339936.530 4  -4160960.726 4  23205210.012    23205210.070    23205214.023
        36.000          30.000
  -1696063.591 4  -1321609.518 4  24019479.136    24019479.893    24019489.279
        20.000          21.000
 -20169071.803 9 -15716092.627 9  20774347.626    20774347.419    20774348.206
       214.000         220.000
 -17209847.262 9 -13410232.599 7  21371008.402    21371008.407    21371010.603
       215.000         142.000
 -17276995.522 8 -13462538.247 6  21669867.138    21669867.141    21669868.728
       190.000         127.000
 01  3 31  1 48 30.0000000  0 10G15G14G17G31G18G26G28G23G 3G21
    981986.736 9    765184.811 9  20255558.384    20255558.311    20255558.964
       254.000         267.000
  -1549875.462 4  -1207688.213 4  24326887.622    24326887.439    24326896.503
        16.000          10.000
 -19938406.058 7 -15536357.419 7  21315259.446    21315259.304    21315261.356
       139.000         134.000
  -4559358.092 4  -3552734.101 4  23553107.045    23553107.012    23553113.381
        29.000          24.000
 -23669501.336 7 -18443699.969 9  20220578.860    20220578.893    20220578.130
       160.000         412.000
  -5255521.371 4  -4095182.636 4  23221273.575    23221273.575    23221277.477
        40.000          27.000
  -1642129.929 4  -1279583.457 4  24029744.939    24029744.911    24029752.445
        22.000          19.000
 -20142063.979 8 -15695047.576 9  20779487.096    20779486.851    20779487.664
       210.000         218.000
 -17238167.206 9 -13432300.037 7  21365619.702    21365619.699    21365621.371
       226.000         143.000
 -17335783.389 8 -13508346.863 6  21658679.950    21658680.023    21658681.571
       188.000         127.000
 01  3 31  1 49  0.0000000  0 10G15G14G17G31G18G26G28G23G 3G21
   1012187.884 9    788718.172 9  20261305.689    20261305.431    20261305.969
       247.000         261.000
  -1665732.865 4  -1297966.232 4  24304841.008    24304840.599    24304849.393
        23.000          10.000
 -19878751.006 7 -15489872.974 7  21326611.227    21326611.173    21326613.235
       139.000         130.000
  -4648782.417 4  -3622415.174 4  23536089.109    23536089.264    23536096.927
        25.000          23.000
 -23660028.516 7 -18436318.527 9  20222381.571    20222381.563    20222380.718
       156.000         410.000
  -5170686.577 4  -4029077.562 4  23237416.457    23237416.692    23237420.988
        39.000          31.000
  -1587779.820 4  -1237232.893 4  24040087.898    24040087.649    24040095.188
        18.000          15.000
 -20114708.869 8 -15673731.904 9  20784692.818    20784692.569    20784693.137
       210.000         215.000
 -17265917.575 9 -13453923.658 7  21360339.173    21360339.070    21360340.151
       228.000         136.000
 -17394280.038 8 -13553928.566 6  21647548.509    21647548.476    21647549.905
       190.000         127.000
 01  3 31  1 49 30.0000000  0 10G15G14G17G31G18G26G28G23G 3G21
   1042793.747 9    812566.907 9  20267129.404    20267129.322    20267130.108
       250.000         262.000
  -1781523.487 4  -1388192.233 4  24282806.318    24282805.586    24282814.480
        18.000          11.000
 -19818762.430 7 -15443128.636 7  21338027.288    21338026.954    21338028.814
       134.000         134.000
  -4737859.386 4  -3691825.573 4  23519140.228    23519139.720    23519146.015
        37.000          30.000
 -23650105.231 7 -18428586.084 9  20224269.764    20224269.797    20224269.121
       160.000         407.000
  -5085435.158 4  -3962647.938 4  23253640.002    23253640.284    23253643.950
        36.000          28.000
  -1533015.961 4  -1194559.928 4  24050508.877    24050508.600    24050517.292
        24.000          15.000
 -20087007.857 9 -15652146.702 9  20789964.279    20789963.975    20789964.479
       218.000         220.000
 -17293097.211 9 -13475102.551 7  21355166.423    21355166.464    21355168.224
       226.000         139.000
 -17452485.562 8 -13599283.421 7  21636472.282    21636472.227    21636473.807
       192.000         128.000
 01  3 31  1 50  0.0000000  0 10G15G14G17G31G18G26G28G23G 3G21
   1073804.071 9    836730.789 9  20273030.276    20273030.270    20273031.205
       247.000         263.000
  -1897244.445 4  -1478363.914 4  24260784.914    24260784.737    24260793.425
        15.000           8.000
 -19758440.936 7 -15396124.892 7  21349505.687    21349505.630    21349507.329
       135.000         131.000
  -4826586.517 4  -3760963.386 4  23502255.109    23502254.978    23502261.556
        34.000          27.000
 -23639732.326 7 -18420503.279 9  20226243.735    20226243.745    20226242.921
       159.000         405.000
  -4999769.618 4  -3895895.704 4  23269941.602    23269941.806    23269945.664
        38.000          28.000
  -1477840.794 4  -1151566.444 4  24061007.164    24061007.808    24061015.462
        21.000           9.000
 -20058962.003 9 -15630292.803 9  20795301.087    20795300.852    20795301.478
       217.000         216.000
 -17319705.079 9 -13495835.908 7  21350103.323    21350103.323    21350105.183
       217.000         141.000
 -17510399.083 8 -13644410.735 7  21625451.772    21625451.644    21625453.165
       196.000         130.000
 01  3 31  1 50 30.0000000  0 10G15G14G17G31G18G26G28G23G 3G21
   1105219.092 9    861210.001 9  20279008.938    20279008.689    20279009.290
       241.000         261.000
  -2012893.441 4  -1568479.504 4  24238776.968    24238776.762    24238785.838
        18.000           8.000
 -19697786.946 7 -15348862.072 6  21361048.143    21361048.025    21361049.472
       136.000         127.000
  -4914961.087 4  -3829826.444 4  23485438.784    23485438.199    23485444.403
        32.000          29.000
 -23628910.768 7 -18412070.899 9  20228303.034    20228302.988    20228302.193
       155.000         405.000
  -4913692.558 4  -3828822.677 4  23286321.289    23286321.292    23286325.459
        27.000          26.000
  -1422256.652 4  -1108254.306 4  24071585.393    24071585.630    24071593.818
        16.000          10.000
 -20030572.518 9 -15608171.139 9  20800703.432    20800703.194    20800703.880
       217.000         219.000
 -17345739.802 9 -13516122.661 7  21345149.365    21345149.274    21345150.616
       225.000         140.000
 -17568020.640 8 -13689310.551 7  21614486.468    21614486.419    21614487.992
       195.000         129.000
 01  3 31  1 51  0.0000000  0 10G15G14G17G31G18G26G28G23G 3G21
   1137038.547 9    886004.370 9  20285063.541    20285063.431    20285064.405
       238.000         262.000
  -2128467.679 4  -1658536.806 4  24216782.273    24216783.323    24216791.897
        21.000          11.000
 -19636800.967 7 -15301340.551 7  21372653.785    21372653.403    21372654.803
       132.000         128.000
  -5002980.513 4  -3898412.770 4  23468688.725    23468688.632    23468694.472
        35.000          29.000
 -23617641.362 7 -18403289.546 9  20230447.376    20230447.411    20230446.725
       161.000         409.000
  -4827206.922 4  -3761431.259 4  23302780.086    23302779.939    23302783.521
        37.000          32.000
  -1366266.274 4  -1064625.604 4  24082240.320    24082240.100    24082248.833
        18.000          11.000
 -20001840.581 9 -15585782.626 9  20806170.971    20806170.731    20806171.449
       218.000         218.000
 -17371200.436 9 -13535962.082 7  21340304.250    21340304.166    21340305.637
       237.000         139.000
 -17625349.543 8 -13733982.329 7  21603577.023    21603576.968    21603578.603
       200.000         132.000
 01  3 31  1 51 30.0000000  0 10G15G14G17G31G18G26G28G23G 3G21
   1169262.002 9    911113.537 9  20291195.675    20291195.536    20291196.359
       249.000         260.000
  -2243964.610 4  -1748533.901 4  24194804.340    24194804.685    24194812.603
        21.000          12.000
 -19575483.591 7 -15253560.801 6  21384321.920    21384321.645    21384323.326
       133.000         126.000
  -5090642.320 4  -3966720.465 4  23452006.204    23452006.179    23452012.516
        37.000          24.000
 -23605925.133 7 -18394160.023 9  20232676.919    20232676.942    20232676.264
       166.000         415.000
  -4740315.733 4  -3693723.836 4  23319313.079    23319313.290    23319318.403
        35.000          29.000
  -1309872.116 4  -1020682.300 4  24092971.655    24092971.349    24092979.780
        14.000          11.000
 -19972767.500 9 -15563128.286 9  20811703.339    20811703.128    20811703.972
       222.000         217.000
 -17396085.922 9 -13555353.331 7  21335568.538    21335568.308    21335570.185
       221.000         144.000
 -17682385.384 8 -13778425.746 7  21592723.226    21592723.306    21592724.931
       202.000         133.000
 01  3 31  1 52  0.0000000  0 10G15G14G17G31G18G26G28G23G 3G21
   1201889.057 9    936537.229 9  20297404.450    20297404.294    20297405.015
       248.000         258.000
  -2359381.545 4  -1838468.671 4  24172839.475    24172840.090    24172849.689
        18.000          12.000
 -19513835.395 6 -15205523.271 6  21396053.079    21396052.847    21396054.631
       126.000         125.000
  -5177943.783 4  -4034747.366 4  23435393.804    23435393.702    23435399.901
        34.000          25.000
 -23593763.200 7 -18384683.204 9  20234991.653    20234991.555    20234990.659
       167.000         408.000
  -4653021.821 4  -3625702.576 4  23335924.920    23335925.203    23335929.925
        32.000          35.000
  -1253076.809 4   -976426.404 4  24103779.501    24103779.357    24103788.037
        22.000          12.000
 -19943354.370 9 -15540208.941 9  20817300.663    20817300.405    20817301.085
       222.000         221.000
 -17420394.952 9 -13574295.383 7  21330942.827    21330942.602    21330944.289
       223.000         146.000
 -17739127.618 8 -13822640.378 7  21581925.606    21581925.552    21581927.100
       201.000         135.000
 01  3 31  1 52 30.0000000  0 10G15G14G17G31G18G26G28G23G 3G21
   1234919.796 9    962275.463 9  20303690.115    20303689.902    20303690.513
       246.000         258.000
  -2474715.826 4  -1928339.023 4  24150894.102    24150894.029    24150900.841
        21.000           9.000
 -19451856.696 6 -15157228.207 6  21407847.003    21407846.895    21407848.654
       124.000         122.000
  -5264882.200 4  -4102491.350 4  23418850.113    23418849.800    23418855.383
        38.000          23.000
 -23581156.296 8 -18374859.641 9  20237390.611    20237390.571    20237389.727
       172.000         413.000
  -4565327.743 4  -3557369.430 4  23352614.044    23352613.706    23352617.409
        32.000          30.000
  -1195882.958 4   -931859.906 4  24114662.665    24114663.195    24114671.505
        22.000          11.000
 -19913602.779 9 -15517025.880 9  20822962.233    20822962.003    20822962.567
       216.000         218.000
 -17444126.886 9 -13592787.758 7  21326426.208    21326426.189    21326428.011
       218.000         139.000
 -17795576.359 8 -13866626.306 7  21571183.458    21571183.484    21571185.235
       193.000         136.000
 01  3 31  1 53  0.0000000  0 10G15G14G17G31G18G26G28G23G 3G21
   1268354.130 9    988328.198 9  20310052.448    20310052.246    20310052.802
       239.000         250.000
  -2589964.873 4  -2018142.975 4  24128962.450    24128962.535    24128969.422
        17.000           8.000
 -19389547.868 7 -15108675.912 6  21419704.095    21419703.884    21419705.808
       129.000         125.000
  -5351454.918 4  -4169950.406 4  23402375.715    23402375.610    23402380.754
        40.000          25.000
 -23568105.492 8 -18364690.188 9  20239873.891    20239873.977    20239873.202
       170.000         414.000
  -4477236.676 4  -3488726.990 4  23369376.731    23369376.494    23369380.951
        33.000          36.000
  -1138292.945 4   -886984.737 4  24125621.530    24125622.184    24125631.026
        21.000          14.000
 -19883513.759 9 -15493579.892 9  20828687.749    20828687.572    20828688.261
       223.000         219.000
 -17467280.470 9 -13610829.478 7  21322020.307    21322020.323    21322021.983
       219.000         141.000
 -17851731.664 8 -13910383.589 7  21560497.534    21560497.551    21560499.151
       203.000         136.000
 01  3 31  1 53 30.0000000  0 10G15G14G17G31G18G26G28G23G 3G21
   1302191.692 9   1014695.117 9  20316491.446    20316491.286    20316491.944
       243.000         256.000
  -2705125.932 4  -2107878.386 4  24107047.325    24107047.204    24107055.111
        21.000          12.000
 -19326909.405 6 -15059866.753 6  21431623.948    21431623.793    21431625.288
       127.000         121.000
  -5437659.306 4  -4237122.441 4  23385971.291    23385970.766    23385976.868
        34.000          29.000
 -23554611.905 7 -18354175.694 9  20242441.398    20242441.523    20242440.908
       165.000         409.000
  -4388751.413 4  -3419777.414 4  23386213.167    23386213.822    23386218.663
        34.000          31.000
  -1080309.618 4   -841803.096 4  24136657.140    24136656.902    24136665.100
        25.000          14.000
 -19853088.648 9 -15469872.017 9  20834477.628    20834477.351    20834478.032
       225.000         226.000
 -17489854.865 9 -13628419.878 7  21317724.343    21317724.368    21317726.311
       216.000         144.000
 -17907592.220 8 -13953911.206 7  21549867.561    21549867.506    21549869.129
       202.000         140.000
 01  3 31  1 54  0.0000000  0 10G15G14G17G31G18G26G28G23G 3G21
   1336432.564 9   1041376.332 9  20323007.029    20323006.870    20323007.797
       242.000         254.000
  -2820196.571 4  -2197543.321 4  24085150.963    24085150.109    24085157.104
        24.000          12.000
 -19263942.049 6 -15010801.336 6  21443606.626    21443606.387    21443607.895
       122.000         123.000
  -5523492.768 4  -4304005.427 4  23369636.710    23369636.666    23369642.807
        31.000          28.000
 -23540676.201 8 -18343316.688 9  20245093.656    20245093.626    20245092.781
       170.000         413.000
  -4299874.614 4  -3350522.708 4  23403127.755    23403127.452    23403131.421
        33.000          32.000
  -1021935.529 4   -796316.954 4  24147765.085    24147764.946    24147773.897
        24.000          21.000
 -19822328.564 9 -15445903.126 9  20840331.140    20840330.869    20840331.559
       220.000         222.000
 -17511848.959 9 -13645558.099 7  21313539.238    21313539.152    21313540.999
       214.000         142.000
 -17963157.765 8 -13997208.934 7  21539293.830    21539293.772    21539295.279
       199.000         143.000
 01  3 31  1 54 30.0000000  0 10G15G14G17G31G18G26G28G23G 3G21
   1371076.527 9   1068371.641 9  20329599.756    20329599.575    20329600.294
       239.000         254.000
  -2935173.921 4  -2287135.593 4  24063270.399    24063270.572    24063277.233
        24.000           9.000
 -19200646.260 6 -14961479.987 6  21455651.097    21455650.972    21455652.517
       125.000         118.000
  -5608952.613 4  -4370597.309 4  23353374.514    23353374.290    23353380.575
        35.000          31.000
 -23526299.675 7 -18332114.188 9  20247829.388    20247829.389    20247828.645
       167.000         417.000
  -4210609.150 4  -3280965.074 4  23420113.783    23420114.140    23420117.747
        36.000          30.000
   -963173.420 4   -750528.488 4  24158946.551    24158946.632    24158956.260
        19.000          21.000
 -19791234.879 9 -15421674.291 9  20846248.180    20846247.861    20846248.447
       217.000         221.000
 -17533261.914 9 -13662243.489 7  21309464.358    21309464.376    21309466.203
       216.000         146.000
 -18018428.139 8 -14040276.672 7  21528776.214    21528776.110    21528777.691
       202.000         141.000
 01  3 31  1 55  0.0000000  0 10G15G14G17G31G18G26G28G23G 3G21
   1406123.202 9   1095680.735 9  20336268.731    20336268.553    20336269.482
       239.000         254.000
  -3050055.695 4  -2376653.341 4  24041407.378    24041408.075    24041415.578
        26.000          10.000
 -19137022.303 6 -14911902.919 6  21467758.559    21467758.228    21467759.997
       124.000         119.000
  -5694036.280 4  -4436896.049 4  23337183.674    23337183.601    23337189.382
        39.000          29.000
 -23511483.379 8 -18320569.019 9  20250648.753    20250648.822    20250648.061
       182.000         416.000
  -4120958.004 4  -3211106.900 4  23437173.432    23437173.518    23437177.990
        31.000          29.000
   -904026.117 4   -704439.810 4  24170202.697    24170203.214    24170212.111
        21.000          21.000
 -19759808.702 9 -15397186.361 9  20852228.283    20852228.017    20852228.645
       215.000         218.000
 -17554092.631 9 -13678475.181 7  21305500.291    21305500.357    21305501.966
       216.000         139.000
 -18073403.247 8 -14083114.328 7  21518314.797    21518314.675    21518316.042
       198.000         141.000
 01  3 31  1 55 30.0000000  0 10G15G14G17G31G18G26G28G23G 3G21
   1441572.216 9   1123303.345 9  20343014.461    20343014.383    20343015.116
       242.000         249.000
  -3164838.991 4  -2466094.402 4  24019565.308    24019565.354    24019572.585
        23.000          14.000
 -19073070.863 6 -14862070.673 6  21479927.653    21479927.409    21479929.644
       121.000         119.000
  -5778741.160 4  -4502899.652 4  23321064.761    23321064.574    23321069.952
        39.000          29.000
 -23496228.025 8 -18308681.740 9  20253551.928    20253551.972    20253551.004
       183.000         414.000
  -4030923.901 4  -3140950.260 4  23454305.813    23454306.237    23454310.167
        32.000          24.000
   -844495.721 4   -658052.693 4  24181530.190    24181530.879    24181540.110
        22.000          19.000
 -19728051.341 9 -15372440.367 9  20858271.309    20858271.063    20858271.872
       224.000         221.000
 -17574340.345 9 -13694252.594 7  21301646.968    21301647.110    21301649.076
       214.000         143.000
 -18128082.435 8 -14125721.392 7  21507909.391    21507909.368    21507910.747
       200.000         142.000
 01  3 31  1 56  0.0000000  0 10G15G14G17G31G18G26G28G23G 3G21
   1477423.630 9   1151239.513 9  20349837.066    20349836.883    20349837.439
       243.000         255.000
  -3279521.188 4  -2555456.663 4  23997740.689    23997741.219    23997748.530
        17.000          10.000
 -19008792.464 6 -14811983.638 6  21492159.426    21492159.245    21492161.211
       117.000         114.000
  -5863064.759 4  -4568606.175 4  23305018.008    23305018.238    23305024.004
        42.000          31.000
 -23480534.395 8 -18296452.943 9  20256538.334    20256538.319    20256537.438
       188.000         412.000
  -3940510.015 4  -3070497.732 4  23471511.540    23471511.414    23471515.723
        34.000          30.000
   -784585.160 4   -611369.307 4  24192931.510    24192931.892    24192941.024
        22.000          19.000
 -19695964.025 9 -15347437.274 9  20864377.440    20864377.140    20864377.894
       216.000         221.000
 -17594004.266 9 -13709575.093 7  21297905.369    21297905.418    21297907.232
       221.000         147.000
 -18182465.228 8 -14168097.494 7  21497560.344    21497560.418    21497562.108
       196.000         142.000
 01  3 31  1 56 30.0000000  0 10G15G14G17G31G18G26G28G23G 3G21
   1513677.144 9   1179489.035 9  20356735.846    20356735.738    20356736.276
       247.000         251.000
  -3394099.492 4  -2644737.993 4  23975937.327    23975937.750    23975944.410
        25.000           9.000
 -18944187.702 6 -14761642.312 6  21504453.370    21504453.327    21504455.351
       120.000         114.000
  -5947004.515 4  -4634013.559 4  23289045.024    23289044.815    23289050.578
        33.000          34.000
 -23464403.886 8 -18283883.728 9  20259607.859    20259607.889    20259606.979
       183.000         413.000
  -3849719.265 4  -2999751.685 4  23488787.985    23488788.299    23488792.266
        31.000          26.000
   -724296.787 4   -564391.545 4  24204404.810    24204404.622    24204413.789
        21.000          20.000
 -19663548.099 9 -15322178.104 8  20870546.102    20870545.800    20870546.411
       213.000         211.000
 -17613083.487 9 -13724441.993 7  21294275.018    21294274.938    21294276.531
       218.000         148.000
 -18236551.384 8 -14210242.466 7  21487268.149    21487268.224    21487269.677
       205.000         146.000
 01  3 31  1 57  0.0000000  0 10G15G14G17G31G18G26G28G23G 3G21
   1550332.525 9   1208051.673 9  20363710.948    20363710.843    20363711.712
       255.000         257.000
  -3508571.434 4  -2733936.485 4  23954154.642    23954154.514    23954160.102
        17.000          10.000
 -18879257.222 6 -14711047.179 6  21516809.238    21516809.075    21516811.429
       121.000         118.000
  -6030557.700 4  -4699119.748 4  23273145.973    23273145.690    23273150.233
        42.000          31.000
 -23447837.465 8 -18270974.825 9  20262760.397    20262760.434    20262759.379
       187.000         408.000
  -3758554.227 4  -2928713.830 4  23506136.614    23506136.937    23506140.056
        30.000          23.000
   -663633.418 4   -517121.597 4  24215948.208    24215948.352    24215957.564
        19.000          21.000
 -19630804.773 8 -15296663.852 9  20876776.792    20876776.599    20876777.225
       212.000         213.000
 -17631577.114 9 -13738852.584 7  21290755.421    21290755.403    21290757.407
       218.000         150.000
 -18290340.163 8 -14252155.715 7  21477032.647    21477032.562    21477033.856
       207.000         145.000
 01  3 31  1 57 30.0000000  0 10G15G14G17G31G18G26G28G23G 3G21
   1587389.386 9   1236927.142 9  20370762.687    20370762.452    20370763.317
       244.000         252.000
  -3622934.057 4  -2823049.783 4  23932391.871    23932391.708    23932397.369
        16.000          12.000
 -18814001.584 6 -14660198.672 6  21529227.467    21529227.147    21529228.924
       120.000         113.000
  -6113721.912 5  -4763922.861 4  23257318.711    23257318.878    23257325.306
        45.000          37.000
 -23430835.839 8 -18257726.813 9  20265995.933    20265995.751    20265994.647
       186.000         406.000
  -3667017.702 4  -2857386.494 4  23523554.951    23523554.914    23523559.144
        30.000          25.000
   -602597.574 4   -469561.411 4  24227563.534    24227563.215    24227572.291
        19.000          19.000
 -19597735.350 9 -15270895.506 9  20883069.714    20883069.509    20883070.180
       219.000         214.000
 -17649484.187 9 -13752806.124 7  21287347.879    21287347.898    21287349.537
       213.000         143.000
 -18343832.018 8 -14293837.601 7  21466853.400    21466853.294    21466854.567
       199.000         147.000
 01  3 31  1 58  0.0000000  0 11G15G14G17G31G18G29G26G28G23G 3G21
   1624847.526 9   1266115.296 9  20377890.817    20377890.620    20377891.349
       242.000         253.000
  -3737184.917 4  -2912076.028 4  23910650.513    23910650.299    23910656.466
        24.000          11.000
 -18748421.207 6 -14609097.118 6  21541706.923    21541706.786    21541708.661
       124.000         116.000
  -6196494.382 4  -4828420.690 4  23241568.224    23241568.019    23241573.681
        41.000          32.000
 -23413400.394 8 -18244140.750 9  20269313.535    20269313.597    20269312.611
       185.000         399.000
   -238794.464 4   -186071.715 4  24456353.109    24456352.626    24456363.433
        14.000          10.000
  -3575112.999 4  -2785772.422 4  23541043.494    23541043.545    23541048.025
        31.000          28.000
   -541192.248 4   -421713.292 4  24239248.951    24239248.586    24239257.900
        17.000          18.000
 -19564341.039 9 -15244873.988 9  20889424.507    20889424.268    20889424.983
       221.000         215.000
 -17666803.898 9 -13766301.984 7  21284052.020    21284052.123    21284053.664
       223.000         150.000
 -18397026.423 8 -14335287.710 7  21456730.736    21456730.659    21456732.096
       204.000         150.000
 01  3 31  1 58 30.0000000  0 11G15G14G17G31G18G29G26G28G23G 3G21
   1662706.694 9   1295615.932 9  20385095.197    20385094.995    20385095.727
       252.000         250.000
  -3851321.579 4  -3001013.261 4  23888930.473    23888930.367    23888936.353
        19.000          12.000
 -18682516.690 6 -14557742.993 6  21554247.789    21554247.698    21554249.796
       118.000         112.000
  -6278872.584 5  -4892611.332 4  23225892.350    23225892.047    23225897.155
        47.000          31.000
 -23395532.489 8 -18230217.688 9  20272713.718    20272713.712    20272712.825
       188.000         413.000
   -350656.685 4   -273236.466 4  24435065.108    24435065.222    24435076.311
        20.000          11.000
  -3482842.602 4  -2713873.335 4  23558602.528    23558602.684    23558605.785
        30.000          23.000
   -479420.379 4   -373579.561 4  24251002.489    24251003.370    24251012.240
        15.000          14.000
 -19530623.103 8 -15218600.299 8  20895840.911    20895840.651    20895841.303
       212.000         209.000
 -17683535.490 9 -13779339.573 7  21280867.889    21280867.961    21280869.873
       223.000         153.000
 -18449922.943 8 -14376505.700 7  21446664.845    21446664.700    21446666.139
       208.000         153.000
 01  3 31  1 59  0.0000000  0 11G15G14G17G31G18G29G26G28G23G 3G21
   1700966.735 9   1325428.938 9  20392375.885    20392375.689    20392376.348
       250.000         246.000
  -3965341.190 4  -3089859.306 4  23867232.846    23867232.865    23867239.120
        24.000          11.000
 -18616288.394 6 -14506136.565 6  21566851.189    21566850.826    21566852.635
       119.000         109.000
  -6360854.085 5  -4956492.842 4  23210291.067    23210291.002    23210296.589
        43.000          38.000
 -23377232.930 8 -18215958.274 9  20276195.729    20276195.870    20276195.092
       189.000         407.000
   -462469.393 4   -360362.664 4  24413787.753    24413788.213    24413798.255
        22.000          10.000
  -3390209.473 4  -2641691.498 4  23576229.429    23576229.699    23576233.296
        31.000          27.000
   -417284.593 4   -325162.237 4  24262827.242    24262827.545    24262836.914
        18.000          15.000
 -19496582.856 9 -15192075.468 8  20902318.549    20902318.219    20902319.003
       215.000         211.000
 -17699678.441 9 -13791918.484 7  21277796.153    21277796.118    21277798.071
       223.000         153.000
 -18502521.501 8 -14417491.513 7  21436655.911    21436655.684    21436656.843
       210.000         156.000
 01  3 31  1 59 30.0000000  0 11G15G14G17G31G18G29G26G28G23G 3G21
   1739627.250 9   1355554.002 9  20399732.832    20399732.582    20399733.234
       249.000         244.000
  -4079240.966 4  -3178611.996 4  23845556.963    23845557.532    23845563.997
        25.000          11.000
 -18549737.057 6 -14454278.429 6  21579515.022    21579514.791    21579516.890
       110.000         106.000
  -6442436.044 5  -5020063.016 4  23194766.415    23194766.328    23194771.430
        46.000          29.000
 -23358502.748 8 -18201363.319 9  20279759.795    20279759.965    20279759.272
       190.000         405.000
   -574230.255 4   -447448.475 4  24392520.258    24392520.101    24392530.544
        18.000          11.000
  -3297216.606 4  -2569229.380 4  23593926.094    23593926.065    23593929.286
        29.000          28.000
   -354787.470 4   -276463.369 4  24274719.948    24274720.343    24274729.836
        17.000          11.000
 -19462221.455 9 -15165300.395 9  20908857.262    20908856.918    20908857.787
       220.000         214.000
 -17715231.872 9 -13804038.023 7  21274836.716    21274836.618    21274838.259
       221.000         151.000
 -18554821.511 9 -14458244.695 7  21426703.310    21426703.204    21426704.348
       216.000         150.000
                            4 16
RINEX FILE SPLICE                                           COMMENT
teqc  2000Jul20     WCDA Data collecting20010331 03:12:10UTCCOMMENT
STATION INFORMATION EFFECTIVE FROM: 2000/03/15 18:18:00     COMMENT
                                TO: CURRENT DATE (above)    COMMENT
BIT 2 OF LLI FLAGS (+4) DATA COLLECTED UNDER 'AS' CONDITION COMMENT
L1 PHASE CENTRE 0.110m ABOVE ARP                            COMMENT
L2 PHASE CENTRE 0.128m ABOVE ARP                            COMMENT
where ARP is the Antenna Reference Point for HI measurement COMMENT
CONTACT gpsop@pgc.nrcan.gc.ca FOR ADDITIONAL INFORMATION    COMMENT
    P1 =    P1  TurboRogue; =    Y1  Benchmark              COMMENT
    L1 = L1(CA)                                             COMMENT
    P2 =    P2  TurboRogue; =    Y2  Benchmark              COMMENT
    L2 = L2(P2) TurboRogue; = L2(Y2) Benchmark              COMMENT
 SNR is mapped to RINEX snr flag value [1,4-9]              COMMENT
    SNR:   >316  >100  >31.6  >10  >3.2    >0 bad=0         COMMENT
L1 & L2:      9     8     7     6     5     4     1         COMMENT
 01  3 31  2  0  0.0000000  0 11G15G14G17G31G18G29G26G28G23G 3G21
   1778688.070 9   1385990.999 9  20407165.556    20407165.403    20407166.193
       243.000         239.000
  -4193018.610 4  -3267269.508 4  23823906.646    23823906.492    23823912.474
        24.000          12.000
 -18482863.171 6 -14402168.948 6  21592241.014    21592240.666    21592242.373
       106.000         102.000
  -6523616.086 5  -5083320.019 4  23179318.336    23179318.057    23179323.063
        47.000          26.000
 -23339343.130 8 -18186433.743 9  20283406.079    20283406.122    20283405.208
       192.000         399.000
   -685936.831 4   -534492.009 4  24371262.679    24371262.711    24371272.344
        19.000          10.000
  -3203867.024 4  -2496489.399 4  23611688.118    23611688.688    23611692.817
        30.000          23.000
   -291931.936 4   -227485.216 4  24286681.908    24286682.007    24286690.589
        20.000           8.000
 -19427540.183 8 -15138276.053 8  20915456.882    20915456.588    20915457.431
       210.000         210.000
 -17730194.858 9 -13815697.481 7  21271989.213    21271989.235    21271990.792
       226.000         153.000
 -18606822.694 9 -14498765.027 7  21416807.771    21416807.657    21416808.920
       216.000         157.000
 01  3 31  2  0 30.0000000  0 11G15G14G17G31G18G29G26G28G23G 3G21
   1818148.861 9   1416739.668 9  20414674.651    20414674.423    20414675.246
       246.000         246.000
  -4306671.396 4  -3355829.720 4  23802278.309    23802277.896    23802284.591
        24.000          14.000
 -18415667.352 6 -14349808.610 6  21605027.261    21605027.212    21605029.726
       100.000         112.000
  -6604391.807 4  -5146261.972 4  23163946.040    23163946.143    23163952.018
        39.000          30.000
 -23319755.037 8 -18171170.298 9  20287133.620    20287133.755    20287132.694
       196.000         400.000
   -797586.810 4   -621491.438 4  24350016.146    24350015.925    24350026.270
        21.000          14.000
  -3110163.234 4  -2423473.279 4  23629519.411    23629520.254    23629524.320
        28.000          30.000
   -228720.556 4   -178229.797 4  24298711.404    24298711.393    24298719.582
        21.000           9.000
 -19392540.322 8 -15111003.440 8  20922117.389    20922117.060    20922117.695
       212.000         206.000
 -17744566.932 9 -13826896.485 7  21269254.026    21269254.066    21269255.943
       224.000         152.000
 -18658524.597 9 -14539052.162 7  21406969.376    21406969.247    21406970.443
       223.000         160.000
 01  3 31  2  1  0.0000000  0 11G15G14G17G31G18G29G26G28G23G 3G21
   1858009.175 9   1447799.650 9  20422259.999    20422259.829    20422260.533
       242.000         240.000
  -4420196.476 4  -3444290.449 4  23780676.167    23780675.744    23780680.995
        29.000          14.000
 -18348150.158 6 -14297197.862 6  21617876.197    21617875.802    21617877.856
       105.000         106.000
  -6684760.720 5  -5208886.922 4  23148652.665    23148652.846    23148658.139
        44.000          35.000
 -23299739.473 8 -18155573.760 9  20290942.419    20290942.496    20290941.569
       191.000         399.000
   -909177.581 4   -708444.740 4  24328780.155    24328780.420    24328790.736
        17.000          11.000
  -3016108.431 4  -2350183.703 4  23647417.716    23647417.990    23647421.686
        28.000          19.000
   -165156.340 4   -128699.457 4  24310806.879    24310806.172    24310815.866
        15.000          12.000
 -19357223.168 9 -15083483.590 8  20928837.782    20928837.575    20928838.277
       220.000         206.000
 -17758347.507 9 -13837634.577 7  21266632.113    21266632.119    21266633.512
       233.000         151.000
 -18709927.494 9 -14579106.307 7  21397187.487    21397187.424    21397188.701
       219.000         157.000
 01  3 31  2  1 30.0000000  0 11G15G14G17G31G18G29G26G28G23G 3G21
   1898268.864 9   1479170.846 9  20429920.987    20429920.828    20429921.685
       245.000         238.000
  -4533591.128 4  -3532649.566 4  23759096.433    23759096.713    23759102.668
        24.000          15.000
 -18280312.348 6 -14244337.284 6  21630784.557    21630784.408    21630786.931
        99.000         105.000
  -6764720.025 4  -5271192.679 4  23133438.146    23133437.622    23133442.293
        40.000          37.000
 -23279297.713 8 -18139645.120 9  20294832.273    20294832.255    20294831.480
       187.000         404.000
  -1020706.975 4   -795350.240 4  24307556.967    24307556.687    24307566.418
        18.000          16.000
  -2921705.587 4  -2276622.899 4  23665382.975    23665383.127    23665386.135
        26.000          23.000
   -101241.856 4    -78896.103 4  24322970.316    24322969.732    24322978.280
        14.000          10.000
 -19321589.991 9 -15055717.490 8  20935618.755    20935618.420    20935619.010
       216.000         203.000
 -17771535.646 9 -13847911.033 7  21264122.669    21264122.655    21264123.876
       237.000         149.000
 -18761030.355 9 -14618926.667 7  21387462.865    21387462.781    21387463.951
       226.000         158.000
 01  3 31  2  2  0.0000000  0 11G15G14G17G31G18G29G26G28G23G 3G21
   1938927.320 9   1510852.770 9  20437658.217    20437658.002    20437658.759
       245.000         241.000
  -4646852.914 4  -3620905.134 4  23737543.435    23737543.550    23737549.267
        25.000          14.000
 -18212154.321 6 -14191227.178 6  21643755.298    21643755.008    21643757.028
       104.000         103.000
  -6844266.959 5  -5333177.116 4  23118300.701    23118300.300    23118304.511
        46.000          31.000
 -23258430.730 8 -18123385.123 9  20298803.180    20298803.160    20298802.347
       187.000         392.000
  -1132172.626 4   -882206.076 4  24286345.638    24286345.248    24286354.905
        15.000          12.000
  -2826957.461 4  -2202793.130 4  23683411.791    23683411.846    23683416.078
        25.000          28.000
    -36979.766 4    -28821.930 4  24335198.910    24335198.766    24335207.414
        20.000           9.000
 -19285642.040 9 -15027706.098 8  20942459.508    20942459.124    20942459.726
       216.000         200.000
 -17784130.987 9 -13857725.576 7  21261725.140    21261725.259    21261726.953
       231.000         148.000
 -18811833.152 9 -14658513.205 7  21377795.504    21377795.382    21377796.418
       223.000         157.000
 01  3 31  2  2 30.0000000  0 11G15G14G17G31G18G29G26G28G23G 3G21
   1979984.403 9   1542845.312 9  20445471.155    20445470.987    20445471.593
       246.000         240.000
  -4759978.986 4  -3709054.991 4  23716015.643    23716015.882    23716021.850
        24.000          17.000
 -18143676.729 6 -14137868.059 6  21656785.715    21656785.672    21656787.900
       103.000          99.000
  -6923399.218 4  -5394838.449 4  23103240.284    23103240.356    23103245.900
        38.000          33.000
 -23237139.767 8 -18106794.797 9  20302854.604    20302854.672    20302853.873
       188.000         394.000
  -1243572.088 4   -969010.348 4  24265146.631    24265146.487    24265155.621
        15.000          12.000
  -2731867.157 4  -2128696.797 4  23701507.082    23701507.353    23701510.929
        29.000          24.000
     27626.999 4     21520.807 4  24347492.053    24347492.221    24347501.105
        20.000          11.000
 -19249380.572 9 -14999450.398 8  20949359.542    20949359.254    20949360.068
       227.000         202.000
 -17796132.760 9 -13867077.589 7  21259441.463    21259441.435    21259443.036
       227.000         149.000
 -18862335.878 9 -14697865.924 7  21368184.960    21368184.906    21368186.008
       214.000         160.000
 01  3 31  2  3  0.0000000  0 11G15G14G17G31G18G29G26G28G23G 3G21
   2021439.836 9   1575148.241 9  20453359.828    20453359.611    20453360.271
       252.000         240.000
  -4872966.703 4  -3797097.018 4  23694515.290    23694515.255    23694520.586
        30.000          14.000
 -18074880.205 6 -14084260.423 6  21669877.586    21669877.386    21669879.796
       107.000         102.000
  -7002114.397 4  -5456174.777 4  23088261.464    23088261.444    23088266.926
        35.000          40.000
 -23215426.045 8 -18089875.021 9  20306986.456    20306986.587    20306985.871
       185.000         391.000
  -1354902.833 4  -1055761.081 4  24243960.021    24243960.899    24243969.877
        17.000          11.000
  -2636437.174 4  -2054335.627 4  23719666.729    23719666.704    23719670.725
        24.000          23.000
     92575.588 4     72129.924 4  24359852.291    24359852.205    24359861.430
        19.000           8.000
 -19212806.900 9 -14970951.404 8  20956319.354    20956319.092    20956319.718
       221.000         202.000
 -17807540.328 9 -13875966.588 7  21257270.775    21257270.779    21257272.388
       230.000         153.000
 -18912537.870 9 -14736984.303 7  21358632.088    21358631.904    21358632.749
       222.000         161.000
 01  3 31  2  3 30.0000000  0 11G15G14G17G31G18G29G26G28G23G 3G21
   2063293.396 9   1607761.407 9  20461324.299    20461324.122    20461324.857
       234.000         235.000
  -4985813.434 4  -3885029.213 4  23673040.885    23673040.792    23673045.945
        28.000          16.000
 -18005765.529 6 -14030404.884 6  21683029.515    21683029.387    21683031.656
       102.000          96.000
  -7080409.948 5  -5517184.135 5  23073363.395    23073362.987    23073368.219
        48.000          46.000
 -23193290.530 8 -18072626.575 9  20311198.887    20311198.880    20311198.135
       187.000         386.000
  -1466162.537 4  -1142456.476 4  24222787.926    24222788.499    24222797.624
        17.000          15.000
  -2540670.602 4  -1979712.196 4  23737891.761    23737891.209    23737894.392
        31.000          24.000
    157863.178 4    123003.184 4  24372276.051    24372276.061    24372285.475
        23.000          10.000
 -19175922.406 9 -14942210.221 8  20963338.341    20963338.112    20963338.520
       222.000         194.000
 -17818353.333 9 -13884392.298 7  21255213.336    21255213.293    21255214.729
       240.000         154.000
 -18962438.894 9 -14775868.157 7  21349135.971    21349135.918    21349137.000
       219.000         163.000
 01  3 31  2  4  0.0000000  0 11G15G14G17G31G18G29G26G28G23G 3G21
   2105544.721 9   1640684.511 9  20469364.215    20469364.152    20469365.038
       245.000         236.000
  -5098516.502 4  -3972849.473 4  23651593.068    23651593.736    23651599.283
        33.000          17.000
 -17936333.182 6 -13976301.798 6  21696242.754    21696242.295    21696244.151
       101.000          93.000
  -7158283.483 4  -5577864.626 5  23058543.645    23058543.376    23058549.201
        37.000          44.000
 -23170734.312 8 -18055050.305 9  20315491.361    20315491.326    20315490.386
       191.000         387.000
  -1577348.812 4  -1229094.630 4  24201629.516    24201630.063    24201639.171
        16.000          15.000
  -2444570.164 4  -1904828.466 4  23756177.875    23756178.039    23756181.224
        30.000          19.000
    223487.113 4    174138.476 4  24384763.347    24384763.865    24384773.849
        21.000          13.000
 -19138728.180 9 -14913227.679 8  20970416.027    20970415.816    20970416.412
       225.000         200.000
 -17828571.428 9 -13892354.435 7  21253269.088    21253268.890    21253270.263
       236.000         155.000
 -19012038.975 9 -14814517.510 7  21339697.200    21339697.130    21339698.447
       217.000         166.000
 01  3 31  2  4 30.0000000  0 11G15G14G17G31G18G29G26G28G23G 3G21
   2148193.445 9   1673917.274 9  20477480.208    20477480.079    20477480.737
       244.000         236.000
  -5211073.414 4  -4060555.848 4  23630173.571    23630174.073    23630180.235
        32.000          17.000
 -17866583.822 6 -13921951.692 6  21709515.406    21709515.156    21709517.132
        97.000          96.000
  -7235732.204 5  -5638214.131 4  23043805.294    23043805.180    23043810.699
        53.000          38.000
 -23147758.668 8 -18037147.221 9  20319863.372    20319863.400    20319862.463
       194.000         374.000
  -1688459.246 4  -1315673.680 4  24180486.113    24180486.652    24180495.083
        23.000          16.000
  -2348138.759 4  -1829686.757 4  23774527.348    23774527.570    23774530.981
        25.000          23.000
    289444.456 4    225533.648 4  24397314.879    24397315.090    24397325.337
        20.000          11.000
 -19101225.538 9 -14884004.841 8  20977552.650    20977552.277    20977552.968
       221.000         194.000
 -17838193.758 9 -13899852.342 7  21251437.523    21251437.519    21251439.155
       230.000         152.000
 -19061337.999 9 -14852932.262 7  21330315.944    21330315.845    21330317.013
       218.000         167.000
 01  3 31  2  5  0.0000000  0 11G15G14G17G31G18G29G26G28G23G 3G21
   2191239.212 9   1707459.422 9  20485671.577    20485671.376    20485671.992
       244.000         230.000
  -5323481.210 4  -4148146.034 4  23608782.708    23608783.550    23608789.219
        30.000          19.000
 -17796517.978 6 -13867354.978 6  21722848.486    21722848.275    21722850.047
       105.000          92.000
  -7312753.848 5  -5698230.835 4  23029148.637    23029148.650    23029153.478
        45.000          34.000
 -23124364.621 8 -18018918.092 9  20324314.976    20324315.060    20324314.219
       195.000         382.000
  -1799491.583 4  -1402191.921 4  24159357.661    24159357.779    24159365.437
        19.000          13.000
  -2251379.724 4  -1754289.793 4  23792939.602    23792939.850    23792943.459
        26.000          21.000
    355732.545 4    277186.530 4  24409928.959    24409929.110    24409939.571
        14.000          15.000
 -19063415.816 9 -14854542.734 8  20984747.234    20984747.063    20984747.913
       223.000         194.000
 -17847219.844 9 -13906885.650 7  21249720.236    21249720.113    21249721.537
       237.000         155.000
 -19110335.560 9 -14891112.120 7  21320991.812    21320991.717    21320992.947
       213.000         168.000
