     2.10           OBSERVATION DATA    G                   RINEX VERSION / TYPE
Alloy 6.23          SMO                 20250420 010310 UTC PGM / RUN BY / DATE 
gfzrnx-2.1.12       FILE CONVERSION     20250424 060535 UTC COMMENT             
INITIAL_RINEX_VERSION: 3.02                                 COMMENT             
HKQT                                                        MARKER NAME         
23013M001                                                   MARKER NUMBER       
SMO                 Lands Department HKSAR                  OBSERVER / AGENCY   
6246R40050          TRIMBLE ALLOY       6.23                REC # / TYPE / VERS 
4624A16997          TRM59800.00     SCIT                    ANT # / TYPE        
        0.0083        0.0000        0.0000                  ANTENNA: DELTA H/E/N
 -2421567.8914  5384910.5629  2404264.3941                  APPROX POSITION XYZ 
                                                            COMMENT             
*********************************************************** COMMENT             
*                 WARNING - FORMAT CONVERSION             * COMMENT             
* ------------------------------------------------------- * COMMENT             
*  The data values: observation, loss of lock (LLI) and   * COMMENT             
*  signal strength (SSI) indicators are left as they are. * COMMENT             
*    The LLI meaning differs between versions 2 and 3     * COMMENT             
*    and the Interpretation of bit 1 and 2 has to be      * COMMENT             
*                   used with caution !!!                 * COMMENT             
*********************************************************** COMMENT             
                                                            COMMENT             
RINEX 3 -> 2 TYPE CONVERSION DETAILS:                       COMMENT             
-------------------------------------                       COMMENT             
   G C1C -> C1                                              COMMENT             
   G C2W -> P2                                              COMMENT             
   G C2X -> C2                                              COMMENT             
   G C5X -> C5                                              COMMENT             
   G L1C -> L1                                              COMMENT             
   G L2W -> L2                                              COMMENT             
   G L5X -> L5                                              COMMENT             
   G S1C -> S1                                              COMMENT             
   G S2W -> S2                                              COMMENT             
   G S5X -> S5                                              COMMENT             
-------------------------------------                       COMMENT             
                                                            COMMENT             
    10    C1    C2    C5    L1    L2    L5    P2    S1    S2# / TYPES OF OBSERV 
          S5                                                # / TYPES OF OBSERV 
    18                                                      LEAP SECONDS        
                                                            COMMENT             
EPOCH COUNT     m00  m10  m20  m30  m40  m50                COMMENT             
               ---- ---- ---- ---- ---- ----                COMMENT             
          A     120  120  120  120  120  120                COMMENT             
GFZRNX.NUM_EPOCHS: 720                                      COMMENT
    11                                                      # OF SATELLITES     
   G01   720   720   720   720   720   720   720   720   720PRN / # OF OBS      
         720                                                PRN / # OF OBS      
   G02   720               720   720         720   720   720PRN / # OF OBS      
                                                            PRN / # OF OBS      
   G04   451   451   451   447   447   451   448   451   448PRN / # OF OBS      
         451                                                PRN / # OF OBS      
   G07   720   720         720   720         720   720   720PRN / # OF OBS      
                                                            PRN / # OF OBS      
   G08   720   720   720   720   720   720   720   720   720PRN / # OF OBS      
         720                                                PRN / # OF OBS      
   G09   720   720   720   720   720   720   720   720   720PRN / # OF OBS      
         720                                                PRN / # OF OBS      
   G14   160   160   160   157   152   160   152   160   152PRN / # OF OBS      
         160                                                PRN / # OF OBS      
   G16   720               718   704         706   720   706PRN / # OF OBS      
                                                            PRN / # OF OBS      
   G26   409   403   409   317   313   409   399   409   399PRN / # OF OBS      
         409                                                PRN / # OF OBS      
   G27   720   720   720   720   720   720   720   720   720PRN / # OF OBS      
         720                                                PRN / # OF OBS      
   G30   720   720   720   720   720   720   720   720   720PRN / # OF OBS      
         720                                                PRN / # OF OBS      
     5.000                                                  INTERVAL            
  2025     4    20     0     0    0.0000000     GPS         TIME OF FIRST OBS   
  2025     4    20     0    59   55.0000000     GPS         TIME OF LAST OBS    
                                                            END OF HEADER      
 25 04 20 00 00 00.0000000  0 10G01G02G04G07G08G09G16G26G27G30       0.000000000
  23039433.76606  23039446.20306  23039448.72707 121073020.38606  94342679.63003
  90411734.62907  23039445.93003        36.100          21.300          42.200  
  21118294.28907                                 110977282.46807  86475928.62506
                  21118301.75806        47.000          40.200                  
  22251537.65607  22251548.62507  22251550.67207 116932586.80207  91116335.63905
  87319820.77007  22251548.49605        42.700          32.000          47.100  
  22518249.18007  22518257.85507                 118334126.91607  92208514.92207
                  22518257.69907        43.800          42.600                  
  20105227.88308  20105238.62508  20105235.61708 105653627.29908  82327603.84708
  78897273.84608  20105238.03508        48.700          52.800          53.700  
  22069801.79707  22069813.44507  22069812.94508 115977492.74407  90372148.66107
  86606632.25408  22069813.42207        43.800          44.200          49.100  
  23470392.80506                                 123337714.80806  96107435.70503
                  23470404.12903        38.400          22.500                  
  25052085.10905  25052106.63705  25052105.73806 131649541.09905 102584143.36104
  98309780.40406  25052106.35204        32.300          24.000          40.400  
  22009670.34407  22009682.07807  22009679.71508 115661574.20407  90125983.59407
  86370716.94008  22009681.59007        43.000          43.100          48.300  
  25324460.55505  25324474.64805  25324473.82406 133080884.94605 103699482.55904
  99378664.89206  25324474.17204        33.300          24.200          41.700  
 25 04 20 00 00 05.0000000  0 10G01G02G04G07G08G09G16G26G27G30       0.000000000
  23036417.38306  23036429.21506  23036431.73407 121057165.95006  94330325.50203
  90399895.28907  23036428.85903        36.100          20.100          42.400  
  21116571.14807                                 110968226.86307  86468872.30206
                  21116578.55906        47.200          39.800                  
  22254099.14807  22254110.07007  22254112.09407 116946046.59107  91126823.76805
  87329871.89907  22254109.80105        42.600          32.300          47.500  
  22515456.87507  22515465.10507                 118319451.41707  92197079.47506
                  22515464.99606        43.700          41.900                  
  20106295.78908  20106306.71908  20106303.66408 105659239.60608  82331977.07008
  78901464.84808  20106306.01608        48.700          52.900          53.200  
  22071087.37507  22071099.13707  22071098.50808 115984248.81707  90377413.12007
  86611677.36508  22071099.17607        43.800          44.000          49.200  
  23472110.14806                                 123346738.25806  96114466.89003
                  23472121.31603        38.400          23.900                  
  25053913.00805  25053934.05905  25053933.74206 131659146.87705 102591628.27404
  98316953.48406  25053934.31304        33.800          24.600          40.700  
  22012493.25007  22012504.87907  22012502.72708 115676408.94207  90137543.11707
  86381794.81608  22012504.61707        43.000          43.600          48.300  
  25321228.97705  25321243.05505  25321243.04306 133063906.66805 103686252.70904
  99365986.28606  25321243.23404        33.600          24.700          41.600  
 25 04 20 00 00 10.0000000  0 10G01G02G04G07G08G09G16G26G27G30       0.000000000
  23033400.72706  23033412.56606  23033415.17207 121041313.32606  94317972.81603
  90388057.32007  23033412.17203        36.300          20.600          43.000  
  21114850.48407                                 110959184.24607  86461826.10206
                  21114857.81306        47.000          39.600                  
  22256661.48407  22256672.53507  22256674.48407 116959511.85807  91137316.16605
  87339927.08607  22256672.12505        42.700          32.100          47.300  
  22512664.87507  22512673.36707                 118304780.16907  92185647.34706
                  22512673.19106        43.800          41.600                  
  20107365.80508  20107376.72308  20107373.78908 105664862.89908  82336358.84908
  78905664.05508  20107376.12908        48.500          52.800          53.300  
  22072375.18007  22072386.93007  22072386.23408 115991016.13607  90382686.34607
  86616730.86608  22072386.94507        43.900          43.900          49.300  
  23473827.36706                                 123355761.69506  96121498.10503
                  23473838.50803        38.300          22.800                  
  25055741.20305  25055762.38305  25055762.41007 131668753.72905 102599114.10904
  98324127.36107  25055762.38304        34.200          25.600          42.000  
  22015316.95307  22015328.86707  22015326.53108 115691247.96807  90149105.97507
  86392875.88208  22015328.45707        42.600          42.800          48.300  
  25317997.67205  25318012.10205  25318011.81306 133046927.20905 103673021.96504
  99353306.83406  25318012.15204        31.700          24.400          41.800  
 25 04 20 00 00 15.0000000  0 10G01G02G04G07G08G09G16G26G27G30       0.000000000
  23030384.40606  23030396.24206  23030398.75807 121025462.51206  94305621.54403
  90376220.67807  23030395.92203        36.500          21.800          43.100  
  21113132.09407                                 110950154.58107  86454790.01706
                  21113139.56306        47.000          40.400                  
  22259224.76607  22259235.75007  22259237.91007 116972982.48107  91147812.72905
  87349986.29707  22259235.57805        42.600          32.200          46.800  
  22509873.81307  22509882.25807                 118290113.07707  92174218.45206
                  22509882.18806        43.800          41.700                  
  20108437.91408  20108448.90208  20108445.87108 105670497.14008  82340749.16708
  78909871.43308  20108448.28508        48.700          52.900          53.500  
  22073665.25007  22073676.63707  22073676.10508 115997794.60607  90387968.25707
  86621792.69708  22073676.78507        43.900          43.900          48.800  
  23475544.69506                                 123364785.01606  96128529.26903
                  23475555.65203        39.200          22.000                  
  25057569.18005  25057590.38305  25057590.61306 131678361.52705 102606600.66104
  98331301.99706  25057590.65604        34.500          26.000          41.200  
  22018141.64107  22018153.39807  22018151.07008 115706091.18007  90160672.10307
  86403960.07708  22018152.98007        43.000          43.200          48.300  
  25314766.60205  25314781.25805  25314780.60907 133029946.62005 103659790.33503
  99340626.52507  25314780.90603        32.100          22.600          42.400  
 25 04 20 00 00 20.0000000  0 10G01G02G04G07G08G09G16G26G27G30       0.000000006
  23027368.27306  23027380.17606  23027382.77307 121009612.80906  94293271.10603
  90364384.87107  23027379.83203        36.400          21.700          43.000  
  21111416.20307                                 110941137.24807  86447763.52306
                  21111423.62106        47.000          39.500                  
  22261789.01607  22261800.06607  22261802.13707 116986457.82507  91158312.98205
  87360049.03007  22261799.90205        43.200          31.700          46.900  
  22507083.28907  22507091.74607                 118275449.54707  92162792.32607
                  22507091.80107        43.800          42.100                  
  20109512.20308  20109522.99208  20109520.06608 105676141.66108  82345147.48108
  78914086.49208  20109522.41808        48.800          52.900          53.200  
  22074957.28107  22074968.90207  22074967.92608 116004583.58307  90393258.35707
  86626862.37508  22074968.60907        44.600          44.000          49.800  
  23477262.59406                                 123373807.62306  96135559.84703
                  23477272.52003        39.200          23.000                  
  25059397.89805  25059418.65605  25059419.12507 131687969.72905 102614087.55103
  98338476.86807  25059418.96103        33.700          23.900          42.100  
  22020966.93807  22020978.65207  22020976.31608 115720937.94607  90172240.98007
  86415046.93008  22020978.31607        43.000          43.100          48.300  
  25311535.18004  25311549.56605  25311548.80106 133012964.19304 103646557.30803
  99327944.89906  25311549.17203        29.900          22.800          39.900  
 25 04 20 00 00 25.0000000  0 10G01G02G04G07G08G09G16G26G27G30       0.000000029
  23024351.15606  23024363.05506  23024365.73407 120993758.58006  94280917.16003
  90352545.66307  23024362.82003        36.700          22.600          43.100  
  21109701.52307                                 110932126.52807  86440742.18806
                  21109708.96506        47.200          39.900                  
  22264352.97707  22264364.22707  22264366.32407 116999932.16207  91168812.43105
  87370111.01507  22264364.10905        43.500          32.000          47.200  
  22504292.85207  22504301.13307                 118260783.90107  92151364.55007
                  22504300.98807        43.800          42.000                  
  20110587.26608  20110598.18408  20110595.05108 105681790.75108  82349549.35608
  78918304.95608  20110597.43808        48.800          52.800          53.600  
  22076249.83607  22076261.46107  22076260.75408 116011377.35607  90398552.20207
  86631935.63908  22076261.50407        44.100          44.000          48.800  
  23478978.13306                                 123382823.81106  96142585.43103
                  23478988.34003        40.000          22.900                  
  25061225.43005  25061246.50005  25061246.75807 131697572.56105 102621570.23804
  98345647.77107  25061246.19504        33.400          25.100          42.600  
  22023791.59407  22023803.31607  22023801.18808 115735782.52307  90183808.18107
  86426132.13508  22023803.16007        42.800          42.700          48.000  
  25308301.89805  25308316.26605  25308315.68406 132995974.31605 103633318.46103
  99315257.59106  25308316.16003        31.900          23.000          40.800  
 25 04 20 00 00 30.0000000  0 10G01G02G04G07G08G09G16G26G27G30       0.000000025
  23021335.25006  23021346.98806  23021349.53507 120977908.13606  94268566.20703
  90340709.30907  23021346.56603        36.700          22.300          43.300  
  21107989.76607                                 110923130.77207  86433732.51606
                  21107997.05906        47.100          40.000                  
  22266918.57007  22266929.50807  22266931.80507 117013413.79107  91179317.59005
  87380178.43307  22266929.57805        42.500          31.500          47.300  
  22501503.06307  22501511.62107                 118246124.43007  92139941.59507
                  22501511.34407        43.900          42.300                  
  20111664.77308  20111675.55908  20111672.55508 105687452.70008  82353961.26108
  78922533.02008  20111674.87908        48.700          52.900          53.700  
  22077545.21107  22077556.69907  22077556.10908 116018184.20307  90403856.23307
  86637018.66808  22077556.82807        43.300          43.700          48.700  
  23480694.15606                                 123391841.87306  96149612.48503
                  23480704.47303        39.500          23.900                  
  25063052.94505  25063074.22305  25063074.45306 131707178.46605 102629055.19204
  98352820.93306  25063074.09404        33.400          25.600          41.400  
  22026617.64807  22026629.51207  22026627.28508 115750633.21407  90195380.12607
  86437221.92208  22026629.16007        42.900          42.800          48.200  
  25305069.46905  25305083.23805  25305082.75406 132978985.24005 103620080.14403
  99302570.96906  25305083.29303        31.000          22.200          39.900  
 25 04 20 00 00 35.0000000  0 10G01G02G04G07G08G09G16G26G27G30       0.000000023
  23018319.26606  23018331.05906  23018333.75007 120962060.19706  94256217.18003
  90328874.82607  23018330.83203        36.400          22.600          43.400  
  21106280.47707                                 110914148.72107  86426733.52006
                  21106287.87106        47.000          40.100                  
  22269485.25007  22269496.32807  22269498.41007 117026901.42807  91189827.41705
  87390250.35507  22269496.19105        42.400          32.100          47.300  
  22498714.58607  22498722.94107                 118231469.91307  92128522.49707
                  22498722.64107        43.800          42.400                  
  20112744.28108  20112755.35208  20112752.14508 105693126.23108  82358382.19308
  78926769.73908  20112754.55108        48.800          52.700          53.500  
  22078842.83607  22078854.23807  22078853.69108 116025002.86107  90409169.45907
  86642110.51008  22078854.37107        43.800          43.700          48.900  
  23482410.30506                                 123400860.54606  96156639.99303
                  23482420.84803        39.600          22.600                  
  25064880.89105  25064902.73805  25064902.86706 131716785.92205 102636541.56003
  98359995.27706  25064902.44903        31.800          23.200          41.800  
  22029444.65607  22029456.39507  22029454.17608 115765488.76707  90206955.86407
  86448315.32908  22029456.09407        42.500          42.700          48.100  
  25301836.24205  25301850.91406  25301849.56606 132961995.64905 103606841.60304
  99289883.92606  25301850.37504        33.400          28.200          41.400  
 25 04 20 00 00 40.0000000  0 10G01G02G04G07G08G09G16G26G27G30       0.000000019
  23015304.01606  23015315.86706  23015318.42207 120946214.70506  94243870.05303
  90317042.16207  23015315.47703        37.000          22.800          43.700  
  21104573.94507                                 110905180.27807  86419745.12406
                  21104581.14506        46.900          39.200                  
  22272052.89107  22272064.12507  22272066.16407 117040394.96507  91200341.83605
  87400326.66907  22272063.85905        42.600          31.900          47.200  
  22495926.82807  22495935.13707                 118216820.23007  92117107.16207
                  22495934.94107        44.100          42.700                  
  20113825.93008  20113836.85908  20113833.99209 105698811.24008  82362812.07208
  78931015.04409  20113836.33608        48.700          52.800          54.100  
  22080142.45307  22080154.09807  22080153.48808 116031833.23207  90414491.81507
  86647211.09408  22080154.16807        43.900          43.900          49.300  
  23484125.99206                                 123409879.80906  96163667.93603
                  23484137.20303        40.400          22.500                  
  25066709.50805  25066731.55505  25066731.29706 131726395.14605 102644029.14803
  98367170.92106  25066731.00403        32.800          22.800          40.600  
  22032272.49207  22032284.38707  22032282.11308 115780349.05007  90218535.28707
  86459412.26808  22032283.85507        42.800          43.000          48.500  
  25298603.22704  25298617.55905  25298616.42206 132945005.59804 103593602.47403
  99277196.62206  25298617.26203        27.500          22.200          40.600  
 25 04 20 00 00 45.0000000  0 10G01G02G04G07G08G09G16G26G27G30       0.000000017
  23012289.09406  23012300.85506  23012303.40607 120930371.57006  94231524.75603
  90305211.26607  23012300.66003        37.200          22.200          43.800  
  21102869.79707                                 110896225.36107  86412767.27106
                  21102877.12106        47.100          39.900                  
  22274621.78107  22274633.03907  22274634.89107 117053894.29107  91210860.76905
  87410407.30407  22274632.70305        43.000          32.400          46.800  
  22493139.88307  22493148.34407                 118202175.27507  92105695.51806
                  22493148.07006        44.100          41.900                  
  20114910.03108  20114920.82008  20114917.90608 105704507.64408  82367250.81208
  78935268.84408  20114920.29308        48.800          52.800          53.800  
  22081444.60907  22081456.25807  22081455.39508 116038675.17707  90419823.18507
  86652320.32208  22081456.27307        43.600          43.600          48.300  
  23485842.64806                                 123418899.48306  96170696.24603
                  23485853.61703        39.000          23.000                  
  25068538.69505  25068560.35905  25068560.40207 131736005.79005 102651518.00803
  98374347.64807  25068559.97703        34.100          22.800          42.300  
  22035100.92207  22035112.84007  22035110.72308 115795213.94907  90230118.30607
  86470512.67308  22035112.65207        42.600          42.500          48.200  
  25295370.36705  25295383.86305  25295383.48006 132928014.88605 103580363.04204
  99264508.67906  25295384.06604        31.900          25.300          40.200  
 25 04 20 00 00 50.0000000  0 10G01G02G04G07G08G09G16G26G27G30       0.000000015
  23009274.82006  23009286.60507  23009289.04707 120914530.81206  94219181.31603
  90293382.13407  23009286.19103        37.300          22.600          44.500  
  21101168.52307                                 110887284.02007  86405800.00006
                  21101175.62906        47.000          40.000                  
  22277191.89107  22277202.80507  22277204.99607 117067399.40207  91221384.21605
  87420492.28507  22277202.82005        43.100          32.800          47.200  
  22490353.97707  22490362.34807                 118187535.10807  92094287.60207
                  22490362.18007        44.100          42.200                  
  20115996.14808  20116007.22308  20116004.06608 105710215.41908  82371698.42608
  78939531.13408  20116006.48008        48.900          53.000          53.400  
  22082748.76607  22082760.28107  22082759.75408 116045528.74007  90425163.61207
  86657438.23208  22082760.47707        43.000          43.700          48.800  
  23487559.00006                                 123427919.65006  96177724.89203
                  23487570.16403        39.200          22.200                  
  25070368.29705  25070389.66405  25070389.52306 131745618.09805 102659008.05104
  98381525.56506  25070389.19104        35.200          25.600          41.200  
  22037930.69507  22037942.40207  22037940.34008 115810083.49307  90241704.94807
  86481616.53008  22037942.12507        42.900          43.300          48.300  
  25292136.37505  25292150.62505  25292150.05906 132911023.59905 103567123.06203
  99251820.42606  25292150.73003        32.500          21.700          40.600  
 25 04 20 00 00 55.0000000  0 10G01G02G04G07G08G09G16G26G27G30       0.000000013
  23006260.82006  23006272.46506  23006275.16007 120898692.35506  94206839.70903
  90281554.73207  23006272.25803        37.200          22.200          43.800  
  21099469.51607                                 110878356.14907  86398843.21306
                  21099476.75006        47.100          40.000                  
  22279762.71907  22279773.91807  22279776.02307 117080910.20207  91231912.08105
  87430581.48907  22279773.78105        42.900          32.700          47.400  
  22487568.93807  22487577.33607                 118172899.63507  92082883.32907
                  22487577.09007        44.100          42.700                  
  20117084.47708  20117095.59408  20117092.40208 105715934.46508  82376154.81708
  78943801.85308  20117094.78508        48.800          52.800          53.500  
  22084055.10207  22084066.62907  22084066.17208 116052393.77307  90430512.97307
  86662564.70508  22084066.82007        43.500          43.700          48.500  
  23489274.84406                                 123436940.11406  96184753.81303
                  23489286.65603        38.200          22.800                  
  25072197.28905  25072219.09805  25072219.39106 131755231.82005 102666499.11604
  98388704.60106  25072218.54704        34.200          24.800          41.500  
  22040760.88307  22040773.05107  22040770.86308 115824957.55607  90253295.09907
  86492723.75908  22040772.69107        42.800          43.000          48.800  
  25288902.83605  25288917.73406  25288916.35206 132894031.64305 103553882.60004
  99239131.60306  25288917.29304        32.900          26.300          39.400  
 25 04 20 00 01 00.0000000  0 10G01G02G04G07G08G09G16G26G27G30       0.000000010
  23003247.21106  23003259.01206  23003261.68807 120882856.44606  94194500.06003
  90269729.22807  23003258.84403        37.300          22.900          43.400  
  21097773.05507                                 110869442.03307  86391897.14906
                  21097780.44106        46.900          39.400                  
  22282334.96107  22282346.00407  22282347.98807 117094426.90607  91242444.55805
  87440675.11807  22282345.96105        43.000          31.500          47.100  
  22484785.03107  22484793.25007                 118158269.09007  92071482.92007
                  22484793.00407        44.100          42.200                  
  20118175.01608  20118185.99608  20118182.91808 105721665.02408  82380620.18308
  78948081.15008  20118185.31608        49.100          52.900          53.500  
  22085363.58607  22085375.21107  22085374.68808 116059270.52207  90435871.48107
  86667699.92908  22085375.30507        43.600          43.800          48.500  
  23490991.39806                                 123445961.25706  96191783.22303
                  23491003.33603        38.000          22.600                  
  25074027.47705  25074048.95305  25074049.29306                                
  98395884.88606  25074048.11303        31.900          22.200          41.100  
  22043592.53107  22043604.44107  22043602.19108 115839836.36307  90264888.96107
  86503834.53708  22043604.03507        42.800          42.800          48.400  
  25285670.03905  25285684.19506  25285682.83206 132877039.21305 103540641.77204
  99226442.44706  25285683.89504        32.400          26.300          39.700  
 25 04 20 00 01 05.0000000  0 10G01G02G04G07G08G09G16G26G27G30      -0.000000013
  23000235.65606  23000247.13706  23000249.79707 120867029.37506  94182167.24403
  90257910.31807  23000247.02703        37.300          22.300          44.000  
  21096080.68807                                 110860547.90807  86384966.66606
                  21096087.86306        46.500          39.900                  
  22284909.28907  22284920.59007  22284922.65607 117107955.75207  91252986.50005
  87450777.79207  22284920.53905        42.500          31.300          46.800  
  22482003.03107  22482011.39507                 118143649.75507  92060091.23107
                  22482011.07407        43.800          42.400                  
  20119268.84408  20119279.88308  20119276.77008 105727413.33808  82385099.37708
  78952373.72208  20119279.12908        48.500          52.500          53.700  
  22086675.76607  22086687.52307  22086686.65208 116066165.22107  90441243.95607
  86672848.57008  22086687.20307        42.700          43.400          48.800  
  23492709.59406                                 123454989.25206  96198818.01103
                  23492721.43403        38.100          23.200                  
  25075858.17205  25075879.31605  25075880.44506 131774470.60905 102681490.31903
  98403071.06706  25075879.23003        32.300          23.800          41.300  
  22046426.08607  22046437.92607  22046435.58608 115854726.16307  90276491.38507
  86514953.51508  22046437.55907        42.500          42.600          48.900  
  25282437.16405  25282451.47706  25282450.10906 132860052.62605 103527405.46004
  99213757.64006  25282451.45304        32.600          28.700          38.300  
 25 04 20 00 01 10.0000000  0 10G01G02G04G07G08G09G16G26G27G30      -0.000000013
  22997223.96106  22997235.48806  22997237.93407 120851202.23206  94169834.41404
  90246091.36107  22997235.15204        38.000          25.000          44.300  
  21094390.09407                                 110851664.88507  86378044.83806
                  21094397.44906        46.800          39.900                  
  22287484.68807  22287495.43007  22287497.61307 117121487.78907  91263530.93005
  87460882.85507  22287495.62905        42.900          31.500          47.000  
  22479221.37507  22479229.60507                 118129032.67807  92048701.31507
                  22479229.53107        43.900          42.000                  
  20120364.53108  20120375.41008  20120372.28908 105733170.46708  82389585.45208
  78956672.87008  20120374.64508        48.700          52.900          53.900  
  22087989.52307  22088001.12507  22088000.53108 116073068.97107  90446623.48907
  86678003.94008  22088000.90607        42.800          43.700          48.400  
  23494427.31306                                 123464015.14606  96205851.12703
                  23494438.93803        38.800          23.000                  
  25077690.12505  25077711.03505  25077711.39506 131784092.91705 102688988.19604
  98410256.54306  25077710.26604        31.900          25.000          41.700  
  22049259.59407  22049271.76207  22049269.44508 115869618.02907  90288095.40907
  86526074.04608  22049271.33207        42.600          42.800          48.900  
  25279204.02305  25279218.48406  25279217.25006 132843062.94405 103514166.78604
  99201070.57706  25279218.44104        31.600          24.700          39.200  
 25 04 20 00 01 15.0000000  0 10G01G02G04G07G08G09G16G26G27G30      -0.000000011
  22994212.37506  22994224.03906  22994226.44907 120835376.80806  94157502.93104
  90234273.69207  22994223.60504        37.500          24.600          44.500  
  21092702.05507                                 110842794.70607  86371133.00806
                  21092709.60206        46.800          39.600                  
  22290060.62507  22290071.64107  22290073.58607 117135024.83107  91274079.22905
  87470991.65307  22290071.58205        42.000          31.900          47.100  
  22476440.62507  22476448.78507                 118114419.73607  92037314.60607
                  22476448.84007        44.100          42.300                  
  20121461.93008  20121472.92208  20121469.90608 105738938.18408  82394079.76808
  78960979.91908  20121472.23008        49.000          52.900          53.500  
  22089305.18007  22089317.13707  22089316.23408 116079983.48107  90452011.41507
  86683167.35608  22089316.79307        43.300          43.800          48.700  
  23496145.14106                                 123473040.79706  96212884.11503
                  23496156.46103        39.400          22.900                  
  25079520.81305  25079542.25805  25079542.84407 131793716.17605 102696486.84003
  98417442.64707  25079541.54703        33.600          22.500          43.300  
  22052094.21107  22052106.43807  22052103.96908 115884513.72007  90299702.42607
  86537197.42908  22052105.95707        42.400          43.300          48.100  
  25275970.89105  25275985.63306  25275983.88306 132826071.96805 103500927.08704
  99188382.50606  25275985.20304        32.900          26.200          39.000  
 25 04 20 00 01 20.0000000  0 10G01G02G04G07G08G09G16G26G27G30      -0.000000010
  22991201.02306  22991212.84007  22991215.14807 120819553.11606  94145172.78703
  90222457.30107  22991212.39803        37.900          23.400          44.300  
  21091016.87507                                 110833937.40107  86364231.21206
                  21091024.05906        47.200          39.600                  
  22292637.56307  22292648.32007  22292650.62507 117148566.81707  91284631.41505
  87481104.16607  22292648.46905        42.600          32.400          47.100  
  22473660.87507  22473668.66007                 118099810.89707  92025931.10207
                  22473668.87907        44.200          42.400                  
  20122561.53108  20122572.50808  20122569.55108 105744716.48508  82398582.33908
  78965294.87808  20122571.81608        48.800          52.800          53.400  
  22090623.14107  22090635.10207  22090634.13708 116086908.78607  90457407.73807
  86688338.85208  22090634.76207        44.200          43.700          48.400  
  23497862.51606                                 123482066.17906  96219916.84203
                  23497874.00803        39.600          22.800                  
  25081351.91405  25081373.89805  25081374.38307 131803340.25405 102703985.98803
  98424629.37907  25081373.09003        33.800          22.300          43.000  
  22054929.75007  22054941.43007  22054939.23008 115899413.24107  90311312.41707
  86548323.67608  22054941.27707        42.600          42.700          48.300  
  25272737.46105  25272751.81606  25272750.28506 132809079.77805 103487686.42104
  99175693.53206  25272751.71504        32.100          24.500          38.900  
 25 04 20 00 01 25.0000000  0 10G01G02G04G07G08G09G16G26G27G30      -0.000000008
  22988190.19506  22988202.26207  22988204.47307 120803731.21906  94132844.08103
  90210642.27307  22988201.60903        37.700          23.800          44.000  
  21089333.83607                                 110825093.06807  86357339.53006
                  21089340.94106        47.200          39.600                  
  22295215.32007  22295226.48407  22295228.62507 117162113.79707  91295187.49005
  87491220.40507  22295226.39505        42.600          31.500          46.900  
  22470881.65607  22470889.75807                 118085206.27007  92014550.87307
                  22470889.63307        44.100          42.300                  
  20123663.35908  20123674.12908  20123671.08208 105750505.42008  82403093.18808
  78969617.78208  20123673.44108        48.700          52.800          53.500  
  22091943.17207  22091955.04307  22091954.05508 116093844.94207  90462812.52807
  86693518.42808  22091954.71907        42.900          43.800          48.200  
  23499580.20306                                 123491091.33906  96226949.41103
                  23499591.47703        40.100          22.600                  
  25083183.75805  25083205.34005  25083205.91407 131812965.15005 102711485.85303
  98431816.75707  25083204.75003        34.000          22.500          43.000  
  22057765.58607  22057777.57407  22057775.33608 115914316.60807  90322925.41807
  86559452.79508  22057777.26607        42.700          42.800          48.100  
  25269503.50005  25269517.96506  25269516.81306 132792086.33005 103474444.75004
  99163003.62206  25269517.98404        33.700          26.700          39.500  
 25 04 20 00 01 30.0000000  0 10G01G02G04G07G08G09G16G26G27G30      -0.000000008
  22985179.72706  22985191.52307  22985193.99607 120787911.08206  94120516.68003
  90198828.52907  22985191.20703        38.300          23.400          44.700  
  21087653.13307                                 110816261.57507  86350457.84906
                  21087660.38706        47.400          40.400                  
  22297794.59407  22297805.43807  22297807.40607 117175665.69607  91305747.39905
  87501340.28807  22297805.21105        42.200          31.600          47.300  
  22468103.09407  22468111.37107                 118070605.72507  92003173.83807
                  22468111.21907        44.600          42.000                  
  20124766.75008  20124777.76208  20124774.73408 105756304.87208  82407612.23608
  78973948.53408  20124777.02308        49.100          53.100          53.000  
  22093264.78907  22093276.73807  22093275.96507 116100791.80707  90468225.65707
  86698706.00407  22093276.73407        43.600          44.100          47.900  
  23501297.12506                                 123500116.20606  96233981.78203
                  23501308.94503        39.400          22.500                  
  25085015.40605  25085037.17605  25085037.55907 131822590.84405 102718986.34203
  98439004.71507  25085036.62103        34.200          22.900          42.400  
  22060602.39107  22060614.48407  22060612.18808 115929223.74707  90334541.35207
  86570584.72708  22060614.13307        42.700          42.600          48.500  
  25266269.64805  25266284.34406  25266283.07406 132775091.60105 103461202.12804
  99150312.74106  25266283.96504        32.800          26.200          40.700  
 25 04 20 00 01 35.0000000  0 10G01G02G04G07G08G09G16G26G27G30      -0.000000006
  22982169.48406  22982181.34007  22982183.94907 120772092.73106  94108190.71103
  90187016.14807  22982181.03903        37.700          22.500          44.200  
  21085975.00007                                 110807443.08707  86343586.30806
                  21085982.32006        47.200          40.600                  
  22300374.05507  22300385.18007  22300387.30107 117189222.57007  91316311.17505
  87511463.92107  22300385.01605        42.500          32.000          47.100  
  22465325.57007  22465333.70307                 118056009.38407  91991800.07507
                  22465333.73007        44.200          43.000                  
  20125872.24208  20125883.34808  20125880.40608 105762114.96408  82412139.57808
  78978287.23408  20125882.68408        48.800          52.900          53.500  
  22094589.18807  22094600.84007  22094600.01608 116107749.51607  90473647.24207
  86703901.69408  22094600.76207        43.700          43.700          48.200  
  23503015.44506                                 123509140.86906  96241013.94303
                  23503026.27303        38.900          21.800                  
  25086847.50805  25086868.83205  25086869.49607 131832217.50605 102726487.61204
  98446193.37607  25086868.62904        34.200          25.800          42.400  
  22063440.02307  22063451.63307  22063449.67608 115944134.73307  90346160.28407
  86581719.52508  22063451.56307        42.800          42.900          48.500  
  25263035.50005  25263050.20306  25263048.82006 132758095.69805 103447958.56004
  99137621.01806  25263049.76204        33.500          26.500          39.500  
 25 04 20 00 01 40.0000000  0 10G01G02G04G07G08G09G16G26G27G30      -0.000000006
  22979159.99206  22979171.77707  22979174.05907 120756276.28706  94095866.23104
  90175205.18507  22979171.31604        38.600          24.200          44.700  
  21084299.46107                                 110798637.61507  86336724.90506
                  21084306.66006        47.600          40.400                  
  22302955.07007  22302965.85907  22302968.09007 117202784.45207  91326878.86305
  87521591.26507  22302965.79705        42.000          31.200          47.500  
  22462548.62507  22462556.95307                 118041417.27907  91980429.60407
                  22462556.84407        44.300          42.500                  
  20126979.86708  20126990.92608  20126987.99208 105767935.68108  82416675.20008
  78982633.86108  20126990.32008        48.900          53.000          53.400  
  22095915.18007  22095926.79307  22095926.05508 116114718.05107  90479077.25307
  86709105.45108  22095926.84807        43.600          43.900          48.000  
  23504731.39806                                 123518165.36006  96248045.96804
                  23504743.73004        38.400          24.600                  
  25088679.58605  25088701.50006  25088701.78507 131841845.06705 102733989.60804
  98453382.73207  25088700.86304        34.000          25.800          42.100  
  22066278.07807  22066289.89507  22066287.76208 115959049.60007  90357782.24207
  86592857.22508  22066289.82007        42.700          43.000          48.300  
  25259801.56305  25259815.71506  25259814.31606 132741098.67605 103434714.12704
  99124928.39906  25259815.34804        33.900          26.900          41.100  
 25 04 20 00 01 45.0000000  0 10G01G02G04G07G08G09G16G26G27G30      -0.000000004
  22976150.53106  22976162.22707  22976164.71507 120740461.83106  94083543.27003
  90163395.71907  22976161.92603        38.500          23.900          43.900  
  21082626.29707                                 110789845.28807  86329873.74006
                  21082633.60206        47.300          40.100                  
  22305536.61707  22305547.54707  22305549.66407 117216351.39607  91337450.47105
  87531722.40407  22305547.47305        42.900          31.100          47.600  
  22459772.89107  22459781.10207                 118026829.54307  91969062.54007
                  22459780.92207        44.300          42.300                  
  20128089.71108  20128100.56308  20128097.61309 105773767.10108  82421219.15408
  78986988.49409  20128100.00808        48.800          53.000          54.100  
  22097243.28907  22097254.96907  22097254.17208 116121697.49507  90484515.77307
  86714317.36708  22097254.96907        42.800          43.600          48.200  
  23506448.90606                                 123527189.80206  96255078.01604
                  23506460.97704        37.500          24.300                  
  25090511.99205  25090533.56305  25090534.15207 131851473.67005 102741492.35603
  98460572.84507  25090533.23803        34.200          22.300          43.000  
  22069117.10207  22069129.07007  22069126.78508 115973968.40207  90369407.25707
  86603997.86808  22069128.73807        42.600          42.300          48.000  
  25256566.37505  25256581.31606  25256579.72706 132724100.56905 103421468.86904
  99112235.02906  25256580.63704        34.100          27.900          41.200  
 25 04 20 00 01 50.0000000  0 10G01G02G04G07G08G09G16G26G27G30      -0.000000004
  22973141.53106  22973152.98807  22973155.70307 120724649.30006  94071221.83704
  90151587.66307  22973152.98404        38.400          24.100          44.000  
  21080955.68807                                 110781066.06007  86323032.78906
                  21080962.95306        47.300          40.400                  
  22308119.32807  22308130.21107  22308132.43807 117229923.32407  91348025.98505
  87541857.25807  22308130.00805        42.900          30.800          47.600  
  22456997.65607  22457006.07407                 118012246.12707  91957698.85007
                  22457005.80507        44.100          42.600                  
  20129201.55508  20129212.43808  20129209.38708 105779609.16208  82425771.40808
  78991351.06008  20129211.75408        48.800          52.800          53.800  
  22098573.38307  22098585.27707  22098584.47308 116128687.77907  90489962.74107
  86719537.37008  22098585.25407        43.000          43.700          48.200  
  23508166.18806                                 123536214.13106  96262109.87503
                  23508178.41003        38.900          23.200                  
  25092344.64805  25092366.18005  25092366.52307 131861103.17105 102748995.77403
  98467763.67107  25092365.83203        33.300          22.900          42.100  
  22071956.85907  22071968.48407  22071966.48008 115988891.08007  90381035.30507
  86615141.40708  22071968.46507        42.800          42.900          48.800  
  25253331.78905  25253345.89106  25253344.92606 132707101.35305 103408222.71204
  99099540.79906  25253345.85904        33.800          27.100          41.200  
 25 04 20 00 01 55.0000000  0 10G01G02G04G07G08G09G16G26G27G30      -0.000000004
  22970132.77306  22970144.63707  22970146.98007 120708838.70006  94058901.89904
  90139781.05307  22970144.31304        39.100          24.900          44.700  
  21079287.71107                                 110772299.87707  86316201.99706
                  21079294.85506        47.300          40.300                  
  22310702.90607  22310714.09007  22310716.07807 117243500.18907  91358605.35105
  87551995.80907  22310713.75405        42.200          32.100          47.200  
  22454223.27307  22454231.52307                 117997667.01007  91946338.50207
                  22454231.46107        44.100          42.300                  
  20130315.12508  20130326.07808  20130323.10508 105785461.80408  82430331.91108
  78995721.53508  20130325.44908        48.800          52.900          53.400  
  22099905.50807  22099917.48007  22099916.78908 116135688.83507  90495418.09407
  86724765.41508  22099917.47307        42.900          43.600          48.600  
  23509884.23406                                 123545238.23506  96269141.60603
                  23509895.60503        39.000          23.500                  
  25094177.46105  25094198.90606  25094199.21107 131870733.64405 102756499.98204
  98474955.19007  25094198.53504        33.500          24.000          43.000  
  22074797.23407  22074808.95707  22074806.93008 116003817.55507  90392666.30907
  86626287.78308  22074808.85207        42.500          42.600          48.000  
  25250096.73405  25250111.33606  25250109.94506 132690101.04005 103394975.70904
  99086845.76206  25250110.78504        34.400          26.200          41.100  
 25 04 20 00 02 00.0000000  0 10G01G02G04G07G08G09G16G26G27G30      -0.000000004
  22967124.25006  22967136.25006  22967138.76607 120693030.10306  94046583.52703
  90127975.94607  22967136.12903        38.900          23.200          44.600  
  21077621.86707                                 110763546.81507  86309381.43906
                  21077629.25406        47.200          40.300                  
  22313287.29707  22313298.67607  22313300.76207 117257082.09007  91369188.62905
  87562138.10807  22313298.38305        42.600          31.400          47.300  
  22451449.75807  22451458.10207                 117983092.28207  91934981.58307
                  22451458.03107        44.100          42.500                  
  20131430.96908  20131441.82808  20131438.84008 105791325.13008  82434900.72908
  79000099.98108  20131441.28508        48.800          52.800          53.100  
  22101240.03107  22101251.82007  22101251.08208 116142700.76507  90500881.92807
  86730001.58808  22101251.85207        43.200          43.300          48.600  
  23511601.64106                                 123554262.26506  96276173.32703
                  23511612.92203        38.600          22.500                  
  25096009.96105  25096031.55506  25096032.05907 131880365.13905 102764005.02103
  98482147.49407  25096031.36703        32.700          23.200          42.600  
  22077638.46907  22077650.37507  22077648.18808 116018747.94407  90404300.35807
  86637437.09508  22077650.03507        42.600          42.400          48.000  
  25246861.85205  25246876.33206  25246874.60207 132673099.66105 103381727.91204
  99074149.94807  25246875.46904        35.300          28.600          42.200  
 25 04 20 00 02 05.0000000  0 10G01G02G04G07G08G09G16G26G27G30      -0.000000002
  22964116.51606  22964127.94106  22964130.89807 120677223.56806  94034266.74904
  90116172.39007  22964128.16404        38.900          24.500          44.600  
  21075958.63307                                 110754806.97507  86302571.17106
                  21075966.11706        47.200          40.700                  
  22315872.76607  22315884.06307  22315886.30507 117270669.03507  91379775.82105
  87572284.17707  22315883.92205        42.000          31.700          47.300  
  22448677.14107  22448685.40607                 117968521.95507  91923628.07907
                  22448685.30507        44.300          42.600                  
  20132548.65608  20132559.68008  20132556.64508 105797199.15608  82439477.87608
  79004486.42908  20132559.04708        49.000          52.800          53.300  
  22102576.38307  22102588.47307  22102587.43008 116149723.60007  90506354.25607
  86735245.90108  22102588.30907        42.600          43.400          48.700  
  23513319.02306                                 123563286.28306  96283205.00803
                  23513330.11303        39.400          23.000                  
  25097843.37505  25097864.81305  25097865.21907 131889997.67305 102771510.80803
  98489340.57907  25097864.53103        32.200          22.900          43.300  
  22080480.07007  22080491.95707  22080489.99608 116033682.25207  90415937.46307
  86648589.30208  22080491.98407        42.200          42.200          48.400  
  25243626.02305  25243640.64806  25243639.13707 132656097.30805 103368479.33004
  99061453.38107  25243640.03904        35.800          28.500          42.300  
 25 04 20 00 02 10.0000000  0 10G01G02G04G07G08G09G16G26G27G30      -0.000000002
  22961108.86706  22961120.82807  22961123.24207 120661419.19006  94021951.64404
  90104370.40507  22961120.64804        38.800          25.300          44.600  
  21074298.13307                                 110746080.41407  86295771.25906
                  21074305.53906        47.300          39.900                  
  22318459.39107  22318470.69907  22318472.79307 117284261.05807  91390366.99205
  87582434.03707  22318470.57405        42.500          31.300          46.900  
  22445905.35207  22445913.57807                 117953956.08307  91912278.05307
                  22445913.62107        44.100          43.000                  
  20133668.58608  20133679.42208  20133676.49608 105803083.93508  82444063.41308
  79008880.89308  20133678.82408        48.800          52.700          53.400  
  22103915.13307  22103926.66007  22103925.82407 116156757.38307  90511835.10607
  86740498.37907  22103926.80907        43.300          43.600          47.900  
  23515036.25806                                 123572310.29506  96290236.66203
                  23515047.28103        39.400          23.200                  
  25099676.77305  25099698.20705  25099698.74207 131899631.39205 102779017.55604
  98496534.51307  25099697.82404        31.700          24.500          42.500  
  22083322.76607  22083335.02307  22083332.71107 116048620.53107  90427577.66307
  86659744.47507  22083334.57407        42.300          42.400          47.900  
  25240390.46106  25240405.08206  25240403.63707 132639094.05706 103355230.02904
  99048756.14007  25240404.41804        36.300          27.900          42.900  
 25 04 20 00 02 15.0000000  0 10G01G02G04G07G08G09G16G26G27G30      -0.000000002
  22958101.99206  22958113.66006  22958116.09007 120645616.80306  94009638.08704
  90092569.94807  22958113.50004        39.300          25.900          43.900  
  21072640.19507                                 110737366.98707  86288981.58606
                  21072647.45306        47.200          40.600                  
  22321046.71107  22321057.95707  22321060.21107 117297858.02507  91400962.02105
  87592587.59007  22321058.09005        42.900          32.300          46.700  
  22443134.43007  22443142.60907                 117939394.57907  91900931.43307
                  22443142.60507        44.100          42.500                  
  20134790.46908  20134801.37908  20134798.31308 105808979.32408  82448657.21208
  79013283.28708  20134800.74608        49.400          52.700          53.200  
  22105255.56307  22105267.49207  22105266.47307 116163801.96407  90517324.38507
  86745758.93307  22105267.37507        43.000          43.700          47.800  
  23516753.27306                                 123581334.22106  96297268.28003
                  23516764.48803        39.800          22.800                  
  25101509.92205  25101531.56305  25101532.16407 131909266.11305 102786525.10003
  98503729.17707  25101531.28503        32.300          22.800          42.300  
  22086166.20307  22086178.32807  22086176.15608 116063562.64707  90439220.85407
  86670902.52908  22086178.05507        42.700          42.400          48.700  
  25237154.82806  25237168.84805  25237167.98407 132622089.71006 103341979.88104
  99036058.11607  25237168.65204        36.000          26.200          43.900  
 25 04 20 00 02 20.0000000  0 10G01G02G04G07G08G09G16G26G27G30      -0.000000002
  22955095.16406  22955106.96906  22955109.39807 120629816.54806  93997326.25304
  90080771.06507  22955106.84004        39.500          25.300          44.500  
  21070984.51607                                 110728666.79807  86282202.22406
                  21070991.83606        47.100          39.800                  
  22323635.10207  22323646.34007  22323648.55907 117311459.97807  91411560.93305
  87602744.87607  22323646.44905        43.200          31.400          47.200  
  22440364.41407  22440372.34407                 117924837.54907  91889588.30307
                  22440372.44507        43.900          42.500                  
  20135914.25008  20135925.13308  20135922.20308 105814885.38608  82453259.33308
  79017693.64908  20135924.65208        48.500          52.800          53.200  
  22106598.21907  22106609.92207  22106609.08608 116170857.39907  90522822.10707
  86751027.58508  22106609.96107        43.000          43.400          48.300  
  23518470.64106                                 123590358.06206  96304299.83003
                  23518481.58603        38.600          22.000                  
  25103343.39805  25103364.66805  25103365.57807                                
  98510924.63907  25103364.95303        32.200          23.300          42.000  
  22089010.62507  22089022.59007  22089020.46108 116078508.65707  90450867.07407
  86682063.48808  22089022.16007        42.600          42.400          48.400  
  25233918.71105  25233933.24205  25233931.96907 132605084.47505 103328729.08104
  99023359.37207  25233932.60204        35.200          24.500          42.700  
 25 04 20 00 02 25.0000000  0 10G01G02G04G07G08G09G16G26G27G30      -0.000000002
  22952088.66406  22952100.43006  22952103.11707 120614018.44906  93985016.04004
  90068973.79907  22952100.58204        39.600          25.600          44.300  
  21069331.44507                                 110719979.91607  86275433.22806
                  21069338.74606        47.200          40.100                  
  22326224.55507  22326235.61307  22326237.85507 117325066.98607  91422163.76105
  87612905.91407  22326235.68005        42.900          31.300          47.500  
  22437594.89107  22437603.62907                 117910285.10807  91878248.73907
                  22437603.27707        44.000          42.100                  
  20137040.25808  20137051.13308  20137048.18008 105820802.17008  82457869.80308
  79022112.01208  20137050.52008        48.900          52.700          53.300  
  22107942.68007  22107954.44107  22107953.68408 116177923.71907  90528328.32007
  86756304.36308  22107954.51207        43.300          43.500          48.300  
  23520187.79706                                 123599381.92706  96311331.37103
                  23520198.80103        39.100          22.500                  
  25105177.29705  25105198.91405  25105199.75007 131928538.77005 102801542.65503
  98518120.95907  25105198.82803        34.000          22.900          42.900  
  22091855.53907  22091867.35207  22091865.35508 116093458.56607  90462516.32907
  86693227.36908  22091867.02007        42.200          42.500          48.700  
  25230682.57805  25230696.60505  25230695.88707 132588078.29805 103315477.45904
  99010659.96807  25230696.42204        35.300          25.300          42.700  
 25 04 20 00 02 30.0000000  0 10G01G02G04G07G08G09G16G26G27G30       0.000000000
  22949083.27306  22949094.53106  22949097.29307 120598222.43206  93972707.46304
  90057178.09107  22949094.75804        39.600          26.800          44.200  
  21067681.01607                                 110711306.22507  86268674.51006
                  21067688.22306        47.300          40.200                  
  22328814.73406  22328826.09407  22328828.16807 117338678.88606  91432770.41305
  87623070.62307  22328825.93805        41.700          31.400          47.300  
  22434826.66407  22434834.82407                 117895737.07507  91866912.61707
                  22434834.84407        43.900          42.700                  
  20138168.20308  20138179.05508  20138176.10908 105826729.52508  82462488.51708
  79026538.27608  20138178.49608        49.000          52.800          53.400  
  22109289.62507  22109301.27007  22109300.43808 116185000.83407  90533842.94907
  86761589.21108  22109301.09807        43.100          43.200          48.300  
  23521903.95306                                 123608405.70406  96318362.85103
                  23521915.99603        38.300          22.600                  
  25107011.03905  25107033.32805  25107033.87507 131938176.67905 102809052.63504
  98525318.05907  25107032.98404        33.900          24.300          42.400  
  22094701.19507  22094712.68407  22094710.85207 116108412.32707  90474168.60107
  86704394.11107  22094712.63307        42.300          42.000          47.900  
  25227446.27305  25227460.34006  25227459.39807 132571071.19205 103302225.19604
  98997959.84307  25227460.10904        35.000          26.700          43.800  
 25 04 20 00 02 35.0000000  0 10G01G02G04G07G08G09G16G26G27G30       0.000000000
  22946077.62506  22946089.28906  22946091.86307 120582428.64606  93960400.63604
  90045384.02707  22946089.21104        40.000          24.700          44.400  
  21066032.89107                                 110702645.86107  86261926.16906
                  21066040.12506        47.300          40.000                  
  22331406.21107  22331417.31607  22331419.31307 117352295.80107  91443380.96805
  87633239.07207  22331417.01605        42.300          32.300          47.000  
  22432059.19507  22432067.44507                 117881193.63907  91855580.06507
                  22432067.27007        44.100          42.600                  
  20139298.36708  20139309.04308  20139306.10208 105832667.57208  82467115.56508
  79030972.52908  20139308.44508        48.900          52.600          53.200  
  22110638.53107  22110650.06307  22110649.22308 116192088.81007  90539366.04207
  86766882.17708  22110649.84007        43.400          43.300          48.100  
  23523621.49206                                 123617429.53106  96325394.37603
                  23523633.21503        37.200          22.600                  
  25108845.31305  25108867.60505  25108867.97306 131947815.74505 102816563.54403
  98532515.99606  25108867.44503        33.600          23.000          41.200  
  22097547.19507  22097559.24207  22097557.17208 116123369.99007  90485823.90406
  86715563.75308  22097559.03506        42.200          41.800          48.000  
  25224209.93805  25224223.39505  25224223.18007 132554063.15005 103288972.17704
  98985259.04307  25224223.55104        34.700          25.600          43.400  
 25 04 20 00 02 40.0000000  0 10G01G02G04G07G08G09G16G26G27G30       0.000000000
  22943072.50806  22943084.28506  22943086.81307 120566636.98606  93948095.45704
  90033591.55907  22943084.21904        40.100          26.200          44.700  
  21064387.57007                                 110693998.79007  86255188.19706
                  21064394.62506        47.500          40.600                  
  22333998.12507  22334009.61707  22334011.53107 117365917.61607  91453995.35505
  87643411.18807  22334009.31305        42.100          31.300          46.600  
  22429292.57807  22429300.82807                 117866654.70307  91844251.02907
                  22429300.64107        44.100          43.000                  
  20140430.21108  20140440.99208  20140438.11308 105838616.21108  82471750.85108
  79035414.67908  20140440.43408        48.800          52.600          53.000  
  22111989.33607  22112001.00807  22112000.07408 116199187.58807  90544897.53307
  86772183.18208  22112000.60907        44.000          43.400          48.400  
  23525338.83606                                 123626453.31806  96332425.87403
                  23525350.40203        38.200          23.300                  
  25110679.97705  25110702.08205  25110702.16806 131957455.87405 102824075.30903
  98539714.73106  25110701.91403        32.300          22.900          41.400  
  22100394.36707  22100406.23407  22100404.32008 116138331.44607  90497482.14707
  86726736.25608  22100406.12907        42.600          42.900          48.400  
  25220973.35905  25220986.69905  25220986.32007 132537054.11705 103275718.38403
  98972557.51707  25220986.74203        34.400          23.600          44.100  
 25 04 20 00 02 45.0000000  0 10G01G02G04G07G08G09G16G26G27G30       0.000000000
  22940068.31306  22940079.52706  22940082.18007 120550847.58906  93935792.00704
  90021800.79207  22940079.57804        39.900          25.300          44.200  
  21062744.46107                                 110685365.05707  86248460.61706
                  21062751.68806        47.700          40.600                  
  22336591.43806  22336602.60907  22336604.71507 117379544.47506  91464613.67005
  87653587.05307  22336602.49205        41.400          31.100          46.400  
  22426526.70307  22426535.16007                 117852120.40507  91832925.61307
                  22426534.76207        43.900          42.200                  
  20141564.26608  20141575.21508  20141572.15208 105844575.57208  82476394.51208
  79039864.85208  20141574.49208        48.700          52.800          53.000  
  22113342.03907  22113353.69107  22113353.10908 116206297.23607  90550437.50707
  86777492.33508  22113353.50807        43.500          43.300          48.200  
  23527055.64806                                 123635477.16506  96339457.41803
                  23527067.60903        38.300          23.900                  
  25112514.36705  25112537.59406  25112536.76607 131967097.14505 102831587.91704
  98546914.32407  25112536.55504        32.300          24.300          42.100  
  22103242.45307  22103254.41807  22103252.22308 116153296.81907  90509143.46407
  86737911.68008  22103253.87107        42.500          42.700          48.100  
  25217736.35205  25217750.01205  25217749.44907 132520044.27005 103262463.96403
  98959855.37107  25217749.78103        33.800          23.900          42.600  
 25 04 20 00 02 50.0000000  0 10G01G02G04G07G08G09G16G26G27G30       0.000000000
  22937063.57006  22937075.19507  22937077.91007 120535060.41806  93923490.33004
  90010011.67107  22937075.36304        39.800          26.800          44.600  
  21061104.05507                                 110676744.67307  86241743.42706
                  21061111.23806        47.500          39.900                  
  22339185.33606  22339196.54707  22339198.78907 117393176.26006  91475235.80305
  87663766.61507  22339196.49205        41.700          31.100          47.100  
  22423761.64107  22423770.04307                 117837590.71507  91821603.76907
                  22423769.91807        44.100          42.600                  
  20142700.21908  20142711.24208  20142708.27008 105850545.56908  82481046.44608
  79044322.96608  20142710.57808        48.500          52.600          53.100  
  22114697.07007  22114708.61707  22114708.07407 116213417.71507  90555985.92007
  86782809.55307  22114708.66007        43.800          43.300          47.500  
  23528773.24206                                 123644501.01906  96346488.94804
                  23528784.77304        38.900          24.900                  
  25114350.01605  25114372.71505  25114371.78506 131976739.58005 102839101.43203
  98554114.76806  25114371.39103        32.200          22.200          41.600  
  22106090.67207  22106102.80507  22106100.73808 116168266.05007  90520807.77207
  86749089.96408  22106102.55507        42.600          42.600          48.200  
  25214499.02305  25214513.24605  25214512.48407 132503033.59805 103249208.88403
  98947152.57707  25214512.71903        32.900          22.800          42.700  
 25 04 20 00 02 55.0000000  0 10G01G02G04G07G08G09G16G26G27G30       0.000000000
  22934060.06306  22934071.82006  22934074.03907 120519275.43406  93911190.37904
  89998224.19207  22934071.59004        39.900          26.400          43.700  
  21059466.25807                                 110668137.59607  86235036.62906
                  21059473.37506        47.600          40.200                  
  22341780.24206  22341791.67607  22341793.65607 117406812.94106  91485861.77305
  87673949.81807  22341791.49205        41.800          31.600          47.300  
  22420997.75007  22421005.98007                 117823065.54007  91810285.47107
                  22421005.81607        44.000          42.700                  
  20143838.45308  20143849.27708  20143846.30908 105856526.14808  82485706.64008
  79048788.97508  20143848.61308        48.500          52.600          53.000  
  22116054.28107  22116065.83207  22116065.19107 116220548.96407  90561542.73207
  86788134.82607  22116065.75007        43.900          43.200          47.800  
  23530490.92206                                 123653524.83306  96353520.47104
                  23530501.96504        39.300          24.600                  
  25116184.57805  25116207.69905  25116207.12106 131986383.03705 102846615.79604
  98561316.02506  25116206.50804        31.900          25.100          41.900  
  22108940.30507  22108952.07407  22108950.04708 116183239.07907  90532475.05407
  86760271.09708  22108951.72707        42.400          42.500          48.500  
  25211262.03905  25211275.47705  25211275.27707 132486021.96305 103235953.05803
  98934449.11407  25211275.50403        33.700          23.200          42.600  
 25 04 20 00 03 00.0000000  0 10G01G02G04G07G08G09G16G26G27G30       0.000000000
  22931056.51606  22931068.23406  22931070.46107 120503492.68306  93898892.08804
  89986438.38307  22931068.20704        40.200          26.400          44.100  
  21057830.95307                                 110659543.81507  86228340.17606
                  21057838.12106        47.600          40.400                  
  22344376.16406  22344387.62907  22344389.56607 117420454.51106  91496491.54005
  87684136.69007  22344387.44105        41.800          31.200          46.900  
  22418234.63307  22418242.78107                 117808544.93507  91798970.71707
                  22418242.68007        44.300          42.600                  
  20144978.54708  20144989.30508  20144986.37508 105862517.33308  82490375.08608
  79053262.90808  20144988.70308        48.600          52.700          53.000  
  22117413.17207  22117424.86307  22117424.31307 116227691.00207  90567107.94207
  86793468.15207  22117424.94907        43.200          43.400          47.600  
  23532208.43806                                 123662548.63306  96360552.00604
                  23532219.21904        40.100          24.200                  
  25118020.18805  25118042.66405  25118042.48406 131996027.66105 102854131.03003
  98568518.10906  25118041.84803        32.100          23.000          40.700  
  22111789.99207  22111801.97307  22111800.03108 116198215.90507  90544145.28807
  86771455.07608  22111801.75407        42.100          42.400          48.200  
  25208024.39105  25208038.52005  25208037.82407 132469009.49105 103222696.61603
  98921745.00207  25208038.09403        33.400          22.600          42.600  
 25 04 20 00 03 05.0000000  0 10G01G02G04G07G08G09G16G26G27G30       0.000000000
  22928053.52306  22928065.06607  22928067.66007 120487712.26206  93886595.66904
  89974654.31007  22928065.20304        39.900          26.600          44.000  
  21056198.01607                                 110650963.49207  86221654.19806
                  21056205.35206        47.500          40.500                  
  22346973.40606  22346984.48007  22346986.39107 117434101.05706  91507125.19105
  87694327.25107  22346984.27005        41.500          30.600          47.500  
  22415472.47707  22415480.68807                 117794028.99507  91787659.59707
                  22415480.45707        44.500          42.300                  
  20146120.54708  20146131.52308  20146128.51208 105868519.18908  82495051.85408
  79057744.80108  20146130.79308        48.600          52.700          53.400  
  22118774.14107  22118786.23007  22118785.58607 116234843.87407  90572681.58907
  86798809.56207  22118786.17607        43.000          43.200          47.900  
  23533925.32806                                 123671572.52506  96367583.56203
                  23533936.43803        39.600          22.600                  
  25119855.62505  25119878.22306  25119878.07806                                
  98575721.06406  25119877.40603        32.200          22.500          41.400  
  22114640.96906  22114652.81307  22114650.79308 116213196.60106  90555818.52707
  86782641.94408  22114652.56607        41.600          42.100          48.200  
  25204787.49205  25204800.78105  25204800.36707 132451996.20005 103209439.52903
  98909040.29807  25204800.55903        33.500          21.300          42.600  
 25 04 20 00 03 10.0000000  0 10G01G02G04G07G08G09G16G26G27G30       0.000000000
  22925051.21906  22925062.78107  22925065.19507 120471934.19906  93874301.10404
  89962872.00207  22925062.67204        40.000          25.000          44.300  
  21054567.86707                                 110642396.63707  86214978.73306
                  21054575.09006        47.600          40.700                  
  22349571.01606  22349582.17207  22349584.23807 117447752.54506  91517762.69805
  87704521.53207  22349582.16005        41.800          31.300          47.200  
  22412710.99207  22412719.06307                 117779517.77607  91776352.15907
                  22412719.07407        44.500          42.500                  
  20147264.57808  20147275.68808  20147272.66808 105874531.71008  82499736.93008
  79062234.67408  20147274.98408        48.600          52.700          53.400  
  22120137.62507  22120149.51607  22120148.74608 116242007.60807  90578263.70907
  86804159.08508  22120149.41007        42.600          43.300          48.300  
  23535642.57806                                 123680596.53606  96374615.24003
                  23535653.75803        39.400          23.600                  
  25121691.36705  25121713.91006  25121713.75406 132015320.44705 102869164.25703
  98582924.92006  25121713.33603        33.000          23.900          41.100  
  22117492.29707  22117504.11707  22117502.30908 116228181.19307  90567494.82507
  86793831.71908  22117503.96907        42.200          42.400          48.000  
  25201549.73405  25201562.89105  25201562.59407 132434982.17705 103196181.82403
  98896335.04207  25201562.94903        34.000          22.200          42.700  
 25 04 20 00 03 15.0000000  0 10G01G02G04G07G08G09G16G26G27G30       0.000000000
  22922048.98406  22922060.77007  22922063.07807 120456158.41906  93862008.28104
  89951091.38207  22922060.66004        40.400          28.100          43.800  
  21052939.95307                                 110633843.12907  86208313.66706
                  21052947.46906        47.600          40.200                  
  22352169.60206  22352180.91807  22352183.03507 117461408.87406  91528403.96805
  87714719.40707  22352180.80905        41.400          31.000          46.500  
  22409950.35207  22409958.78107                 117765011.11507  91765048.28807
                  22409958.48007        44.300          42.500                  
  20148410.66408  20148421.71108  20148418.77708 105880554.78708  82504430.24308
  79066732.41808  20148421.17208        49.300          52.500          53.200  
  22121503.07807  22121514.57007  22121513.96908 116249182.04307  90583854.17407
  86809516.60708  22121514.59407        43.400          43.200          48.300  
  23537359.68006                                 123689620.50806  96381646.87303
                  23537370.96903        39.200          22.900                  
  25123527.41405  25123550.17206  25123549.66806 132024968.55405 102876682.19704
  98590129.62006  25123549.63304        33.300          26.500          41.100  
  22120344.34407  22120356.54707  22120354.45708 116243169.51907  90579174.02907
  86805024.27608  22120356.16007        42.500          42.200          48.200  
  25198311.48405  25198325.57805  25198324.77306 132417967.33005 103182923.49003
  98883629.13206  25198325.12503        34.000          22.000          41.900  
 25 04 20 00 03 20.0000000  0 10G01G02G04G07G08G09G16G26G27G30       0.000000000
  22919047.64106  22919059.15607  22919061.57407 120440384.85906  93849717.21704
  89939312.43107  22919059.15604        40.500          27.500          43.700  
  21051314.99207                                 110625302.96107  86201658.99906
                  21051322.29706        47.300          40.400                  
  22354769.31306  22354780.78107  22354782.64107 117475069.97506  91539048.95705
  87724920.86207  22354780.48405        41.900          31.600          46.900  
  22407190.81307  22407199.10207                 117750509.06007  91753747.98207
                  22407198.89107        44.600          42.600                  
  20149558.96908  20149569.94508  20149566.88308 105886588.36408  82509131.71208
  79071238.00208  20149569.27308        48.500          52.600          53.300  
  22122870.13307  22122881.75007  22122881.13308 116256367.15907  90589452.94907
  86814882.10208  22122881.85507        43.300          43.600          48.300  
  23539077.00006                                 123698644.43306  96388678.51004
                  23539088.13704        39.300          25.000                  
  25125363.78905  25125386.36706  25125385.85506 132034617.71205 102884200.96604
  98597335.09706  25125386.00004        32.900          25.800          40.800  
  22123197.30507  22123209.54707  22123207.33608 116258161.57207  90590856.10207
  86816219.61608  22123209.10507        42.200          42.500          48.200  
  25195073.59405  25195087.32405  25195086.64106 132400951.54105 103169664.43303
  98870922.56406  25195087.09403        33.700          22.300          41.500  
 25 04 20 00 03 25.0000000  0 10G01G02G04G07G08G09G16G26G27G30       0.000000000
  22916046.62506  22916058.25007  22916060.41007 120424613.72706  93837428.02104
  89927535.29207  22916058.10504        40.500          27.900          44.300  
  21049692.35207                                 110616776.40107  86195014.92906
                  21049699.73806        47.100          39.900                  
  22357369.71906  22357381.13307  22357383.31607 117488736.02306  91549697.80905
  87735126.00407  22357381.07805        41.900          31.700          46.800  
  22404431.95307  22404440.00407                 117736011.74207  91742451.38107
                  22404440.12907        44.300          43.100                  
  20150709.14108  20150720.24608  20150717.16808 105892632.63608  82513841.52908
  79075751.57008  20150719.49608        48.600          52.500          53.400  
  22124239.66407  22124251.37107  22124250.50807 116263563.10507  90595060.16807
  86820255.68707  22124251.15207        43.600          43.400          47.900  
  23540793.89106                                 123707668.48106  96395710.17304
                  23540805.44904        38.400          24.300                  
  25127200.14805  25127223.03906  25127222.44106 132044268.15505 102891720.77004
  98604541.53806  25127222.66004        33.700          27.500          41.000  
  22126051.10907  22126062.93807  22126061.07007 116273157.49507  90602541.23207
  86827417.84907  22126062.77007        42.000          42.300          47.900  
  25191835.59405  25191849.18805  25191848.46106 132383935.08205 103156404.85203
  98858215.45906  25191848.86303        33.300          21.700          41.500  
 25 04 20 00 03 30.0000000  0 10G01G02G04G07G08G09G16G26G27G30       0.000000000
  22913045.75806  22913057.41807  22913059.71107 120408844.97506  93825140.67804
  89915759.94607  22913057.47304        40.400          28.300          44.900  
  21048072.44507                                 110608263.30907  86188381.35506
                  21048079.70706        47.800          40.600                  
  22359971.39106  22359982.59007  22359984.85907 117502406.97406  91560350.47205
  87745334.79707  22359982.65605        41.400          30.900          46.800  
  22401674.16407  22401682.36707                 117721519.16407  91731158.46807
                  22401682.32007        44.500          42.600                  
  20151861.21108  20151872.35208  20151869.40208 105898687.51308  82518559.60808
  79080273.06208  20151871.71108        48.900          52.500          53.500  
  22125611.14107  22125622.68807  22125621.99608 116270769.84107  90600675.79307
  86825637.32908  22125622.46907        43.200          43.200          48.100  
  23542511.09406                                 123716692.67406  96402741.98904
                  23542522.80104        38.400          24.100                  
  25129036.76605  25129059.22706  25129058.85506 132053919.76805 102899241.43504
  98611748.84106  25129059.57004        34.000          26.100          40.900  
  22128905.57007  22128917.55907  22128915.41808 116288157.25207  90614229.32707
  86838618.93508  22128917.18407        42.300          42.300          48.500  
  25188597.31305  25188610.70305  25188610.21106 132366917.85005 103143144.63103
  98845507.80106  25188610.54703        33.900          22.900          41.700  
 25 04 20 00 03 35.0000000  0 10G01G02G04G07G08G09G16G26G27G30       0.000000000
  22910045.53106  22910057.38707  22910059.60207 120393078.62406  93812855.22504
  89903986.35407  22910057.28104        40.600          27.900          45.000  
  21046454.82807                                 110599763.58207  86181758.20306
                  21046462.29306        47.500          40.600                  
  22362573.74206  22362585.26207  22362587.43007 117516082.72406  91571006.86505
  87755547.18507  22362585.09805        41.200          31.200          46.800  
  22398916.93007  22398925.24607                 117707031.25107  91719869.18307
                  22398925.31607        44.500          42.600                  
  20153015.75008  20153026.62108  20153023.59008 105904752.94908  82523285.90908
  79084802.43208  20153025.98808        48.800          52.500          53.600  
  22126984.32007  22126996.02707  22126995.50008 116277987.33207  90606299.80207
  86831026.99308  22126995.84007        43.800          43.400          48.600  
  23544228.46906                                 123725716.86806  96409773.77803
                  23544239.97303        38.500          23.900                  
  25130873.53105  25130895.95306  25130895.77306 132063572.52205 102906762.98404
  98618957.02606  25130896.43804        33.900          27.400          40.400  
  22131760.46107  22131772.51607  22131770.51208 116303160.72007  90625920.33806
  86849822.80108  22131772.27706        42.000          41.700          48.400  
  25185359.08605  25185372.54705  25185371.58606 132349899.86405 103129883.84103
  98832799.54606  25185372.06303        33.600          22.200          40.300  
 25 04 20 00 03 40.0000000  0 10G01G02G04G07G08G09G16G26G27G30       0.000000000
  22907045.70306  22907057.48407  22907059.85507 120377314.58306  93800571.57804
  89892214.53407  22907057.41804        40.600          28.500          45.000  
  21044840.23407                                 110591277.28007  86175145.49206
                  21044847.37106        47.300          40.200                  
  22365177.11706  22365188.61307  22365190.68807 117529763.27106  91581667.01205
  87765763.13107  22365188.46105        41.800          30.800          47.100  
  22396161.09407  22396169.46907                 117692548.04707  91708583.56007
                  22396169.33607        44.100          42.700                  
  20154171.70308  20154182.77708  20154179.80108 105910828.89308  82528020.41008
  79089339.66308  20154182.21108        48.300          52.500          53.300  
  22128359.89807  22128371.23007  22128370.98808 116285215.47107  90611932.10207
  86836424.61608  22128371.39107        43.800          43.700          48.500  
  23545945.77306                                 123734741.11406  96416805.62903
                  23545957.22303        38.500          22.600                  
  25132710.60205  25132733.52706  25132732.84006 132073226.41705 102914285.48004
  98626166.04806  25132733.46104        33.700          24.900          40.200  
  22134616.26606  22134628.37907  22134626.28107 116318167.94406  90637614.24307
  86861029.46407  22134628.00007        41.800          42.100          47.800  
  25182120.48405  25182133.64505  25182132.96106 132332881.04105 103116622.44903
  98820090.70606  25182133.43803        33.400          21.700          40.700  
 25 04 20 00 03 45.0000000  0 10G01G02G04G07G08G09G16G26G27G30       0.000000000
  22904046.39806  22904058.12907  22904060.45707 120361552.97006  93788289.80704
  89880444.48807  22904058.12104        40.500          28.600          45.000  
  21043227.60907                                 110582804.44607  86168543.28406
                  21043235.01606        47.300          40.600                  
  22367781.65606  22367792.48807  22367794.92207 117543448.61306  91592330.89405
  87775982.68707  22367792.66005        41.900          31.200          46.700  
  22393405.82807  22393414.23807                 117678069.51407  91697301.59007
                  22393414.06607        44.300          42.700                  
  20155330.11708  20155340.97308  20155338.02708 105916915.39608  82532763.14008
  79093884.78008  20155340.42208        48.300          52.400          53.400  
  22129737.36707  22129748.85507  22129748.44108 116292454.33307  90617572.76507
  86841830.24808  22129748.84407        43.800          43.400          48.800  
  23547662.61706                                 123743765.37706  96423837.51904
                  23547674.57004        38.800          24.300                  
  25134548.00805  25134570.87106  25134570.37106 132082881.53305 102921808.89504
  98633375.95506  25134570.59404        32.700          25.600          39.500  
  22137472.78907  22137484.85907  22137482.79308 116333178.90407  90649311.08507
  86872238.92508  22137484.49607        42.600          42.300          48.200  
  25178882.18005  25178895.37905  25178894.24206 132315861.48805 103103360.47903
  98807381.30406  25178894.79703        33.300          22.200          40.800  
 25 04 20 00 03 50.0000000  0 10G01G02G04G07G08G09G16G26G27G30       0.000000000
  22901047.47706  22901059.11707  22901061.76607 120345793.77906  93776009.92304
  89868676.28007  22901059.25404        40.400          28.400          45.200  
  21041618.15607                                 110574345.12407  86161951.60906
                  21041625.22706        47.300          40.800                  
  22370386.53106  22370397.95707  22370400.13307 117557138.77506  91602998.51605
  87786205.83307  22370397.82405        41.700          31.000          46.600  
  22390651.57007  22390659.83207                 117663595.74007  91686023.31307
                  22390659.76207        44.200          42.400                  
  20156490.34408  20156501.27308  20156498.27008 105923012.45608  82537514.08608
  79098437.76708  20156500.65208        48.600          52.600          53.200  
  22131116.88307  22131128.68807  22131128.05908 116299703.93307  90623221.78707
  86847243.90108  22131128.31307        44.000          43.000          48.500  
  23549380.21906                                 123752789.73606  96430869.43303
                  23549391.87103        38.800          22.600                  
  25136385.47705  25136408.46506  25136408.07006                                
  98640586.79706  25136407.96504        32.700          27.000          39.600  
  22140330.09407  22140342.21107  22140340.02008 116348193.61507  90661010.83106
  86883451.18808  22140341.78906        42.000          41.800          48.500  
  25175643.08605  25175656.88705  25175655.51606 132298841.25005 103090097.95803
  98794671.39306  25175656.00403        32.900          22.800          39.300  
 25 04 20 00 03 55.0000000  0 10G01G02G04G07G08G09G16G26G27G30       0.000000000
  22898049.07806  22898060.69107  22898063.42207 120330037.09306  93763731.98204
  89856909.93807  22898060.78504        40.800          27.900          45.200  
  21040010.87507                                 110565899.41907  86155370.54106
                  21040018.05506        47.200          40.200                  
  22372992.66407  22373003.89107  22373006.13307 117570833.76807  91613669.92905
  87796432.59307  22373003.88305        42.000          30.200          46.400  
  22387898.32007  22387906.66007                 117649126.80507  91674748.82207
                  22387906.40207        44.000          42.300                  
  20157652.57008  20157663.48408  20157660.48808 105929120.11408  82542273.28708
  79102998.67708  20157662.93008        48.100          52.300          53.200  
  22132498.68807  22132510.13307  22132509.48808 116306964.29407  90628879.18907
  86852665.57308  22132509.88307        43.600          43.100          48.500  
  23551098.39106                                 123761814.26406  96437901.49603
                  23551109.13703        40.200          22.300                  
  25138223.80505  25138246.56606  25138245.96106 132102195.43305 102936858.57204
  98647798.56406  25138245.66404        32.500          26.300          39.500  
  22143187.96107  22143200.01207  22143197.99608 116363212.13107  90672713.55206
  86894666.28208  22143199.77706        42.300          41.500          48.000  
  25172403.88305  25172418.26205  25172416.53906 132281820.34105 103076834.89003
  98781960.92906  25172417.02303        33.300          22.800          38.800  
 25 04 20 00 04 00.0000000  0 10G01G02G04G07G08G09G16G26G27G30       0.000000000
  22895051.10906  22895062.68407  22895065.31607 120314282.81106  93751455.93704
  89845145.38507  22895062.64504        40.200          28.500          45.300  
  21038406.22707                                 110557467.17607  86148799.96006
                  21038413.44106        47.200          39.800                  
  22375599.49206  22375610.93407  22375613.06307 117584533.49206  91624345.00905
  87806662.88207  22375610.87505        41.300          30.000          46.300  
  22385145.79707  22385154.03107                 117634662.56407  91663477.99107
                  22385153.93807        43.900          43.000                  
  20158816.84408  20158827.80508  20158824.75408 105935238.25608  82547040.67608
  79107567.39908  20158827.15608        48.600          52.500          53.000  
  22133882.10907  22133893.80107  22133893.11308 116314235.26507  90634544.88307
  86858095.18408  22133893.46907        43.400          43.300          48.200  
  23552815.75006                                 123770838.75406  96444933.59903
                  23552826.53903        40.400          22.300                  
  25140061.87505  25140084.91006  25140083.90606 132111854.11405 102944384.78304
  98655011.15206  25140083.61304        32.600          25.900          38.200  
  22146046.69507  22146058.53907  22146056.52708 116378234.30707  90684419.12007
  86905884.10908  22146058.32807        42.100          42.000          48.200  
  25169164.97705  25169179.41005  25169177.31606 132264798.65305 103063571.27304
  98769249.93806  25169178.03104        33.100          26.200          39.700  
 25 04 20 00 04 05.0000000  0 10G01G02G04G07G08G09G16G26G27G30       0.000000000
  22892053.72706  22892065.14107  22892067.89507 120298531.02806  93739181.82704
  89833382.69607  22892065.06304        40.300          28.400          46.000  
  21036804.06307                                 110549048.45807  86142239.92206
                  21036811.41006        47.400          40.700                  
  22378207.62507  22378219.02007  22378221.11307 117598238.02307  91635023.85105
  87816896.76607  22378218.81605        42.100          31.800          46.000  
  22382394.31307  22382402.51207                 117620203.16907  91652210.94407
                  22382402.44907        44.100          42.600                  
  20159982.87508  20159994.12108  20159991.04308 105941366.93808  82551816.26508
  79112144.02208  20159993.45308        49.000          52.500          53.600  
  22135268.00007  22135279.66007  22135278.82807 116321516.97507  90640218.92407
  86863532.81507  22135279.18007        43.300          43.100          47.900  
  23554532.88306                                 123779863.39306  96451965.76303
                  23554543.93403        39.500          22.300                  
  25141900.01605  25141922.59806  25141921.83206                                
  98662224.70506  25141921.87504        34.100          26.700          38.800  
  22148906.14106  22148918.11707  22148915.94107 116393260.23006  90696127.60607
  86917104.74607  22148917.70707        41.900          42.100          47.300  
  25165925.83605  25165939.94105  25165937.94906 132247776.32805 103050307.10304
  98756538.46306  25165938.77004        32.300          24.900          38.400  
 25 04 20 00 04 10.0000000  0 10G01G02G04G07G08G09G16G26G27G30       0.000000000
  22889056.27306  22889068.06607  22889070.85907 120282781.57606  93726909.53604
  89821621.76107  22889067.94104        40.500          28.200          45.700  
  21035204.76607                                 110540643.14707  86135690.33106
                  21035211.81306        47.200          39.900                  
  22380816.47706  22380827.56307  22380829.88707 117611947.15806  91645706.26605
  87827134.07307  22380827.62905        41.600          31.200          46.800  
  22379643.50807  22379651.98407                 117605748.48007  91640947.54507
                  22379651.85907        44.100          43.000                  
  20161151.11708  20161162.24608  20161159.25408 105947506.00808  82556599.94508
  79116728.38708  20161161.63708        48.400          52.500          53.200  
  22136655.59407  22136667.13307  22136666.61708 116328809.21907  90645901.17907
  86868978.30008  22136666.87107        43.500          43.000          48.200  
  23556249.94506                                 123788887.98606  96458997.84203
                  23556261.32003        39.000          22.500                  
  25143738.35905  25143761.00406  25143760.38706 132131175.06505 102959439.95504
  98669439.03906  25143760.44104        33.800          27.000          38.500  
  22151765.70307  22151778.09007  22151775.99207 116408289.71007  90707838.88006
  86928328.04207  22151777.74206        42.200          41.800          47.700  
  25162686.01605  25162700.33205  25162698.16806 132230753.15605 103037042.27504
  98743826.34706  25162699.48804        32.600          26.000          38.500  
 25 04 20 00 04 15.0000000  0 10G01G02G04G07G08G09G16G26G27G30       0.000000000
  22886059.90606  22886071.65607  22886074.21507 120267034.72106  93714639.26904
  89809862.76707  22886071.40604        40.400          29.600          45.900  
  21033607.78107                                 110532251.47807  86129151.38506
                  21033614.96106        47.100          39.500                  
  22383426.03106  22383437.30107  22383439.32407 117625661.11906  91656392.45505
  87837374.98407  22383437.27305        41.400          30.900          46.600  
  22376893.71907  22376902.31307                 117591298.66407  91629687.95407
                  22376902.16407        43.800          42.500                  
  20162321.46108  20162332.42608  20162329.50008 105953655.67408  82561391.89908
  79121320.65708  20162331.88308        49.000          52.600          53.200  
  22138045.12507  22138056.85907  22138056.40608 116336112.20507  90651591.81007
  86874431.81108  22138056.56607        43.200          43.300          48.700  
  23557966.43006                                 123797912.75206  96466030.13003
                  23557978.73803        38.300          22.600                  
  25145577.40605  25145599.76606  25145598.59006 132140837.34605 102966968.96504
  98676654.33606  25145599.24604        34.600          28.600          38.400  
  22154626.86707  22154638.67607  22154636.75008 116423322.97207  90719553.08806
  86939554.15908  22154638.53506        42.200          41.800          48.100  
  25159446.32805  25159461.26205  25159458.74606 132213729.36905 103023777.01804
  98731113.82106  25159460.08204        33.600          24.100          38.100  
 25 04 20 00 04 20.0000000  0 10G01G02G04G07G08G09G16G26G27G30       0.000000000
  22883064.25806  22883075.41407  22883078.03507 120251290.31406  93702370.91504
  89798105.58207  22883075.22304        40.900          29.700          46.300  
  21032013.44507                                 110523873.26907  86122622.90106
                  21032020.68406        47.400          39.900                  
  22386036.64806  22386047.81307  22386050.03907 117639379.70006  91667082.22905
  87847619.38107  22386047.84805        41.400          30.300          46.700  
  22374145.08607  22374153.07007                 117576853.60507  91618432.05507
                  22374153.31307        44.100          42.800                  
  20163493.71108  20163504.69508  20163501.76208 105959815.73808  82566191.93308
  79125920.69808  20163504.11708        48.700          52.500          53.500  
  22139436.93007  22139448.38307  22139448.09808 116343425.73607  90657290.64907
  86879893.20208  22139448.33607        43.500          43.100          48.700  
  23559684.07006                                 123806937.53606  96473062.36703
                  23559696.05503        38.000          23.400                  
  25147415.98405  25147438.66806  25147437.22706 132150500.81605 102974498.91704
  98683870.49506  25147438.32004        34.100          26.800          38.500  
  22157488.18806  22157500.22307  22157498.16408 116438359.84006  90731270.10906
  86950782.95108  22157499.98806        41.800          41.600          48.200  
  25156206.77305  25156220.74205  25156219.10906 132196704.88605 103010511.19604
  98718400.67606  25156220.53104        34.300          26.200          39.600  
 25 04 20 00 04 25.0000000  0 10G01G02G04G07G08G09G16G26G27G30       0.000000000
  22880068.28106  22880080.07407  22880082.55107 120235548.41006  93690104.48404
  89786350.27207  22880079.65204        40.700          28.200          46.500  
  21030421.76607                                 110515508.61807  86116104.98306
                  21030429.01206        47.200          40.300                  
  22388648.01606  22388659.38707  22388661.54707 117653102.96106  91677775.65805
  87857867.23107  22388659.24605        41.100          30.400          47.000  
  22371397.22707  22371405.46907                 117562413.41707  91607179.96707
                  22371405.36707        44.100          43.000                  
  20164667.92208  20164679.11708  20164675.98408 105965986.24408  82571000.11808
  79130528.53608  20164678.31308        48.800          52.300          53.000  
  22140830.75807  22140842.45707  22140841.83208 116350749.86307  90662997.74507
  86885362.50208  22140842.15607        43.800          43.200          48.500  
  23561401.20306                                 123815962.33606  96480094.65203
                  23561413.36703        37.900          22.500                  
  25149255.32005  25149277.80106  25149276.56306 132160165.43105 102982029.67304
  98691087.54606  25149277.69104        33.900          28.400          38.300  
  22160350.13307  22160362.02007  22160360.33607 116453400.31507  90742989.93007
  86962014.45707  22160362.02707        42.300          42.200          47.900  
  25152966.64805  25152981.01205  25152979.45706 132179679.70205 102997244.81304
  98705687.07206  25152980.79704        34.300          28.200          39.700  
 25 04 20 00 04 30.0000000  0 10G01G02G04G07G08G09G16G26G27G30       0.000000000
  22877073.20306  22877084.90207  22877087.40607 120219809.06006  93677840.07904
  89774596.86507  22877084.55904        40.900          29.100          46.200  
  21028832.62507                                 110507157.55107  86109597.67406
                  21028839.82806        47.400          40.000                  
  22391260.73407  22391271.78907  22391273.89807 117666830.91807  91688472.75505
  87868118.60207  22391271.53105        42.200          30.600          47.000  
  22368650.31307  22368658.43007                 117547978.09007  91595931.66507
                  22368658.40607        44.100          42.800                  
  20165844.05508  20165855.22308  20165852.19108 105972167.22808  82575816.47108
  79135144.20108  20165854.55508        48.700          52.600          53.100  
  22142226.64107  22142238.16407  22142237.60508 116358084.62907  90668713.13807
  86890839.75408  22142237.95707        44.300          43.400          48.400  
  23563119.03106                                 123824987.26906  96487127.00703
                  23563130.73403        37.800          22.900                  
  25151094.50005  25151117.30906  25151115.82806 132169831.30905 102989561.46804
  98698305.46606  25151117.27304        33.700          27.200          38.200  
  22163212.90607  22163225.45707  22163223.11708 116468444.44707  90754712.61106
  86973248.69508  22163224.90606        42.000          41.300          48.100  
  25149726.68005  25149740.93006  25149739.64106 132162653.82605 102983977.89904
  98692972.93006  25149740.86304        34.900          27.800          39.500  
 25 04 20 00 04 35.0000000  0 10G01G02G04G07G08G09G16G26G27G30       0.000000000
  22874078.61706  22874090.02707  22874092.84007 120204072.31806  93665577.69404
  89762845.41007  22874090.07404        41.400          29.600          46.200  
  21027246.17207                                 110498820.19207  86103101.01606
                  21027253.24206        47.000          40.500                  
  22393873.76607  22393885.31307  22393887.10507 117680563.61907  91699173.53105
  87878373.51907  22393884.93405        42.300          31.000          46.600  
  22365904.11707  22365912.52707                 117533547.65607  91584687.16307
                  22365912.41407        43.900          43.100                  
  20167022.32008  20167033.45708  20167030.35508 105978358.74608  82580641.01408
  79139767.73308  20167032.81308        48.600          52.500          53.500  
  22143624.36707  22143635.92607  22143635.38708 116365430.06307  90674436.84107
  86896324.96408  22143635.78107        43.800          43.300          48.300  
  23564836.96906                                 123834012.35706  96494159.53603
                  23564848.10203        38.300          22.900                  
  25152933.90605  25152956.88706  25152955.46106 132179498.44205 102997094.27004
  98705524.38706  25152957.11704        35.200          27.900          37.400  
  22166076.50007  22166088.68807  22166086.59408 116483492.30507  90766438.19607
  86984485.70008  22166088.43407        42.200          42.400          48.000  
  25146486.83605  25146501.25805  25146499.76206 132145627.41805 102970710.55604
  98680258.38506  25146500.71104        34.200          26.000          38.900  
 25 04 20 00 04 40.0000000  0 10G01G02G04G07G08G09G16G26G27G30       0.000000000
  22871084.50806  22871095.97707  22871098.74607 120188338.01206  93653317.18305
  89751095.77607  22871096.00805        41.000          30.200          46.100  
  21025662.03107                                 110490496.30307  86096614.89306
                  21025669.40206        46.400          39.900                  
  22396487.96906  22396499.34007  22396501.44507 117694300.84406  91709877.84105
  87888631.81907  22396499.14105        41.600          30.200          46.500  
  22363158.82807  22363167.41807                 117519121.97307  91573446.37907
                  22363167.27307        43.400          43.000                  
  20168202.35908  20168213.55108  20168210.55908 105984560.58108  82585473.61808
  79144398.95708  20168212.93408        48.000          52.400          53.000  
  22145024.05507  22145035.73407  22145035.25008 116372785.98607  90680168.72107
  86901818.00408  22145035.66407        43.700          43.100          48.800  
  23566554.24206                                 123843037.43606  96501192.05503
                  23566565.47703        37.900          22.200                  
  25154774.07805  25154796.74206  25154795.71905 132189166.67805 103004627.94404
  98712744.15605  25154796.97704        35.800          26.900          35.500  
  22168940.97706  22168953.20307  22168950.83608 116498543.66406  90778166.50906
  86995725.32008  22168952.62506        41.700          41.600          48.300  
  25143246.76605  25143261.06306  25143259.41406 132128600.24405 102957442.60704
  98667543.27906  25143260.52304        34.100          26.200          38.900  
 25 04 20 00 04 45.0000000  0 10G01G02G04G07G08G09G16G26G27G30       0.000000000
  22868090.88306  22868102.40607  22868105.04307 120172606.36806  93641058.76204
  89739348.11707  22868102.42604        41.400          29.600          46.700  
  21024080.77307                                 110482186.10607  86090139.40306
                  21024088.00406        47.500          40.400                  
  22399102.88306  22399114.13307  22399116.37507 117708042.79106  91720585.83505
  87898893.62107  22399114.08205        41.600          31.200          47.500  
  22360415.00007  22360423.37107                 117504701.23507  91562209.43907
                  22360423.06607        43.800          43.200                  
  20169384.57008  20169395.77708  20169392.73808 105990772.92208  82590314.38908
  79149038.04208  20169395.08608        48.300          52.500          53.300  
  22146426.03107  22146437.56607  22146437.07008 116380152.56207  90685908.89207
  86907319.00408  22146437.53107        43.700          43.400          48.200  
  23568271.91406                                 123852062.65206  96508224.61603
                  23568282.94103        38.500          22.300                  
  25156613.98405  25156636.70706  25156636.06605 132198836.20105 103012162.48204
  98719964.89205  25156636.89804        34.900          27.900          35.800  
  22171805.93807  22171817.94507  22171815.74608 116513598.69907  90789897.68606
  87006967.70508  22171817.60506        42.000          41.500          48.000  
  25140006.35205  25140020.53105  25140019.16406 132111572.51105 102944174.24904
  98654827.75106  25140020.32404        34.600          27.600          39.300  
 25 04 20 00 04 50.0000000  0 10G01G02G04G07G08G09G16G26G27G30       0.000000000
  22865097.40606  22865109.30907  22865111.87907 120156877.19906  93628802.29604
  89727602.32307  22865109.22704        41.700          29.900          47.000  
  21022501.88307                                 110473889.41707  86083674.45806
                  21022509.16806        47.300          40.100                  
  22401718.76606  22401730.12107  22401732.37907 117721789.27006  91731297.37805
  87909158.82707  22401729.97305        41.700          30.700          47.300  
  22357671.62507  22357679.98007                 117490285.28307  91550976.23107
                  22357679.90607        43.900          42.700                  
  20170568.82808  20170579.98408  20170576.89108 105996995.58708  82595163.21708
  79153684.83008  20170579.23408        48.400          52.400          53.000  
  22147829.71907  22147841.35507  22147840.91808 116387529.58407  90691657.20907
  86912827.79808  22147841.39107        43.500          43.400          48.100  
  23569989.78106                                 123861087.90006  96515257.30203
                  23570000.48403        38.500          22.900                  
  25158454.41405  25158477.28105  25158476.36706 132208506.87605 103019698.11904
  98727186.44306  25158477.09004        33.700          26.400          37.000  
  22174671.44507  22174683.44907  22174681.21507 116528657.25507  90801631.60207
  87018212.69107  22174683.08207        42.100          42.200          47.900  
  25136766.35905  25136780.17605  25136779.10206 132094544.03805 102930905.30004
  98642111.70906  25136779.89804        34.000          26.900          40.200  
 25 04 20 00 04 55.0000000  0 10G01G02G04G07G08G09G16G26G27G30       0.000000000
  22862105.02307  22862116.69107  22862119.23007 120141150.72307  93616547.90305
  89715858.53807  22862116.59805        42.300          31.400          46.300  
  21020925.72707                                 110465606.42607  86077220.17606
                  21020933.04706        47.300          40.000                  
  22404335.63306  22404346.74207  22404349.14507 117735540.39906  91742012.49404
  87919427.50707  22404346.82404        41.400          29.900          46.900  
  22354929.07807  22354937.75007                 117475874.31107  91539746.90907
                  22354937.56307        44.000          43.500                  
  20171755.00808  20171766.08608  20171762.97308 106003228.73208  82600020.20408
  79158339.44408  20171765.36708        48.500          52.400          53.600  
  22149235.67207  22149247.09807  22149246.75408 116394917.25207  90697413.82307
  86918344.55608  22149247.25807        44.200          43.400          48.200  
  23571706.85906                                 123870113.32106  96522290.07403
                  23571718.07003        38.900          22.600                  
  25160295.18805  25160317.64805  25160317.00806 132218178.84205 103027234.66004
  98734408.89806  25160317.35204        33.700          25.200          39.700  
  22177537.73407  22177549.57807  22177547.54308 116543719.44707  90813368.34806
  87029460.40408  22177549.43806        42.100          41.700          48.100  
  25133526.00005  25133540.04306  25133538.56306 132077515.05805 102917635.95004
  98629395.22606  25133539.40604        33.900          28.200          39.500  
 25 04 20 00 05 00.0000000  0 10G01G02G04G07G08G09G16G26G27G30       0.000000000
  22859112.64107  22859124.53507  22859127.05107 120125426.88207  93604295.55405
  89704116.72507  22859124.48005        42.000          30.700          46.000  
  21019351.97707                                 110457337.11307  86070776.55906
                  21019359.34406        47.800          40.500                  
  22406953.27306  22406964.58607  22406966.83607 117749296.15206  91752731.25105
  87929699.63907  22406964.44105        41.300          31.100          47.000  
  22352187.96907  22352196.09807                 117461468.26607  91528521.42007
                  22352196.19507        43.900          43.400                  
  20172943.02308  20172954.04308  20172951.06608 106009472.29208  82604885.31808
  79163001.84008  20172953.49208        48.500          52.300          53.000  
  22150643.51607  22150655.30507  22150654.57808 116402315.47807  90703178.66807
  86923869.20008  22150655.09807        43.900          43.100          48.600  
  23573424.07806                                 123879138.83006  96529322.88103
                  23573435.69103        39.200          22.900                  
  25162135.46105  25162159.06605  25162157.52306 132227852.01605 103034772.19204
  98741632.33906  25162157.84804        32.800          24.500          38.600  
  22180404.61706  22180416.76207  22180414.57008 116558785.26706  90825107.93506
  87040710.82408  22180416.36706        41.300          41.000          48.100  
  25130284.99205  25130298.89106  25130298.06306 132060485.44305 102904366.18504
  98616678.30006  25130298.69904        33.700          27.100          41.900  
 25 04 20 00 05 05.0000000  0 10G01G02G04G07G08G09G16G26G27G30       0.000000000
  22856121.10206  22856132.76607  22856135.41407 120109705.58606  93592045.22404
  89692376.79107  22856132.79704        41.700          29.900          46.200  
  21017781.13307                                 110449081.36607  86064343.51006
                  21017788.30906        47.000          40.600                  
  22409571.75806  22409583.05507  22409585.35907 117763056.40006  91763453.50305
  87939975.12607  22409583.00805        41.600          31.400          46.900  
  22349447.31307  22349455.91007                 117447067.05207  91517299.69707
                  22349455.78907        44.300          42.900                  
  20174132.90608  20174144.27708  20174141.17608 106015726.16308  82609758.45608
  79167671.92508  20174143.59008        48.500          52.400          53.200  
  22152053.18807  22152065.00407  22152064.42608 116409724.13207  90708951.62107
  86929401.62008  22152064.73007        43.000          43.400          48.400  
  23575141.57006                                 123888164.35506  96536355.75303
                  23575153.21903        38.400          22.500                  
  25163977.18805  25163999.47305  25163998.49206                                
  98748856.67306  25163998.60504        34.900          27.800          37.900  
  22183272.05507  22183284.00007  22183282.12907 116573854.51307  90836850.18807
  87051963.81707  22183283.95307        42.400          42.200          47.600  
  25127045.00805  25127057.96505  25127057.54706 132043455.15905 102891095.78504
  98603960.91506  25127057.85204        31.300          24.000          41.900  
 25 04 20 00 05 10.0000000  0 10G01G02G04G07G08G09G16G26G27G30       0.000000000
  22853129.94506  22853141.66807  22853144.22307 120093986.94806  93579796.92205
  89680638.86107  22853141.62105        41.900          30.300          46.700  
  21016212.75007                                 110440839.31807  86057921.14306
                  21016219.89106        47.300          39.200                  
  22412190.75806  22412202.52307  22412204.80507 117776821.23106  91774179.33305
  87950254.02807  22412202.43005        41.200          30.700          46.900  
  22346708.05507  22346716.25407                 117432670.83707  91506081.87407
                  22346716.18407        44.100          43.200                  
  20175325.07008  20175336.23808  20175333.21908 106021990.43008  82614639.70008
  79172349.79208  20175335.65208        48.500          52.300          53.100  
  22153465.04707  22153476.76607  22153476.38308 116417143.33607  90714732.82207
  86934941.92608  22153476.56607        43.400          43.000          49.000  
  23576858.71906                                 123897189.96306  96543388.67603
                  23576870.78503        38.600          22.600                  
  25165818.08605  25165841.09405  25165839.99606 132247201.97405 103049849.90504
  98756081.87606  25165839.56604        33.500          25.300          38.800  
  22186140.38307  22186152.73807  22186150.45707 116588927.36707  90848595.26406
  87063219.50307  22186152.29706        42.200          41.400          47.400  
  25123803.89805  25123817.64106  25123816.50406 132026424.33305 102877825.01604
  98591243.05106  25123816.99604        32.100          26.100          41.100  
 25 04 20 00 05 15.0000000  0 10G01G02G04G07G08G09G16G26G27G30       0.000000000
  22850139.28107  22850150.91007  22850153.67607 120078270.97607  93567550.71305
  89668902.90807  22850151.01605        42.300          31.200          46.900  
  21014646.81307                                 110432610.96407  86051509.43606
                  21014654.03106        47.400          39.600                  
  22414811.35206  22414822.66407  22414824.98807 117790590.64206  91784908.70905
  87960536.32807  22414822.64105        41.000          30.000          47.100  
  22343969.40607  22343977.95707                 117418279.56807  91494867.89907
                  22343977.60507        44.200          42.700                  
  20176519.20308  20176530.37508  20176527.27708 106028265.07108  82619529.02408
  79177035.38708  20176529.68408        48.600          52.500          53.000  
  22154879.05507  22154890.65607  22154890.24608 116424573.07707  90720522.21107
  86940490.08708  22154890.43407        43.700          43.000          48.200  
  23578576.39106                                 123906215.72506  96550421.67403
                  23578588.32003        38.000          22.800                  
  25167660.06305  25167682.00805  25167681.81306 132256878.84305 103057390.32504
  98763308.03506  25167681.03104        33.300          24.400          40.300  
  22189009.32006  22189021.77007  22189019.37507 116604003.77506  90860343.09306
  87074477.82607  22189021.32006        41.800          41.700          47.500  
  25120562.63305  25120576.72706  25120575.58606 132009392.97305 102864553.85204
  98578524.81106  25120576.03504        32.700          26.600          41.600  
 25 04 20 00 05 20.0000000  0 10G01G02G04G07G08G09G16G26G27G30       0.000000000
  22847149.01606  22847160.69107  22847163.53107 120062557.65206  93555306.57905
  89657168.94507  22847160.87105        41.500          30.300          46.500  
  21013083.70307                                 110424396.26407  86045108.36106
                  21013090.81306        47.300          40.100                  
  22417432.23406  22417443.88707  22417446.15607 117804364.53606  91795641.57305
  87970822.02007  22417443.71505        40.900          30.000          46.900  
  22341231.75007  22341240.34407                 117403893.25307  91483657.77707
                  22341239.94907        44.200          42.600                  
  20177715.03108  20177726.26208  20177723.32008 106034550.03408  82624426.38708
  79181728.70508  20177725.66808        49.000          52.500          53.100  
  22156294.61707  22156306.27307  22156306.10208 116432013.26607  90726319.74107
  86946046.06508  22156306.35907        43.700          43.200          48.200  
  23580294.16406                                 123915241.55406  96557454.79103
                  23580305.94503        37.700          22.600                  
  25169501.50005  25169523.64506  25169523.32806 132266556.85005 103064931.57704
  98770535.07606  25169522.80104        34.300          26.500          38.800  
  22191878.95306  22191891.12507  22191889.00807 116619083.66206  90872093.61706
  87085738.77607  22191890.89106        41.600          41.400          47.700  
  25117321.39805  25117335.22306  25117334.48806 131992360.94005 102851282.12104
  98565806.11806  25117334.84804        32.400          26.800          40.900  
 25 04 20 00 05 25.0000000  0 10G01G02G04G07G08G09G16G26G27G30       0.000000000
  22844159.52307  22844171.25007  22844173.85907 120046847.05607  93543064.56005
  89645437.01107  22844171.15605        42.200          31.200          47.300  
  21011523.02307                                 110416195.29107  86038717.99506
                  21011530.16806        47.800          39.400                  
  22420054.21106  22420065.87507  22420068.21507 117818142.99006  91806378.00704
  87981111.10007  22420065.61304        41.100          29.500          47.000  
  22338495.07007  22338503.27707                 117389511.95407  91472451.57807
                  22338503.26607        44.100          42.600                  
  20178913.00808  20178924.30108  20178921.27308 106040845.39508  82629331.85408
  79186429.77608  20178923.63308        48.800          52.500          53.200  
  22157712.50007  22157724.23007  22157724.03108 116439463.96507  90732125.47007
  86951609.88008  22157724.18407        44.200          43.200          48.500  
  23582011.50006                                 123924267.52506  96564487.93703
                  23582023.49603        38.600          22.300                  
  25171343.43805  25171365.22706  25171365.52706 132276236.21205 103072473.88104
  98777763.11406  25171364.94104        33.300          24.200          41.000  
  22194749.14807  22194761.44507  22194759.30908 116634167.15707  90883846.96807
  87097002.37508  22194761.18807        42.200          42.200          48.000  
  25114079.78105  25114093.92206  25114093.35506 131975328.38805 102838010.08004
  98553086.98906  25114093.61304        31.200          25.500          41.400  
 25 04 20 00 05 30.0000000  0 10G01G02G04G07G08G09G16G26G27G30       0.000000000
  22841170.22706  22841181.98807  22841184.75807 120031139.07406  93530824.56005
  89633707.03607  22841181.96105        41.800          30.200          47.200  
  21009965.12507                                 110408007.96907  86032338.26406
                  21009972.16006        47.200          40.100                  
  22422677.14806  22422688.52007  22422690.97307 117831925.87306  91817117.91204
  87991403.48307  22422688.44904        40.500          29.400          47.000  
  22335759.27307  22335767.78507                 117375135.58507  91461249.21407
                  22335767.54307        44.100          42.600                  
  20180113.15608  20180124.10508  20180121.23008 106047150.99908  82634245.30208
  79191138.49708  20180123.53908        48.500          52.400          53.200  
  22159132.39107  22159144.04307  22159143.80908 116446925.06007  90737939.28907
  86957181.46508  22159143.80107        43.600          43.200          48.200  
  23583729.46906                                 123933293.59606  96571521.22503
                  23583741.09403        38.500          23.000                  
  25173185.25805  25173207.85206  25173207.50006                                
  98784991.98806  25173207.59404        33.700          27.900          38.900  
  22197620.13306  22197632.50407  22197630.36708 116649254.03906  90895602.96206
  87108268.54608  22197632.14506        41.700          41.700          48.200  
  25110838.36705  25110852.59006  25110852.11707 131958295.29305 102824737.50803
  98540367.45907  25110852.30503        30.500          23.300          42.400  
 25 04 20 00 05 35.0000000  0 10G01G02G04G07G08G09G16G26G27G30       0.000000000
  22838181.79706  22838193.38307  22838196.08207 120015433.79606  93518586.69704
  89621979.08007  22838193.30904        41.900          29.400          46.400  
  21008409.62507                                 110399834.36807  86025969.22206
                  21008416.74606        47.200          40.300                  
  22425300.89106  22425312.25807  22425314.60507 117845713.24706  91827861.27705
  88001699.22107  22425312.00005        40.200          30.100          46.600  
  22333024.57807  22333032.89807                 117360764.25007  91450050.77607
                  22333032.70707        44.200          43.400                  
  20181314.91408  20181326.06608  20181323.06308 106053466.92908  82639166.80208
  79195854.92908  20181325.44508        48.600          52.500          53.100  
  22160554.34407  22160565.61707  22160565.56308 116454396.58307  90743761.24707
  86962760.83708  22160565.59407        43.200          43.000          48.900  
  23585447.57006                                 123942319.81606  96578554.59303
                  23585458.78503        38.900          23.000                  
  25175027.51605  25175050.67606  25175050.01606 132295598.43505 103087561.21803
  98792221.82606  25175050.36703        32.900          22.600          40.200  
  22200491.65607  22200503.85907  22200501.87107 116664344.40907  90907361.67106
  87119537.31007  22200503.87506        42.100          41.800          47.400  
  25107597.20305  25107611.30105  25107610.75406 131941261.57405 102811464.42803
  98527647.52006  25107610.87903        33.100          23.800          40.700  
 25 04 20 00 05 40.0000000  0 10G01G02G04G07G08G09G16G26G27G30       0.000000000
  22835193.55507  22835205.23007  22835207.97307 119999731.30807  93506351.00004
  89610253.19607  22835205.19504        42.000          29.400          46.200  
  21006856.90607                                 110391674.53507  86019610.92206
                  21006864.05506        47.800          40.200                  
  22427925.56306  22427936.77707  22427939.20707 117859505.15806  91838608.22004
  88011998.34307  22427936.53104        40.500          29.600          46.900  
  22330290.58607  22330298.99607                 117346397.97707  91438856.27507
                  22330298.91407        44.100          42.500                  
  20182518.91408  20182529.93808  20182526.91408 106059793.22208  82644096.38408
  79200579.10308  20182529.29308        48.500          52.500          53.800  
  22161977.80507  22161989.65607  22161989.22308 116461878.63307  90749591.40707
  86968348.06208  22161989.36707        43.200          43.000          48.800  
  23587164.78106                                 123951346.16506  96585588.10303
                  23587176.41803        38.900          22.900                  
  25176870.28105  25176893.21106  25176892.63306                                
  98799452.58306  25176893.32404        34.300          25.300          40.100  
  22203364.25007  22203376.37107  22203374.17607 116679438.30607  90919123.13206
  87130808.69607  22203376.19106        42.000          41.500          47.400  
  25104355.46905  25104369.47705  25104369.35907 131924227.35905 102798191.07203
  98514927.18007  25104369.32403        32.300          22.600          42.500  
 25 04 20 00 05 45.0000000  0 10G01G02G04G07G08G09G16G26G27G30       0.000000000
  22832206.11707  22832217.48007  22832220.34007 119984031.59107  93494117.46605
  89598529.38507  22832217.60505        42.000          30.200          46.400  
  21005306.72707                                 110383528.48907  86013263.35206
                  21005313.89106        47.300          39.800                  
  22430550.79706  22430561.88707  22430564.60207 117873301.55006  91849358.61604
  88022300.81107  22430561.80104        40.200          29.200          47.200  
  22327557.89807  22327566.21107                 117332036.79307  91427665.74507
                  22327566.04307        44.500          42.800                  
  20183724.69508  20183735.57008  20183732.80508 106066129.85908  82649034.01408
  79205311.00708  20183735.09008        48.600          52.400          53.300  
  22163403.84407  22163415.68407  22163415.07008 116469371.12907  90755429.70407
  86973943.08708  22163415.14807        43.600          43.200          48.600  
  23588882.78906                                 123960372.63006  96592621.69903
                  23588894.10503        38.600          22.500                  
  25178713.43005  25178736.50406  25178735.75806 132314965.85205 103102652.61804
  98806684.36006  25178736.39504        33.400          24.800          39.700  
  22206237.34406  22206249.33607  22206247.13307 116694535.72906  90930887.32907
  87142082.73307  22206249.11707        41.700          42.000          47.600  
  25101113.46105  25101127.94905  25101127.71106 131907192.71605 102784917.30604
  98502206.52006  25101127.68804        32.400          24.200          41.300  
 25 04 20 00 05 50.0000000  0 10G01G02G04G07G08G09G16G26G27G30       0.000000000
  22829219.10206  22829230.61707  22829233.38707 119968334.53406  93481885.98804
  89586807.58507  22829230.48804        41.800          29.900          46.300  
  21003759.43007                                 110375396.14107  86006926.45606
                  21003766.38706        47.400          40.300                  
  22433176.93806  22433188.21507  22433190.78907 117887102.31306  91860112.42604
  88032606.54407  22433187.96504        40.900          29.400          46.700  
  22324825.94507  22324834.35207                 117317680.58307  91416479.08107
                  22324834.13707        44.100          43.000                  
  20184932.51608  20184943.48808  20184940.52308 106072476.70008  82653979.59708
  79210050.52408  20184942.83608        48.400          52.400          53.300  
  22164831.44507  22164843.28907  22164842.88308 116476873.98307  90761276.06907
  86979545.86408  22164842.96907        43.100          42.900          48.800  
  23590599.84406                                 123969399.14606  96599655.33403
                  23590611.85503        37.700          21.700                  
  25180556.71905  25180579.41405  25180578.73006                                
  98813916.98306  25180579.55104        33.000          25.100          40.200  
  22209110.68007  22209122.90607  22209120.73807 116709636.53807  90942654.17407
  87153359.28707  22209122.77307        42.200          42.200          47.500  
  25097872.39105  25097885.88705  25097886.05107 131890157.48305 102771643.07303
  98489485.37807  25097885.98403        33.100          23.000          43.100  
 25 04 20 00 05 55.0000000  0 10G01G02G04G07G08G09G16G26G27G30       0.000000000
  22826232.74207  22826244.09007  22826246.82007 119952640.32207  93469656.73905
  89575087.87107  22826243.97705        42.100          30.200          46.400  
  21002214.32807                                 110367277.58607  86000600.32206
                  21002221.52306        47.300          39.600                  
  22435804.08606  22435815.44107  22435817.80907 117900907.54906  91870869.73404
  88042915.64007  22435815.06604        41.100          29.300          46.900  
  22322095.03907  22322103.52707                 117303329.45507  91405296.39107
                  22322103.23007        44.500          43.100                  
  20186142.07008  20186153.41808  20186150.25008 106078833.88408  82658933.24608
  79214797.75808  20186152.62908        48.700          52.500          53.200  
  22166261.40607  22166273.12507  22166272.53908 116484387.27507  90767130.57807
  86985156.42408  22166272.76207        43.000          42.700          49.200  
  23592317.83606                                 123978425.85306  96606689.06203
                  23592329.62903        38.400          21.100                  
  25182399.57005  25182422.80106  25182422.32006 132334338.16705 103117747.76404
  98821150.58006  25182422.93004        32.100          25.000          39.800  
  22211985.00007  22211997.19907  22211995.08208 116724740.84807  90954423.74006
  87164638.45008  22211997.07406        42.000          41.900          48.200  
  25094630.25005  25094644.45705  25094644.06306 131873121.79105 102758368.50304
  98476763.94906  25094644.12904        33.800          26.400          41.700  
 25 04 20 00 06 00.0000000  0 10G01G02G04G07G08G09G16G26G27G30       0.000000000
  22823246.59407  22823258.19107  22823260.85207 119936948.85907  93457429.62305
  89563370.22007  22823258.03505        42.200          30.400          46.400  
  21000672.13307                                 110359172.78207  85994284.89006
                  21000679.23006        47.600          40.600                  
  22438431.55506  22438443.25007  22438445.78507 117914717.16106  91881630.47204
  88053227.99207  22438442.99204        40.200          28.900          47.000  
  22319365.28907  22319373.36707                 117288983.35907  91394117.61707
                  22319373.30107        44.300          43.000                  
  20187353.79708  20187364.93808  20187361.96908 106085201.30208  82663894.86408
  79219552.63708  20187364.32408        48.700          52.500          53.200  
  22167693.03907  22167704.69907  22167704.31308 116491910.93507  90772993.16207
  86990774.72508  22167704.45707        42.600          43.000          48.500  
  23594036.03906                                 123987452.61406  96613722.88104
                  23594047.49204        38.100          24.200                  
  25184243.79705  25184266.21506  25184265.74606 132344026.23205 103125296.90503
  98828385.11106  25184266.40203        32.700          23.900          39.600  
  22214859.84407  22214872.04707  22214870.00007 116739848.55507  90966195.96706
  87175920.14507  22214871.85506        42.200          41.600          47.300  
  25091388.43005  25091402.65205  25091402.22707 131856085.57005 102745093.54704
  98464042.11307  25091402.24604        34.100          24.000          42.600  
 25 04 20 00 06 05.0000000  0 10G01G02G04G07G08G09G16G26G27G30       0.000000000
  22820261.30507  22820272.62907  22820275.36707 119921260.16707  93445204.69905
  89551654.65507  22820272.53905        42.100          30.600          46.200  
  20999132.45307                                 110351081.77407  85987980.20806
                  20999139.52706        47.300          39.700                  
  22441060.56306  22441071.92207  22441074.38707 117928531.21406  91892394.63404
  88063543.63007  22441071.66404        40.100          29.500          46.600  
  22316635.93807  22316644.52707                 117274642.29807  91382942.76607
                  22316644.23007        44.200          43.000                  
  20188567.46908  20188578.66008  20188575.64508 106091578.97808  82668864.46708
  79224315.18508  20188577.90208        48.300          52.400          53.100  
  22169126.51607  22169138.20707  22169138.05508 116499444.98307  90778863.83307
  86996400.79008  22169138.27707        43.000          43.300          48.500  
  23595753.68806                                 123996479.51306  96620756.84603
                  23595765.33203        38.500          22.500                  
  25186087.47705  25186109.96505  25186109.92206 132353715.50105 103132846.94804
  98835620.58406  25186109.90604        32.600          24.400          40.900  
  22217735.44506  22217747.91407  22217745.58607 116754959.65406  90977970.83206
  87187204.39707  22217747.51606        41.900          41.800          47.500  
  25088146.97705  25088160.60905  25088160.33607 131839048.87005 102731818.20003
  98451319.89107  25088160.17603        34.800          23.500          43.000  
 25 04 20 00 06 10.0000000  0 10G01G02G04G07G08G09G16G26G27G30       0.000000000
  22817276.36707  22817287.83207  22817290.34807 119905574.29407  93432981.92904
  89539941.17907  22817287.53504        42.200          29.900          46.300  
  20997595.28907                                 110343004.55507  85981686.26806
                  20997602.43006        47.500          40.200                  
  22443690.18806  22443701.55907  22443703.93007 117942349.63706  91903162.20405
  88073862.55907  22443701.30505        41.000          30.600          46.600  
  22313907.89107  22313916.40207                 117260306.39807  91371771.92707
                  22313916.23807        44.700          43.100                  
  20189783.20308  20189794.26208  20189791.21508 106097966.89508  82673842.06808
  79229085.37808  20189793.50408        48.800          52.400          52.900  
  22170562.18807  22170573.99207  22170573.78108 116506989.39607  90784742.59307
  87002034.59208  22170574.02307        43.500          43.000          48.200  
  23597471.85906                                 124005506.51106  96627790.79303
                  23597483.21103        38.300          21.800                  
  25187931.69505  25187954.03105  25187954.07006 132363406.11905 103140397.98703
  98842856.99006  25187953.52303        33.000          22.600          41.400  
  22220611.79707  22220624.13307  22220621.80107 116770074.18807  90989748.35906
  87198491.20907  22220623.71906        42.400          41.700          47.300  
  25084904.42205  25084918.71506  25084918.32406 131822011.65805 102718542.46904
  98438597.31706  25084918.03904        32.800          24.200          41.400  
 25 04 20 00 06 15.0000000  0 10G01G02G04G07G08G09G16G26G27G30       0.000000000
  22814291.78907  22814303.34407  22814306.11307 119889891.24607  93420761.36905
  89528229.82107  22814303.06305        42.200          30.200          46.300  
  20996060.85907                                 110334941.13207  85975403.08106
                  20996067.96106        47.300          39.700                  
  22446320.77306  22446332.08607  22446334.41007 117956172.42206  91913933.18605
  88084184.74207  22446331.76605        40.700          30.200          46.200  
  22311181.17207  22311189.24607                 117245975.53507  91360605.02107
                  22311189.23407        44.400          42.900                  
  20191000.69508  20191011.67208  20191008.75408 106104365.04808  82678827.63008
  79233863.20308  20191011.07408        48.500          52.600          53.000  
  22171999.88307  22172011.80507  22172011.29308 116514544.15707  90790629.39007
  87007676.12308  22172011.68007        43.100          42.600          48.900  
  23599189.18806                                 124014533.66006  96634824.90403
                  23599200.98403        38.800          22.900                  
  25189776.02305  25189798.38305  25189798.65206 132373097.92405 103147950.05803
  98850094.34506  25189797.55103        32.600          21.100          41.300  
  22223488.80507  22223500.81607  22223498.60207 116785192.13607  91001528.54707
  87209780.54107  22223500.62107        42.700          42.500          47.700  
  25081662.80505  25081676.62905  25081676.07407 131804973.99205 102705266.31004
  98425874.40507  25081675.94104        34.500          25.200          42.600  
 25 04 20 00 06 20.0000000  0 10G01G02G04G07G08G09G16G26G27G30       0.000000000
  22811308.07007  22811319.44507  22811322.15607 119874211.09107  93408543.07605
  89516520.61507  22811319.24605        42.400          31.200          46.800  
  20994529.12507                                 110326891.56707  85969130.70806
                  20994536.14806        47.000          40.000                  
  22448951.78106  22448963.35207  22448965.61307 117969999.59606  91924707.59604
  88094510.20307  22448963.10904        40.900          29.900          46.400  
  22308454.91407  22308463.39107                 117231649.81707  91349442.13107
                  22308463.14807        44.500          42.800                  
  20192220.18808  20192231.27308  20192228.17608 106110773.48108  82683821.21208
  79238648.72108  20192230.52708        48.400          52.400          52.900  
  22173439.34407  22173451.48807  22173450.94508 116522109.33507  90796524.33007
  87013325.42708  22173451.16407        43.700          43.000          49.100  
  23600907.53106                                 124023560.99806  96641859.13203
                  23600918.86303        38.400          22.300                  
  25191620.10905  25191642.69105  25191643.11706 132382791.04705 103155503.10403
  98857332.67106  25191641.96903        31.900          21.800          40.200  
  22226366.17207  22226378.38707  22226376.23807 116800313.50407  91013311.41907
  87221072.45007  22226378.19507        42.300          42.200          47.300  
  25078420.62505  25078434.13705  25078433.91407 131787935.90705 102691989.95504
  98413151.16207  25078433.64804        33.900          25.300          43.000  
 25 04 20 00 06 25.0000000  0 10G01G02G04G07G08G09G16G26G27G30       0.000000000
  22808325.18807  22808336.03507  22808338.77307 119858533.71707  93396326.94804
  89504813.49907  22808335.93004        42.500          29.700          46.200  
  20992999.91407                                 110318855.79707  85962869.06106
                  20993006.94506        47.200          39.800                  
  22451583.93006  22451595.28107  22451597.70307 117983831.07106  91935485.34104
  88104838.87007  22451595.26604        41.000          29.800          46.600  
  22305729.95307  22305738.10207                 117217329.18307  91338283.20107
                  22305737.91407        44.400          43.300                  
  20193441.37508  20193452.66808  20193449.64508 106117192.08208  82688822.71108
  79243441.82508  20193451.93408        48.200          52.200          53.200  
  22174881.06307  22174892.95307  22174892.68008 116529684.78207  90802427.26807
  87018982.41308  22174892.76207        43.600          43.000          48.700  
  23602625.30506                                 124032588.41106  96648893.48003
                  23602636.75803        38.700          22.500                  
  25193465.26605  25193487.30105  25193487.93806 132392485.42305 103163057.07603
  98864571.90506  25193486.74603        33.700          22.900          40.700  
  22229244.51607  22229256.30907  22229254.26607 116815438.19707  91025096.87307
  87232366.81707  22229256.28507        42.300          42.300          47.600  
  25075178.53905  25075192.31605  25075191.56307 131770897.35105 102678713.16904
  98400427.60107  25075191.24604        33.500          25.600          42.000  
 25 04 20 00 06 30.0000000  0 10G01G02G04G07G08G09G16G26G27G30       0.000000000
  22805342.09407  22805353.15207  22805356.05107 119842859.20807  93384113.04605
  89493108.51807  22805353.09005        42.400          30.700          46.000  
  20991473.25007                                 110310833.85807  85956618.21206
                  20991480.44506        47.000          39.900                  
  22454216.57806  22454228.31607  22454230.60207 117997666.85706  91946266.44905
  88115170.76907  22454228.21505        40.400          30.400          46.700  
  22303005.70307  22303013.89807                 117203013.65007  91327128.24107
                  22303013.82807        44.500          43.600                  
  20194664.96908  20194675.90608  20194673.03908 106123620.87708  82693832.15508
  79248242.54008  20194675.34408        48.200          52.100          52.900  
  22176324.53107  22176336.51207  22176336.17608 116537270.55807  90808338.24707
  87024647.08908  22176336.35907        43.200          43.000          48.800  
  23604343.19506                                 124041615.98706  96655927.95503
                  23604354.61303        39.900          22.200                  
  25195309.89805  25195332.99606  25195332.78906                                
  98871812.10606  25195331.89104        31.800          24.100          41.500  
  22232122.85207  22232135.35507  22232133.16407 116830566.24807  91036884.93306
  87243663.72107  22232135.12906        42.300          41.800          47.500  
  25071936.03905  25071949.71905  25071949.05107 131753858.32305 102665435.95804
  98387703.63907  25071948.94104        34.600          25.400          42.600  
 25 04 20 00 06 35.0000000  0 10G01G02G04G07G08G09G16G26G27G30       0.000000000
  22802359.85207  22802371.21507  22802373.75807 119827187.61607  93371901.41205
  89481405.69307  22802370.84405        42.600          30.800          46.400  
  20989949.62507                                 110302825.78907  85950378.16306
                  20989956.62506        47.100          40.100                  
  22456850.46106  22456861.97707  22456864.37107 118011506.99006  91957050.94505
  88125505.91007  22456861.84005        40.900          30.100          46.400  
  22300282.44507  22300290.44507                 117188703.25407  91315977.27707
                  22300290.57807        44.600          43.200                  
  20195890.16408  20195901.32808  20195898.30908 106130059.90808  82698849.58208
  79253050.89808  20195900.60508        48.400          52.600          53.000  
  22177770.08607  22177781.95307  22177781.66808 116544866.66407  90814257.28507
  87030319.50208  22177781.94107        43.300          42.900          48.800  
  23606061.01606                                 124050643.67906  96662962.48103
                  23606072.43003        39.200          22.200                  
  25197155.82005  25197178.07405  25197178.01206                                
  98879053.24906  25197177.29303        30.200          21.500          40.200  
  22235002.47706  22235014.66007  22235012.64807 116845697.67506  91048675.64006
  87254963.15107  22235014.53506        41.900          41.700          47.700  
  25068693.69505  25068707.18805  25068706.55907 131736818.89205 102652158.57003
  98374979.37407  25068706.43003        33.700          22.300          42.600  
 25 04 20 00 06 40.0000000  0 10G01G02G04G07G08G09G16G26G27G30       0.000000000
  22799378.12507  22799389.60207  22799392.07407 119811518.82307  93359691.95205
  89469704.99507  22799389.25805        42.600          30.200          46.000  
  20988428.25807                                 110294831.48507  85944148.82106
                  20988435.30906        47.000          40.300                  
  22459485.03906  22459496.86707  22459498.86707 118025351.34806  91967838.73104
  88135844.19307  22459496.49204        40.300          29.900          46.400  
  22297560.40607  22297568.42207                 117174397.93807  91304830.27807
                  22297568.39807        44.600          43.000                  
  20197117.21908  20197128.57408  20197125.57008 106136509.03008  82703874.86008
  79257866.80208  20197127.86308        48.400          52.500          52.900  
  22179217.56307  22179229.52307  22179229.18008 116552472.93707  90820184.23207
  87035999.49908  22179229.34807        43.100          42.700          48.800  
  23607778.86706                                 124059671.47606  96669997.08903
                  23607790.28503        39.300          22.000                  
  25199001.21104  25199023.67205  25199023.53106                                
  98886295.34206  25199023.01603        29.600          22.800          40.400  
  22237882.36707  22237894.59407  22237892.73807 116860832.37907  91060468.88206
  87266265.00907  22237894.51606        42.100          41.700          47.300  
  25065450.96105  25065464.07805  25065463.84806 131719778.93205 102638880.61203
  98362254.77806  25065463.93403        33.700          23.500          41.700  
 25 04 20 00 06 45.0000000  0 10G01G02G04G07G08G09G16G26G27G30       0.000000000
  22796396.71907  22796408.70307  22796410.82807 119795852.98207  93347484.82405
  89458006.47507  22796408.32405        42.200          30.800          46.300  
  20986909.67207                                 110286851.10407  85937930.34706
                  20986916.73406        47.700          40.200                  
  22462120.33606  22462132.09007  22462134.21907 118039200.04006  91978629.87305
  88146185.70807  22462131.87905        40.600          30.400          47.000  
  22294838.86707  22294847.27007                 117160097.85007  91293687.35607
                  22294847.08607        44.600          43.100                  
  20198346.54708  20198357.73408  20198354.71108 106142968.38608  82708908.11908
  79262690.33608  20198357.04308        48.600          52.300          53.100  
  22180667.09407  22180679.13307  22180678.40608 116560089.56907  90826119.25907
  87041687.22408  22180678.77307        44.100          42.400          49.200  
  23609497.07006                                 124068699.44506  96677031.86803
                  23609508.16003        38.800          22.200                  
  25200846.91405  25200869.59405  25200869.41406                                
  98893538.42006  25200869.00403        30.600          22.300          41.400  
  22240763.24207  22240775.59407  22240773.19107 116875970.45207  91072264.77106
  87277569.38507  22240775.28506        42.100          41.800          47.000  
  25062208.20305  25062221.94906  25062220.99606 131702738.61705 102625602.49704
  98349529.89206  25062221.22704        33.700          26.200          41.900  
 25 04 20 00 06 50.0000000  0 10G01G02G04G07G08G09G16G26G27G30       0.000000000
  22793416.28107  22793428.13707  22793430.28507 119780190.25807  93335280.11505
  89446310.27707  22793427.84005        42.200          32.100          47.000  
  20985393.71907                                 110278884.74507  85931722.80806
                  20985400.81606        47.200          40.200                  
  22464756.51606  22464768.11307  22464770.45307 118053053.15706  91989424.50304
  88156530.55607  22464768.02004        40.700          28.700          46.600  
  22292118.94507  22292127.01607                 117145803.11307  91282548.61307
                  22292126.94907        44.500          43.300                  
  20199577.75808  20199588.75408  20199585.83208 106149438.07008  82713949.42808
  79267521.57908  20199588.17208        48.200          52.200          53.200  
  22182118.50007  22182130.37907  22182129.87908 116567716.62607  90832062.42007
  87047382.74408  22182130.18807        43.500          42.800          48.900  
  23611214.44506                                 124077727.72106  96684066.85103
                  23611226.19103        38.900          22.800                  
  25202692.41405  25202715.46906  25202715.63706 132440976.65605 103200842.18703
  98900782.55306  25202715.14503        33.400          23.200          41.000  
  22243644.93807  22243656.81607  22243654.64508 116891111.99607  91084063.36206
  87288876.36508  22243656.63706        42.300          41.700          48.300  
  25058965.25005  25058979.38706  25058978.38306 131685698.12905 102612324.21004
  98336804.80806  25058978.68004        33.200          24.300          41.100  
 25 04 20 00 06 55.0000000  0 10G01G02G04G07G08G09G16G26G27G30       0.000000000
  22790436.43006  22790448.35207  22790450.27707 119764530.28406  93323077.54705
  89434616.14307  22790447.91005        41.400          30.400          46.200  
  20983880.48407                                 110270932.10907  85925525.93006
                  20983887.48406        47.500          40.500                  
  22467393.80506  22467405.18007  22467407.44507 118066910.38406  92000222.32005
  88166878.44907  22467404.98005        40.600          30.300          46.400  
  22289399.65607  22289407.81607                 117131513.41807  91271413.77507
                  22289407.68007        44.500          43.100                  
  20200810.82008  20200822.00008  20200818.95308 106155917.75808  82718998.52208
  79272360.29608  20200821.20308        48.800          52.100          52.900  
  22183571.61707  22183583.66807  22183583.14108 116575353.78007  90838013.43507
  87053085.78808  22183583.51607        43.600          42.600          49.200  
  23612931.96906                                 124086755.99406  96691101.83703
                  23612944.18803        37.700          21.500                  
  25204539.05505  25204561.65605  25204562.03906 132450678.72905 103208402.19503
  98908027.54606  25204561.50803        33.000          22.800          40.900  
  22246526.71106  22246539.01607  22246536.69107 116906256.71306  91095864.41506
  87300185.70407  22246538.60506        41.900          41.400          47.400  
  25055722.49205  25055736.84806  25055735.39506 131668657.08505 102599045.43704
  98324079.37606  25055735.93004        33.800          24.800          40.800  
 25 04 20 00 07 00.0000000  0 10G01G02G04G07G08G09G16G26G27G30       0.000000000
  22787456.99206  22787468.98807  22787470.94107 119748873.42806  93310877.42505
  89422924.34207  22787468.58605        41.300          30.200          46.300  
  20982369.64807                                 110262993.54607  85919340.05606
                  20982376.90606        47.500          40.300                  
  22470031.35906  22470043.18807  22470045.26607 118080772.02206  92011023.57204
  88177229.63507  22470042.81304        40.700          29.500          46.300  
  22286681.48407  22286689.57007                 117117229.10607  91260283.15907
                  22286689.44507        44.600          43.100                  
  20202045.79708  20202057.00808  20202053.93408 106162407.74208  82724055.66308
  79277206.71208  20202056.23808        48.500          52.500          53.200  
  22185026.85907  22185038.93407  22185038.44108 116583001.37307  90843972.59007
  87058796.64608  22185038.70307        43.300          42.400          49.100  
  23614650.20306                                 124095784.58706  96698137.04403
                  23614662.40203        37.100          22.300                  
  25206385.46105  25206408.26605  25206408.65206 132460382.28305 103215963.36603
  98915273.62806  25206408.17203        33.300          22.800          41.400  
  22249409.26607  22249421.59007  22249419.29307 116921404.88507  91107668.17206
  87311497.62707  22249421.19506        42.100          41.800          47.500  
  25052479.62505  25052494.00806  25052492.58206 131651615.79205 102585766.51904
  98311353.75706  25052493.26604        33.700          26.100          41.600  
 25 04 20 00 07 05.0000000  0 10G01G02G04G07G08G09G16G26G27G30       0.000000000
  22784477.88306  22784490.07407  22784492.08207 119733219.45306  93298679.52305
  89411234.68607  22784489.94505        41.700          30.500          46.500  
  20980861.60907                                 110255068.75807  85913164.88706
                  20980868.84006        47.100          39.900                  
  22472670.10206  22472681.33207  22472683.74607 118094637.76606  92021828.01105
  88187583.89907  22472681.35905        40.600          30.200          46.300  
  22283964.07807  22283972.26207                 117102949.93507  91249156.51907
                  22283972.25407        44.500          43.000                  
  20203282.71108  20203293.89808  20203290.86708 106168907.76108  82729120.59408
  79282060.60908  20203293.14108        48.700          51.900          52.800  
  22186484.30507  22186496.11707  22186495.70708 116590659.05907  90849939.60507
  87064515.03708  22186495.93807        43.000          42.600          49.400  
  23616368.40606                                 124104813.16006  96705172.24103
                  23616380.47303        37.900          22.300                  
  25208232.18805  25208255.50005  25208255.43806                                
  98922520.62306  25208254.96503        32.100          22.900          40.900  
  22252292.46107  22252304.65607  22252302.58607 116936556.24507  91119474.39706
  87322811.92807  22252304.50806        42.000          41.500          47.300  
  25049236.66405  25049251.05506  25049249.62506 131634574.02705 102572487.21804
  98298627.72406  25049250.46104        34.600          27.800          40.100  
 25 04 20 00 07 10.0000000  0 10G01G02G04G07G08G09G16G26G27G30       0.000000000
  22781499.91406  22781511.78107  22781513.84407 119717568.43406  93286483.95105
  89399547.26007  22781511.67605        41.400          30.900          46.700  
  20979356.41407                                 110247157.86007  85907000.55906
                  20979363.48006        47.300          40.400                  
  22475309.29706  22475320.81307  22475323.16007 118108507.68706  92032635.72205
  88197941.27607  22475320.68405        41.000          30.000          46.500  
  22281247.82807  22281256.04707                 117088675.97307  91238033.96007
                  22281256.00807        44.400          43.700                  
  20204521.66408  20204532.73408  20204529.66008 106175417.83808  82734193.38008
  79286922.02808  20204532.00408        48.400          52.200          52.900  
  22187943.32807  22187955.43807  22187954.75008 116598326.95707  90855914.57107
  87070241.05608  22187955.10507        43.700          43.000          48.800  
  23618087.47706                                 124113841.90306  96712207.60703
                  23618098.66403        38.300          22.600                  
  25210079.60205  25210102.39805  25210102.45306                                
  98929768.52806  25210102.01603        33.200          22.900          41.300  
  22255176.38306  22255188.41807  22255186.42607 116951710.82006  91131283.13907
  87334128.65007  22255188.37907        41.900          42.000          47.300  
  25045993.24205  25046007.69106  25046006.40206 131617531.87405 102559207.63604
  98285901.43506  25046007.49204        34.500          29.000          39.600  
 25 04 20 00 07 15.0000000  0 10G01G02G04G07G08G09G16G26G27G30       0.000000000
  22778521.92206  22778534.13307  22778536.25807 119701920.44106  93274290.68404
  89387862.07007  22778533.92204        41.400          29.000          46.800  
  20977853.62507                                 110239260.93307  85900847.10306
                  20977860.71106        47.200          40.300                  
  22477949.35206  22477960.98407  22477963.28907 118122381.85506  92043446.74204
  88208301.83207  22477960.88304        41.100          29.800          46.400  
  22278532.53107  22278540.83607                 117074407.28007  91226915.49407
                  22278540.66407        44.900          43.200                  
  20205762.34408  20205773.52308  20205770.44108 106181938.09608  82739274.08608
  79291791.04108  20205772.81308        48.300          51.900          53.300  
  22189404.46907  22189416.42207  22189415.86708 116606005.09407  90861897.51507
  87075974.71308  22189416.25407        43.600          42.300          49.300  
  23619805.71106                                 124122870.84506  96719243.12203
                  23619816.92603        38.800          22.200                  
  25211926.44505  25211950.12905  25211949.74207 132489500.28005 103238652.57303
  98937017.47607  25211949.16403        31.900          23.000          42.000  
  22258060.69507  22258073.19107  22258070.84807 116966868.72907  91143094.47107
  87345447.82107  22258072.82407        42.100          42.000          47.700  
  25042750.57805  25042764.84006  25042763.30906 131600489.37605 102545927.76204
  98273174.91106  25042764.39104        35.000          28.000          40.300  
 25 04 20 00 07 20.0000000  0 10G01G02G04G07G08G09G16G26G27G30       0.000000000
  22775544.74206  22775556.71107  22775559.14807 119686275.49106  93262099.83305
  89376179.16107  22775556.81305        41.900          31.200          46.900  
  20976353.55507                                 110231378.00207  85894704.56406
                  20976360.68406        47.200          40.500                  
  22480590.75806  22480602.02307  22480604.26207 118136260.23406  92054261.03904
  88218665.52707  22480601.86704        40.400          29.700          46.200  
  22275818.51607  22275826.68407                 117060143.89807  91215801.17807
                  22275826.50407        44.900          43.500                  
  20207004.97708  20207016.08208  20207013.16408 106188468.47608  82744362.69208
  79296667.61708  20207015.45308        48.600          52.100          53.000  
  22190867.37507  22190879.42607  22190878.92208 116613693.48207  90867888.47307
  87081716.02308  22190879.35907        43.800          42.900          49.100  
  23621523.82806                                 124131899.95006  96726278.74003
                  23621535.16003        39.100          21.300                  
  25213774.33605  25213797.62105  25213797.27707 132499209.00105 103246217.79703
  98944267.42407  25213796.75403        32.100          21.800          42.200  
  22260945.93006  22260958.26207  22260955.96507 116982029.91306  91154908.36806
  87356769.46207  22260957.91806        41.800          41.700          47.000  
  25039507.25805  25039521.66406  25039520.29706 131583446.59305 102532647.65504
  98260448.14006  25039521.24204        34.100          27.000          40.200  
 25 04 20 00 07 25.0000000  0 10G01G02G04G07G08G09G16G26G27G30       0.000000000
  22772568.54706  22772580.31307  22772582.75007 119670633.49806  93249911.27905
  89364498.47107  22772580.08605        41.800          30.200          47.500  
  20974855.98407                                 110223508.97407  85888572.85206
                  20974863.23806        47.300          40.200                  
  22483232.18806  22483243.71907  22483246.19507 118150142.73506  92065078.54404
  88229032.30707  22483243.65204        41.100          29.300          46.200  
  22273105.26607  22273113.47307                 117045885.74907  91204690.93407
                  22273113.23807        44.700          42.900                  
  20208249.62508  20208260.79308  20208257.75408 106195008.90708  82749459.12308
  79301551.68908  20208260.06608        48.200          52.000          53.400  
  22192332.54707  22192344.48007  22192343.94508 116621392.00807  90873887.31407
  87087464.90208  22192344.50007        42.700          42.600          48.700  
  23623242.48406                                 124140929.16906  96733314.48003
                  23623253.44103        39.700          22.900                  
  25215621.92205  25215645.43005  25215645.27706 132508918.94205 103253783.97303
  98951518.27706  25215644.43003        31.700          22.000          41.800  
  22263831.68006  22263843.75407  22263841.66007 116997194.27606  91166724.72406
  87368093.48007  22263843.52706        41.800          41.300          47.100  
  25036263.96905  25036278.37906  25036276.95306 131566403.42805 102519367.24704
  98247721.07406  25036278.05504        35.200          27.500          40.400  
 25 04 20 00 07 30.0000000  0 10G01G02G04G07G08G09G16G26G27G30       0.000000000
  22769592.20306  22769603.91407  22769606.68007 119654994.51706  93237725.06005
  89352820.01207  22769603.91005        41.300          30.600          47.700  
  20973361.31307                                 110215653.87107  85882451.99606
                  20973368.51606        47.300          40.400                  
  22485874.81306  22485886.54707  22485888.68807 118164029.35506  92075899.26405
  88239402.15307  22485886.12105        40.900          30.200          46.400  
  22270392.90607  22270401.11707                 117031632.84907  91193584.78307
                  22270400.98807        45.200          43.000                  
  20209496.27308  20209507.41408  20209504.25008 106201559.37308  82754563.38508
  79306443.27108  20209506.60508        48.300          52.100          53.000  
  22193799.51607  22193811.52007  22193810.84408 116629100.67007  90879894.04907
  87093221.36908  22193811.41807        43.100          43.100          48.900  
  23624960.67206                                 124149958.58906  96740350.37303
                  23624971.76603        38.800          21.700                  
  25217470.18805  25217493.19905  25217493.38307 132518630.12505 103261351.04203
  98958770.11307  25217492.34803        31.200          22.200          42.600  
  22266717.70307  22266729.96107  22266727.87107 117012361.84507  91178543.59706
  87379419.88307  22266729.82406        42.000          41.700          47.300  
  25033020.89805  25033035.28506  25033033.52706 131549359.84905 102506086.54104
  98234993.76506  25033034.82404        34.700          27.800          39.800  
 25 04 20 00 07 35.0000000  0 10G01G02G04G07G08G09G16G26G27G30       0.000000000
  22766617.05506  22766628.48807  22766631.28907 119639358.65006  93225541.27704
  89341143.87607  22766628.39504        41.700          29.700          47.300  
  20971869.18007                                 110207812.79307  85876342.06306
                  20971876.29706        47.500          39.900                  
  22488518.11706  22488529.60207  22488532.00407 118177920.14206  92086723.25004
  88249775.12707  22488529.53904        41.000          29.600          46.400  
  22267681.98407  22267689.87507                 117017385.29707  91182482.79107
                  22267689.66007        45.200          43.000                  
  20210744.60208  20210755.81308  20210752.71908 106208119.96708  82759675.52308
  79311342.41108  20210755.02308        48.600          51.900          52.900  
  22195268.39807  22195280.39107  22195279.69508 116636819.52307  90885908.72307
  87098985.42108  22195280.35507        43.000          42.600          48.800  
  23626678.53106                                 124158988.19506  96747386.39903
                  23626690.10503        38.900          22.800                  
  25219318.55505  25219341.20705  25219341.68407                                
  98966022.95607  25219340.73003        31.100          22.600          42.100  
  22269604.78907  22269617.18807  22269614.80507 117027532.66707  91190364.99606
  87390748.73007  22269616.84406        42.100          41.400          47.500  
  25029777.57005  25029791.67206  25029790.12106 131532316.04205 102492805.68904
  98222266.20106  25029791.53104        34.000          26.200          40.200  
 25 04 20 00 07 40.0000000  0 10G01G02G04G07G08G09G16G26G27G30       0.000000000
  22763642.16407  22763653.46107  22763656.48807 119623725.74407  93213359.78905
  89329469.95307  22763653.37905        42.000          30.200          47.400  
  20970379.72707                                 110199985.60607  85870242.96006
                  20970386.85506        47.300          40.400                  
  22491162.25006  22491173.67207  22491176.15207 118191814.98306  92097550.36704
  88260151.11907  22491173.62104        41.200          29.900          46.100  
  22264971.64807  22264979.59007                 117003142.96907  91171384.87807
                  22264979.47307        45.100          43.400                  
  20211995.18008  20212006.02308  20212003.02008 106214690.52608  82764795.44308
  79316248.99208  20212005.41408        48.700          52.200          53.300  
  22196739.22707  22196751.17207  22196750.42208 116644548.47007  90891931.26907
  87104757.02508  22196751.13707        42.900          43.000          48.800  
  23628396.60206                                 124168017.88206  96754422.44904
                  23628408.48404        38.700          25.400                  
  25221167.64105  25221190.05906  25221190.24607 132538056.62005 103276488.45504
  98973276.71707  25221189.38704        31.100          24.000          42.000  
  22272492.51606  22272504.68807  22272502.33607 117042706.61706  91202188.83507
  87402079.90107  22272504.41807        41.600          42.200          47.200  
  25026534.39105  25026548.44106  25026546.89806 131515271.84305 102479524.50504
  98209538.38206  25026547.99604        33.700          27.100          40.200  
 25 04 20 00 07 45.0000000  0 10G01G02G04G07G08G09G16G26G27G30       0.000000000
  22760667.93006  22760679.38307  22760682.31607 119608095.99906  93201180.76305
  89317798.42407  22760679.03505        41.800          30.300          47.200  
  20968892.83607                                 110192172.47007  85864154.80406
                  20968900.00406        47.300          39.800                  
  22493807.20306  22493818.80507  22493821.18007 118205714.04606  92108380.77404
  88270530.25007  22493818.48004        40.600          29.100          45.800  
  22262262.55507  22262270.57807                 116988906.04907  91160291.16907
                  22262270.23407        45.000          42.800                  
  20213247.13308  20213258.56308  20213255.31608 106221271.23908  82769923.25508
  79321163.15508  20213257.68008        48.800          51.900          53.100  
  22198211.90607  22198224.08607  22198223.09808 116652287.62907  90897961.76107
  87110536.26408  22198223.83607        43.400          42.400          48.800  
  23630114.96106                                 124177047.85606  96761458.79003
                  23630126.81603        38.300          22.000                  
  25223016.38305  25223038.89806  25223039.09806 132547771.85505 103284058.68503
  98980531.55906  25223038.33203        31.500          22.200          41.800  
  22275380.60206  22275392.63307  22275390.60507 117057883.84806  91214015.21606
  87413413.52907  22275392.48006        41.900          41.100          47.800  
  25023291.05505  25023304.89506  25023303.59406 131498227.45205 102466243.13804
  98196810.45406  25023304.56604        33.500          26.000          39.900  
 25 04 20 00 07 50.0000000  0 10G01G02G04G07G08G09G16G26G27G30       0.000000000
  22757694.48406  22757705.52707  22757708.59007 119592469.29606  93189004.12004
  89306129.14107  22757705.27704        41.400          29.700          47.100  
  20967408.73407                                 110184373.31807  85858077.54906
                  20967415.87106        47.700          40.500                  
  22496452.89806  22496464.28107  22496466.68407 118219617.13106  92119214.30904
  88280912.40207  22496464.14804        40.600          29.300          46.000  
  22259554.14807  22259562.10907                 116974674.41507  91149201.59007
                  22259562.06607        45.600          43.600                  
  20214501.42208  20214512.59808  20214509.50808 106227861.93608  82775058.86308
  79326084.77808  20214511.83608        48.200          52.200          53.200  
  22199686.50007  22199698.52307  22199697.68808 116660036.87707  90904000.12907
  87116323.00208  22199698.43007        43.200          42.900          48.900  
  23631833.16406                                 124186077.99106  96768495.20503
                  23631845.21503        38.300          22.600                  
  25224865.07005  25224887.44905  25224888.08207 132557488.35705 103291629.92804
  98987787.34407  25224887.47304        32.900          24.100          42.100  
  22278269.16407  22278281.46507  22278279.36707 117073064.22807  91225844.06806
  87424749.49807  22278281.25006        42.400          41.800          47.300  
  25020047.81305  25020061.48805  25020060.12906 131481182.70505 102452961.56304
  98184082.22006  25020061.10204        34.500          25.800          40.900  
 25 04 20 00 07 55.0000000  0 10G01G02G04G07G08G09G16G26G27G30       0.000000000
  22754721.43006  22754732.50807  22754735.41407 119576845.62106  93176829.81305
  89294462.09107  22754732.17205        41.300          30.100          47.700  
  20965927.29707                                 110176588.04407  85852011.09506
                  20965934.38706        47.400          40.300                  
  22499099.17206  22499110.66807  22499113.12507 118233524.19606  92130050.96804
  88291297.52507  22499110.53504        40.800          29.500          46.400  
  22256847.20307  22256855.03507                 116960448.04007  91138116.10307
                  22256854.88707        45.300          43.000                  
  20215757.55508  20215768.70308  20215765.52708 106234462.54508  82780202.18508
  79331013.79008  20215767.86308        48.600          51.900          53.700  
  22201163.21907  22201175.15207  22201174.39508 116667796.10507  90910046.27207
  87122117.23008  22201175.00007        43.300          42.700          49.200  
  23633551.60906                                 124195108.20906  96775531.70503
                  23633563.62103        38.100          22.200                  
  25226714.23405  25226737.39506  25226737.45307 132567206.06805 103299202.14304
  98995044.00207  25226736.79304        34.400          26.000          42.300  
  22281158.85207  22281171.08607  22281168.68007 117088247.63307  91237675.27606
  87436087.75007  22281170.51206        42.200          40.900          47.300  
  25016804.03905  25016817.91405  25016816.57406 131464137.57905 102439679.62804
  98171353.74306  25016817.51204        34.800          26.400          40.300  
 25 04 20 00 08 00.0000000  0 10G01G02G04G07G08G09G16G26G27G30       0.000000000
  22751748.41406  22751760.02307  22751762.94907 119561225.11506  93164658.00704
  89282797.45807  22751759.78904        41.400          29.800          47.000  
  20964448.51607                                 110168816.88507  85845955.64306
                  20964455.53906        47.600          40.500                  
  22501746.58606  22501758.15607  22501760.52007 118247435.43206  92140890.87304
  88301685.74607  22501757.72704        40.600          29.300          46.400  
  22254140.71907  22254149.13307                 116946227.10807  91127034.85607
                  22254148.68807        45.200          43.500                  
  20217015.22708  20217026.61308  20217023.55908 106241073.26408  82785353.38908
  79335950.36308  20217025.86308        48.700          52.500          53.400  
  22202641.65607  22202653.30507  22202652.97308 116675565.53207  90916100.35507
  87127919.06608  22202653.46907        43.200          43.000          48.800  
  23635269.87506                                 124204138.60406  96782568.38903
                  23635282.04703        37.900          23.300                  
  25228563.98405  25228586.46506  25228586.86707 132576925.17305 103306775.40904
  99002301.73507  25228586.29304        34.100          25.600          42.400  
  22284048.42207  22284060.95707  22284058.64107 117103434.33307  91249509.03806
  87447428.42307  22284060.46106        42.200          41.500          47.000  
  25013560.28105  25013574.73405  25013572.77006 131447092.28905 102426397.59304
  98158625.08606  25013573.80104        33.800          26.000          39.900  
 25 04 20 00 08 05.0000000  0 10G01G02G04G07G08G09G16G26G27G30       0.000000000
  22748777.01606  22748788.21507  22748791.02007 119545607.75006  93152488.62004
  89271135.13607  22748787.99604        41.600          29.700          47.100  
  20962972.47707                                 110161059.73807  85839911.12106
                  20962979.36306        47.600          40.000                  
  22504394.46906  22504406.27307  22504408.47307 118261350.64906  92151733.87104
  88312076.95807  22504405.85504        40.400          29.300          45.800  
  22251435.61707  22251443.84807                 116932011.53707  91115957.79307
                  22251443.54707        45.600          42.900                  
  20218275.48408  20218286.39508  20218283.39508 106247693.95408  82790512.36308
  79340894.38108  20218285.75408        48.800          51.800          53.000  
  22204121.68807  22204133.96507  22204133.50008 116683345.02907  90922162.28607
  87133728.41208  22204133.94507        43.500          42.700          48.500  
  23636988.92206                                 124213169.24306  96789605.20203
                  23637000.49603        38.200          22.600                  
  25230413.39805  25230436.83605  25230436.62507 132586645.60605 103314349.77804
  99009560.46007  25230435.93804        34.300          25.400          42.400  
  22286939.13306  22286951.16407  22286949.16407 117118624.13606  91261345.23506
  87458771.43307  22286951.06606        41.500          41.200          47.400  
  25010316.70305  25010330.75405  25010329.22706 131430046.66805 102413115.32504
  98145896.22406  25010330.08204        33.700          25.800          40.500  
 25 04 20 00 08 10.0000000  0 10G01G02G04G07G08G09G16G26G27G30       0.000000000
  22745805.33606  22745816.90207  22745819.62507 119529993.53506  93140321.71705
  89259475.18007  22745816.67605        41.200          30.200          47.300  
  20961498.92207                                 110153316.60507  85833877.51006
                  20961505.96906        47.800          40.000                  
  22507043.26606  22507054.68007  22507057.18407 118275269.98306  92162580.09304
  88322471.23807  22507054.63704        39.900          29.700          46.400  
  22248731.63307  22248739.63307                 116917801.34507  91104884.90907
                  22248739.45307        45.100          43.300                  
  20219537.06308  20219548.35908  20219545.14808 106254324.69508  82795679.16308
  79345845.89408  20219547.54708        48.500          52.300          52.900  
  22205604.30507  22205616.21507  22205615.69908 116691134.62007  90928232.07707
  87139545.30208  22205616.30507        43.200          43.200          48.200  
  23638707.43806                                 124222200.12906  96796642.19403
                  23638719.09803        39.200          22.300                  
  25232263.50805  25232286.33606  25232286.43807 132596367.43205 103321925.19404
  99016820.20307  25232285.99204        33.300          27.100          42.000  
  22289830.12507  22289842.20307  22289840.31307 117133817.10607  91273183.87406
  87470116.80207  22289842.23406        42.300          41.700          47.000  
  25007072.71105  25007087.17205  25007085.68006 131413000.83605 102399832.87504
  98133167.19706  25007086.33604        33.500          26.300          40.900  
 25 04 20 00 08 15.0000000  0 10G01G02G04G07G08G09G16G26G27G30       0.000000000
  22742834.78106  22742846.34807  22742849.02307 119514382.46306  93128157.26005
  89247817.58707  22742846.06605        41.400          30.000          46.700  
  20960028.16408                                 110145587.53808  85827854.86306
                  20960035.23806        48.000          40.400                  
  22509692.97706  22509704.30107  22509706.81607 118289193.29606  92173429.42504
  88332868.49907  22509704.19104        40.500          28.400          46.400  
  22246028.64807  22246036.50007                 116903596.53307  91093816.23107
                  22246036.37107        45.500          43.200                  
  20220800.73408  20220811.99208  20220808.89108 106260965.38308  82800853.72408
  79350804.85008  20220811.23008        48.600          51.900          53.000  
  22207088.49207  22207100.67207  22207099.83608 116698934.25907  90934309.71907
  87145369.68508  22207100.61307        43.500          42.800          48.600  
  23640426.05506                                 124231231.14706  96803679.30803
                  23640437.69503        38.900          22.300                  
  25234113.66405  25234136.62506  25234136.78906 132606090.55405 103329501.57104
  99024080.93506  25234136.30504        33.800          27.000          41.700  
  22292721.93006  22292734.11307  22292732.06307 117149013.18906  91285024.98106
  87481464.50407  22292733.97706        41.600          41.600          47.000  
  25003829.03905  25003843.55105  25003841.94106 131395954.76015 102386550.20714
  98120437.99706  25003842.51204        33.100          25.500          40.600  
 25 04 20 00 08 20.0000000  0 10G01G02G04G07G08G09G16G26G27G30       0.000000000
  22739864.58606  22739876.12907  22739878.62907 119498774.55306  93115995.25604
  89236162.31107  22739875.94504        41.000          29.800          46.000  
  20958559.84407                                 110137872.51607  85821843.16306
                  20958567.15206        47.500          40.300                  
  22512343.12506  22512354.66407  22512357.14107 118303120.59306  92184281.80805
  88343268.72407  22512354.45705        40.000          30.100          46.500  
  22243326.48407  22243334.42607                 116889397.07907  91082751.71707
                  22243334.28507        45.000          43.800                  
  20222066.31308  20222077.63308  20222074.52308 106267616.00208  82806036.02708
  79355771.20508  20222076.79708        49.000          52.400          53.800  
  22208574.53107  22208586.85507  22208585.82808 116706743.89907  90940395.13307
  87151201.55608  22208586.71907        43.800          43.400          48.600  
  23642145.17206                                 124240262.28306  96810716.57803
                  23642156.39503        39.400          22.500                  
  25235964.28105  25235987.09806  25235987.46107 132615815.00405 103337079.02404
  99031342.61507  25235986.82004        32.900          28.600          42.300  
  22295614.11707  22295626.41007  22295624.43807 117164212.35207  91296868.46106
  87492814.49607  22295626.32006        42.100          41.300          47.100  
  25000585.24205  25000599.30505  25000598.12106 131378908.39705 102373267.32104
  98107708.60306  25000598.75404        33.200          26.500          41.200  
 25 04 20 00 08 25.0000000  0 10G01G02G04G07G08G09G16G26G27G30       0.000000000
  22736895.27306  22736906.68807  22736909.05507 119483169.87806  93103835.78705
  89224509.47907  22736906.60205        41.400          31.200          46.500  
  20957094.56307                                 110130171.60907  85815842.46206
                  20957101.87506        47.400          40.100                  
  22514994.40606  22515005.68007  22515007.97707 118317051.93806  92195137.39804
  88353671.96807  22515005.52304        39.700          28.800          46.100  
  22240625.18807  22240633.58607                 116875203.09307  91071691.47707
                  22240633.24607        45.100          42.900                  
  20223333.77308  20223345.03108  20223341.93408 106274276.60908  82811226.11208
  79360745.04208  20223344.31308        48.900          51.800          53.500  
  22210062.73407  22210074.66407  22210073.93808 116714563.65307  90946488.44907
  87157040.96308  22210074.78507        43.700          43.000          48.600  
  23643863.62506                                 124249293.68906  96817754.02803
                  23643875.07403        39.000          22.300                  
  25237815.02305  25237838.30906  25237838.10207 132625540.85905 103344657.57904
  99038605.36507  25237837.71504        31.900          27.200          42.000  
  22298507.25006  22298519.34807  22298517.42207 117179414.65306  91308714.38806
  87504166.85507  22298519.23006        41.900          41.300          47.100  
  24997341.16405  24997355.84405  24997354.34006 131361861.91205 102359984.36304
  98094979.06306  24997354.85204        33.500          26.000          41.500  
 25 04 20 00 08 30.0000000  0 10G01G02G04G07G08G09G16G26G27G30       0.000000000
  22733926.44506  22733938.02007  22733940.16407 119467568.36806  93091678.76405
  89212859.00107  22733937.83205        40.900          30.900          46.000  
  20955631.79707                                 110122484.72807  85809852.68006
                  20955639.15206        47.300          40.500                  
  22517646.14806  22517657.52007  22517659.80107 118330987.21506  92205996.01204
  88364078.15307  22517657.27704        40.400          29.600          46.300  
  22237925.45307  22237933.57407                 116861014.48007  91060635.41807
                  22237933.20307        44.500          43.700                  
  20224603.07808  20224614.20308  20224611.33608 106280947.17408  82816423.94208
  79365726.28308  20224613.71108        48.800          52.200          53.000  
  22211552.82007  22211564.66407  22211563.88708 116722393.37307  90952589.51007
  87162887.80708  22211564.73007        43.200          43.200          48.200  
  23645582.10206                                 124258325.16706  96824791.48003
                  23645593.76203        39.200          23.200                  
  25239666.37505  25239689.23806  25239689.02707 132635267.95105 103352237.07904
  99045869.05707  25239688.78904        33.600          27.100          42.700  
  22301400.67206  22301412.80107  22301410.82007 117194620.03206  91320562.71606
  87515521.49807  22301412.67606        41.700          40.900          47.500  
  24994097.26605  24994111.61306  24994110.59407 131344815.14005 102346701.18604
  98082249.33907  24994110.86304        33.500          25.700          42.600  
 25 04 20 00 08 35.0000000  0 10G01G02G04G07G08G09G16G26G27G30       0.000000000
  22730957.94506  22730969.95707  22730971.82007 119451970.04906  93079524.23605
  89201210.92007  22730969.63305        41.100          31.900          46.100  
  20954171.64107                                 110114811.93407  85803873.88106
                  20954179.06606        46.800          40.600                  
  22520298.58606  22520310.07407  22520312.57807 118344926.43806  92216857.73104
  88374487.30007  22520309.85504        39.800          27.200          46.600  
  22235226.42207  22235234.60507                 116846831.30107  91049583.59007
                  22235234.28107        44.800          43.200                  
  20225874.57008  20225885.61308  20225882.59408 106287627.66008  82821629.50008
  79370714.96208  20225884.93808        48.500          52.000          53.200  
  22213044.61707  22213056.71107  22213055.80508 116730233.11007  90958698.38107
  87168742.13908  22213056.52007        43.600          42.700          48.300  
  23647299.99206                                 124267356.88506  96831829.13603
                  23647312.49603        37.700          22.500                  
  25241517.78105  25241540.77006  25241540.34807 132644996.44905 103359817.67704
  99053133.77707  25241540.31304        34.100          27.200          42.200  
  22304295.07007  22304306.97707  22304304.90207 117209828.45907  91332413.40906
  87526878.43407  22304306.77706        42.200          41.700          47.200  
  24990853.39105  24990867.48005  24990866.65207 131327768.16705 102333417.81504
  98069519.44407  24990866.87104        33.500          26.400          42.200  
 25 04 20 00 08 40.0000000  0 10G01G02G04G07G08G09G16G26G27G30       0.000000000
  22727990.64106  22728002.28907  22728004.28907 119436374.99006  93067372.24605
  89189565.26007  22728001.97705        40.900          31.000          46.300  
  20952714.22707                                 110107153.27507  85797906.08306
                  20952721.68006        47.000          41.300                  
  22522951.93806  22522963.40207  22522965.94907 118358869.63106  92227722.52504
  88384899.39007  22522963.29304        39.900          28.600          47.200  
  22232528.60207  22232536.70307                 116832653.60907  91038536.02807
                  22232536.32007        45.500          43.400                  
  20227147.63308  20227158.78108  20227155.69108 106294318.08808  82826842.80708
  79375711.04608  20227158.05108        48.800          52.200          53.200  
  22214538.14807  22214550.14507  22214549.56308 116738082.85007  90964815.04607
  87174603.94708  22214550.27707        43.300          43.100          48.500  
  23649018.81306                                 124276388.79406  96838866.97703
                  23649031.16803        37.600          22.200                  
  25243368.81305  25243392.48806  25243391.92607 132654726.25605 103367399.30504
  99060399.50607  25243391.96104        34.600          27.100          42.900  
  22307189.32806  22307201.91807  22307199.59807 117225039.99906  91344266.53506
  87538237.65007  22307201.47306        41.700          41.400          47.700  
  24987609.21905  24987624.02705  24987622.71507 131310721.01605 102320134.30904
  98056789.45007  24987622.82404        35.000          27.500          42.500  
 25 04 20 00 08 45.0000000  0 10G01G02G04G07G08G09G16G26G27G30       0.000000000
  22725023.38306  22725035.26607  22725037.27307 119420783.17906  93055222.80005
  89177922.01807  22725035.10205        41.400          30.800          46.300  
  20951259.56307                                 110099508.72007  85791949.31606
                  20951266.90606        47.000          40.500                  
  22525606.06306  22525617.68007  22525619.91807 118372816.74506  92238590.39504
  88395314.40807  22525617.40604        39.800          29.100          46.700  
  22229831.43807  22229839.86707                 116818481.36407  91027492.73007
                  22229839.44507        45.000          42.600                  
  20228422.73408  20228433.78508  20228430.81308 106301018.42308  82832063.85408
  79380714.54208  20228433.10908        48.400          52.100          53.600  
  22216034.08607  22216045.89507  22216045.22308 116745942.57207  90970939.50107
  87180473.19708  22216045.99607        43.400          42.800          48.100  
  23650737.68006                                 124285420.91906  96845904.98903
                  23650749.96503        37.300          21.500                  
  25245220.76605  25245244.36306  25245243.64107 132664457.45505 103374982.03704
  99067666.22607  25245243.79304        34.500          28.700          42.000  
  22310084.75807  22310096.80107  22310094.89107 117240254.59307  91356122.05706
  87549599.15707  22310096.72306        42.000          41.700          46.900  
  24984365.66405  24984380.16405  24984378.74607 131293673.63805 102306850.66904
  98044059.29507  24984378.71104        34.100          25.600          42.800  
 25 04 20 00 08 50.0000000  0 10G01G02G04G07G08G09G16G26G27G30       0.000000000
  22722057.00006  22722068.73407  22722070.89807 119405194.48906  93043075.76305
  89166281.11407  22722068.73005        41.500          31.200          46.400  
  20949807.48407                                 110091878.16707  85786003.42006
                  20949814.87106        47.600          41.300                  
  22528260.66406  22528272.10507  22528274.77707 118386767.68006  92249461.22104
  88405732.27507  22528272.18404        40.200          27.200          46.600  
  22227135.75807  22227143.88307                 116804314.47707  91016453.60107
                  22227143.59007        45.000          43.200                  
  20229699.62508  20229710.78108  20229707.66008 106307728.53708  82837292.50808
  79385725.33108  20229710.05908        49.200          52.300          53.600  
  22217531.43807  22217543.50807  22217542.79308 116753812.12707  90977071.60407
  87186349.80308  22217543.48407        43.400          43.000          48.400  
  23652456.91406                                 124294453.07206  96852942.97903
                  23652468.71103        38.600          22.200                  
  25247072.68805  25247096.48806  25247095.67606 132674189.82405 103382565.64804
  99074933.87506  25247095.88304        35.200          29.800          41.800  
  22312980.47706  22312992.82407  22312990.67607 117255472.04806  91367979.78206
  87560962.83207  22312992.56606        41.800          41.300          47.500  
  24981121.43805  24981135.72305  24981134.50007 131276625.99405 102293566.77804
  98031328.91007  24981134.57804        34.600          26.000          42.000  
 25 04 20 00 08 55.0000000  0 10G01G02G04G07G08G09G16G26G27G30       0.000000000
  22719091.20306  22719103.28907  22719105.24607 119389609.16906  93030931.37105
  89154642.73207  22719102.95705        41.300          30.400          46.200  
  20948358.02307                                 110084261.82207  85780068.61106
                  20948365.50806        47.600          40.500                  
  22530916.26606  22530927.92607  22530930.34407 118400722.60006  92260335.13604
  88416153.12707  22530927.75004        39.400          27.800          47.100  
  22224440.81307  22224449.13707                 116790153.21307  91005418.84707
                  22224448.75007        45.200          43.100                  
  20230978.38308  20230989.52008  20230986.52008 106314448.66308  82842528.95708
  79390743.60508  20230988.83608        48.600          52.000          53.000  
  22219030.78907  22219043.01207  22219042.28108 116761691.77307  90983211.57407
  87192233.92808  22219042.82807        43.400          43.000          48.800  
  23654176.16406                                 124303485.54706  96859981.20703
                  23654187.43803        38.600          22.000                  
  25248924.96105  25248948.80106  25248948.18006 132683923.67615 103390150.40514
  99082202.60806  25248948.19504        33.300          27.700          41.200  
  22315876.80507  22315889.10907  22315887.09807 117270692.67907  91379839.98406
  87572328.85907  22315889.02306        42.400          41.600          47.700  
  24977877.06305  24977891.34005  24977890.71107 131259578.30405 102280282.89204
  98018598.45807  24977890.44104        34.300          26.300          43.300  
 25 04 20 00 09 00.0000000  0 10G01G02G04G07G08G09G16G26G27G30       0.000000000
  22716126.26606  22716137.71907  22716140.17607 119374027.17606  93018789.56805
  89143006.83307  22716137.64505        41.300          30.200          47.000  
  20946911.46107                                 110076659.67807  85774144.86406
                  20946918.86706        47.600          40.800                  
  22533572.50806  22533584.18007  22533586.71507 118414681.44606  92271212.13904
  88426576.91507  22533583.97704        39.800          29.300          46.700  
  22221747.04707  22221755.16807                 116775997.50707  90994388.43607
                  22221755.10507        45.100          43.400                  
  20232258.97708  20232270.33208  20232267.11708 106321178.69208  82847773.13708
  79395769.26708  20232269.49608        48.700          52.200          53.000  
  22220532.30507  22220544.23007  22220543.63308 116769581.40007  90989359.30807
  87198125.52108  22220544.18807        43.300          43.100          48.500  
  23655895.62506                                 124312518.28506  96867019.68803
                  23655906.24203        39.000          22.000                  
  25250777.84405  25250801.46506  25250800.76206 132693658.95805 103397736.26704
  99089472.39606  25250800.78504        33.400          27.600          41.900  
  22318773.75807  22318786.00407  22318784.09807 117285916.39007  91391702.59607
  87583697.18307  22318786.00807        42.000          42.400          47.200  
  24974633.14805  24974646.75005  24974646.60507 131242530.47805 102266998.83304
  98005867.96307  24974646.39104        35.300          26.000          43.700  
 25 04 20 00 09 05.0000000  0 10G01G02G04G07G08G09G16G26G27G30       0.000000000
  22713161.75806  22713172.97307  22713175.73007 119358448.41906  93006650.27005
  89131373.35307  22713173.08205        41.600          30.700          46.800  
  20945467.58608                                 110069071.59608  85768232.07306
                  20945474.78906        48.000          40.700                  
  22536229.48406  22536241.17207  22536243.73407 118428644.11006  92282092.11104
  88437003.53507  22536241.00004        40.600          27.900          46.700  
  22219054.43007  22219062.68007                 116761847.26207  90983362.26007
                  22219062.40207        45.100          43.400                  
  20233541.47708  20233552.63708  20233549.68008 106327918.52208  82853024.94208
  79400802.25208  20233552.05508        49.300          52.100          53.200  
  22222035.26607  22222047.70707  22222046.81308 116777480.87007  90995514.73407
  87204024.46208  22222047.51607        43.500          42.800          48.300  
  23657613.95306                                 124321551.13206  96874058.24003
                  23657625.13703        39.400          22.000                  
  25252630.31305  25252654.13306  25252653.68006 132703395.50005 103405323.12304
  99096743.13206  25252653.68004        35.500          29.600          40.900  
  22321671.60206  22321683.71107  22321681.54307 117301143.00106  91403567.47506
  87595067.69207  22321683.49606        41.800          41.100          46.800  
  24971389.25005  24971402.82405  24971402.57807 131225482.39705 102253714.64504
  97993137.28007  24971402.03104        35.400          25.500          43.900  
 25 04 20 00 09 10.0000000  0 10G01G02G04G07G08G09G16G26G27G30       0.000000000
  22710197.75006  22710209.18007  22710211.89107 119342872.91506  92994513.51105
  89119742.30507  22710209.07005        41.400          30.500          47.300  
  20944026.33607                                 110061497.63007  85762330.28606
                  20944033.53106        47.800          41.300                  
  22538887.55506  22538898.81307  22538901.51607 118442610.58106  92292975.04404
  88447433.01807  22538898.78504        40.200          28.500          47.300  
  22216362.87507  22216370.75407                 116747702.48607  90972340.36707
                  22216370.77307        45.200          43.100                  
  20234825.98408  20234837.15208  20234834.12108 106334668.17508  82858284.41308
  79405842.56908  20234836.53508        48.800          52.300          53.300  
  22223540.54707  22223552.36707  22223551.99608 116785390.23907  91001677.86907
  87209930.79408  22223552.69507        43.000          43.000          48.600  
  23659332.96106                                 124330584.15506  96881096.95103
                  23659344.08203        39.200          21.700                  
  25254483.72705  25254507.10506  25254506.76206 132713133.34505 103412911.03604
  99104014.87806  25254506.78104        35.000          29.300          40.500  
  22324569.54707  22324581.88307  22324579.72307 117316372.58007  91415434.65507
  87606440.39207  22324581.59007        42.000          42.000          47.800  
  24968145.36705  24968158.74605  24968158.42207 131208434.20505 102240430.33004
  97980406.47007  24968157.83204        35.700          26.800          43.200  
 25 04 20 00 09 15.0000000  0 10G01G02G04G07G08G09G16G26G27G30       0.000000000
  22707234.43806  22707246.02307  22707248.56307 119327300.89206  92982379.49004
  89108113.85407  22707245.71104        41.300          29.800          47.600  
  20942587.79707                                 110053937.94507  85756439.61206
                  20942595.01206        47.600          40.800                  
  22541545.96106  22541557.47707  22541560.02707 118456581.03206  92303861.09904
  88457865.46507  22541557.43004        40.300          28.900          47.200  
  22213672.00007  22213680.24607                 116733563.39407  90961322.89607
                  22213680.19507        44.900          43.600                  
  20236112.29708  20236123.54308  20236120.41808 106341427.82708  82863551.66108
  79410890.35708  20236122.79708        49.500          52.200          53.000  
  22225047.83607  22225059.44507  22225059.00408 116793309.66207  91007848.82907
  87215844.63408  22225059.64107        43.000          42.800          48.400  
  23661051.70306                                 124339617.56406  96888135.91703
                  23661063.12903        38.900          22.200                  
  25256336.93805  25256360.35906  25256360.27706 132722872.68605 103420500.12504
  99111287.73606  25256360.20304        34.800          29.400          41.400  
  22327468.25806  22327480.46907  22327478.48807 117331605.28106  91427304.25006
  87617815.44307  22327480.31306        41.900          41.200          47.100  
  24964901.12505  24964914.75805  24964914.04307 131191385.98505 102227145.98504
  97967675.67107  24964913.67204        35.500          25.700          43.700  
 25 04 20 00 09 20.0000000  0 10G01G02G04G07G08G09G16G26G27G30       0.000000000
  22704272.00806  22704283.36307  22704285.95707 119311732.09506  92970247.97405
  89096487.82007  22704283.00005        41.100          30.000          47.000  
  20941151.67207                                 110046392.36207  85750559.94406
                  20941159.07806        47.200          40.800                  
  22544204.88306  22544216.52707  22544219.35907 118470555.22306  92314750.03704
  88468300.70707  22544216.63304        39.900          27.800          47.400  
  22210982.71907  22210990.85507                 116719429.77207  90950309.67607
                  22210990.69507        45.000          43.700                  
  20237400.39108  20237411.57008  20237408.60508 106348197.21908  82868826.50708
  79415945.42008  20237411.00408        49.300          52.200          53.300  
  22226556.18007  22226568.57807  22226567.89808 116801238.87407  91014027.42307
  87221765.76708  22226568.53907        42.700          43.000          48.300  
  23662770.67206                                 124348651.08306  96895175.03903
                  23662782.19503        38.200          21.500                  
  25258190.57805  25258214.09006  25258213.97706 132732613.31205 103428090.17504
  99118561.49906  25258213.89104        34.500          29.700          41.800  
  22330367.51606  22330379.74607  22330377.75407 117346840.84106  91439176.11406
  87629192.62807  22330379.55506        41.600          41.400          47.300  
  24961656.82805  24961670.40605  24961670.02707 131174337.55305 102213861.47604
  97954944.69107  24961669.49204        35.000          26.200          43.700  
 25 04 20 00 09 25.0000000  0 10G01G02G04G07G08G09G16G26G27G30       0.000000000
  22701309.71906  22701321.06607  22701324.00407 119296166.68506  92958119.06205
  89084864.30007  22701320.98405        40.800          30.100          47.000  
  20939718.55507                                 110038860.96607  85744691.32506
                  20939725.91006        47.400          40.600                  
  22546865.05506  22546876.46507  22546879.25807 118484533.26706  92325642.00404
  88478738.81407  22546876.54704        40.800          29.700          47.000  
  22208294.13307  22208302.58207                 116705301.74407  90939300.83207
                  22208302.15607        44.500          43.200                  
  20238690.62508  20238701.73008  20238698.68408 106354976.45808  82874109.02708
  79421007.82508  20238701.11708        49.200          52.100          53.100  
  22228067.52307  22228079.21107  22228078.57808 116809177.95207  91020213.70307
  87227694.29208  22228079.25407        42.900          42.600          48.200  
  23664489.28106                                 124357684.82806  96902214.24103
                  23664501.34003        38.300          21.300                  
  25260044.53105  25260068.02306  25260067.65606 132742355.31705 103435681.25804
  99125836.35306  25260067.79304        33.400          27.900          40.600  
  22333267.28906  22333279.60507  22333277.68407 117362079.41306  91451050.30506
  87640572.05907  22333279.32806        41.600          41.000          47.400  
  24958412.52305  24958426.28505  24958425.62107 131157289.02105 102200576.89904
  97942213.65607  24958425.30904        34.500          25.100          43.200  
 25 04 20 00 09 30.0000000  0 10G01G02G04G07G08G09G16G26G27G30       0.000000000
  22698348.46906  22698359.74207  22698362.50807 119280604.67006  92945992.82204
  89073243.32307  22698359.66404        40.800          29.000          46.800  
  20938288.10907                                 110031343.80907  85738833.79906
                  20938295.48006        47.600          40.200                  
  22549525.52306  22549537.32407  22549540.00407 118498515.12706  92336536.92704
  88489179.79207  22549537.29704        40.400          28.900          47.000  
  22205606.62507  22205615.15607                 116691179.34007  90928296.36307
                  22205614.82007        44.900          43.800                  
  20239982.46108  20239993.64808  20239990.59808 106361765.58308  82879399.25408
  79426077.61308  20239993.01608        48.900          52.200          53.200  
  22229579.85907  22229591.99207  22229591.17207 116817127.00307  91026407.76707
  87233630.24207  22229591.82807        42.400          42.900          47.600  
  23666208.35906                                 124366718.86306  96909253.75403
                  23666220.54703        38.200          22.300                  
  25261898.94505  25261922.03506  25261921.85206 132752098.78405 103443273.52504
  99133112.25906  25261922.02304        32.700          26.900          39.900  
  22336167.68007  22336179.95707  22336178.02707 117377320.96407  91462926.81906
  87651953.70307  22336179.85206        42.100          41.700          47.000  
  24955168.10205  24955181.96105  24955181.39507 131140240.46605 102187292.30004
  97929482.57107  24955181.01204        34.000          25.300          43.500  
 25 04 20 00 09 35.0000000  0 10G01G02G04G07G08G09G16G26G27G30       0.000000000
  22695387.50006  22695399.01607  22695401.86307 119265045.98506  92933869.18504
  89061624.84107  22695398.87104        40.600          28.600          46.700  
  20936860.36707                                 110023840.82207  85732987.31806
                  20936867.72306        47.400          41.000                  
  22552187.09406  22552198.69507  22552201.43407 118512500.73806  92347434.79904
  88499623.54507  22552198.73804        40.800          29.600          46.800  
  22202920.41407  22202928.64107                 116677062.42707  90917296.17507
                  22202928.41007        45.000          43.500                  
  20241276.30508  20241287.41408  20241284.41808 106368564.44508  82884697.05908
  79431154.67808  20241286.82408        48.900          52.100          53.200  
  22231094.32807  22231106.57007  22231105.81607 116825085.81207  91032609.41607
  87239573.50907  22231106.26607        42.800          43.000          47.700  
  23667927.63306                                 124375753.01006  96916293.30503
                  23667939.68003        37.700          21.500                  
  25263752.96905  25263776.59006  25263776.21106 132761843.56005 103450866.80404
  99140389.12506  25263776.36704        33.600          28.100          40.800  
  22339068.68807  22339081.16407  22339078.91807 117392565.44307  91474805.62006
  87663337.52807  22339080.64506        42.000          41.400          47.500  
  24951923.78105  24951937.48405  24951937.06307 131123191.70605 102174007.53804
  97916751.38107  24951936.77304        35.000          26.800          42.600  
 25 04 20 00 09 40.0000000  0 10G01G02G04G07G08G09G16G26G27G30       0.000000000
  22692427.43806  22692438.89107  22692441.69907 119249490.61306  92921748.11004
  89050008.82307  22692438.80504        40.600          29.400          46.800  
  20935435.35207                                 110016351.95207  85727151.83306
                  20935442.62906        47.500          41.000                  
  22554849.05506  22554860.85507  22554863.43007 118526489.98606  92358335.49404
  88510070.04807  22554860.69104        40.900          28.700          47.000  
  22200235.24207  22200243.27007                 116662951.02107  90906300.26907
                  22200243.10907        44.500          43.600                  
  20242571.70308  20242583.16408  20242580.01608 106375372.99708  82890002.41008
  79436238.97508  20242582.47308        49.300          52.200          52.800  
  22232610.88307  22232622.92607  22232622.18807 116833054.37907  91038818.67607
  87245524.04707  22232622.58607        43.300          42.700          47.800  
  23669646.86706                                 124384787.33806  96923332.96503
                  23669658.94903        38.400          22.200                  
  25265607.78905  25265631.20706  25265630.66406 132771589.61305 103458461.09904
  99147666.94506  25265630.94504        33.700          27.000          40.300  
  22341970.10207  22341982.32407  22341980.31607 117407812.69207  91486686.56806
  87674723.45407  22341982.24606        42.400          41.800          47.100  
  24948679.25805  24948693.57805  24948692.64507 131106142.81805 102160722.72604
  97904020.05507  24948692.51604        34.800          24.800          43.600  
 25 04 20 00 09 45.0000000  0 10G01G02G04G07G08G09G16G26G27G30       0.000000000
  22689468.12506  22689479.50007  22689482.24607 119233938.75106  92909629.80005
  89038395.42807  22689479.25805        40.300          30.400          47.000  
  20934012.97707                                 110008877.40307  85721327.51006
                  20934020.36306        46.900          40.800                  
  22557512.14806  22557523.52307  22557526.18807 118540483.11806  92369239.20304
  88520519.42807  22557523.45304        40.800          29.300          46.700  
  22197550.67207  22197558.90607                 116648845.33707  90895308.82807
                  22197558.91007        44.500          43.200                  
  20243869.37508  20243880.46908  20243877.55908 106382191.44708  82895315.47508
  79441330.67208  20243879.97708        48.100          52.000          53.300  
  22234129.14107  22234141.04707  22234140.54308 116841032.89207  91045035.67707
  87251481.99908  22234140.94507        42.300          42.800          48.200  
  23671366.14106                                 124393821.96606  96930372.91403
                  23671378.19903        37.800          21.800                  
  25267462.73405  25267486.39806  25267485.50806 132781337.15305 103466056.52904
  99154945.90606  25267485.84004        33.500          26.800          40.900  
  22344872.07806  22344884.47707  22344882.42607 117423062.98406  91498569.88906
  87686111.63707  22344884.14506        41.600          41.400          47.000  
  24945435.47705  24945448.69905  24945448.35507 131089093.96605 102147437.84304
  97891288.75307  24945448.21104        34.000          25.100          42.300  
 25 04 20 00 09 50.0000000  0 10G01G02G04G07G08G09G16G26G27G30       0.000000000
  22686509.40606  22686520.66807  22686523.38307 119218390.39006  92897514.19605
  89026784.64007  22686520.51605        40.900          30.900          46.300  
  20932593.28107                                 110001417.14607  85715514.33706
                  20932600.72706        47.800          40.700                  
  22560175.48406  22560187.15607  22560189.85507 118554480.03406  92380145.86604
  88530971.64607  22560186.98804        41.000          29.000          46.400  
  22194867.81307  22194875.81607                 116634745.30807  90884321.79907
                  22194875.78107        44.900          43.900                  
  20245168.82008  20245179.94908  20245176.96508 106389019.71708  82900636.20808
  79446429.68908  20245179.33608        49.100          52.200          52.900  
  22235649.15607  22235661.20307  22235660.62508 116849021.27107  91051260.38007
  87257447.33408  22235661.21507        43.400          43.100          48.800  
  23673085.72706                                 124402856.87806  96937413.05703
                  23673097.52703        38.100          20.900                  
  25269317.98405  25269341.09006  25269341.05106 132791086.13405 103473653.07504
  99162225.92806  25269341.07004        33.900          27.600          39.800  
  22347774.78107  22347787.10907  22347784.99207 117438316.24107  91510455.51806
  87697502.01607  22347786.78906        42.000          41.300          47.200  
  24942190.64105  24942204.46906  24942204.02007 131072045.03305 102134153.00104
  97878557.42607  24942203.93404        34.300          27.000          42.400  
 25 04 20 00 09 55.0000000  0 10G01G02G04G07G08G09G16G26G27G30       0.000000000
  22683551.36706  22683562.59407  22683565.18007 119202845.37106  92885401.19405
  89015176.36307  22683562.47305        40.500          30.200          46.200  
  20931176.36708                                 109993971.07708  85709712.19906
                  20931183.83606        48.100          40.600                  
  22562840.00806  22562851.35207  22562854.12107 118568480.58206  92391055.33705
  88541426.57907  22562851.30905        41.300          30.100          46.600  
  22192185.78107  22192194.07007                 116620650.83907  90873339.09307
                  22192193.75007        45.100          43.000                  
  20246470.02308  20246481.24208  20246478.13308 106395857.67508  82905964.46908
  79451535.94608  20246480.54308        50.200          52.200          53.200  
  22237171.26607  22237183.32007  22237182.60508 116857019.35307  91057492.63307
  87263419.91908  22237183.30907        43.500          42.700          48.300  
  23674805.13306                                 124411891.94806  96944453.38003
                  23674816.85503        38.100          20.100                  
  25271173.42205  25271197.10506  25271196.60506 132800836.41305 103481250.66204
  99169506.91706  25271196.46904        33.800          27.000          40.400  
  22350677.89807  22350690.06307  22350688.25807 117453572.30107  91522343.33506
  87708894.51307  22350689.98406        42.000          41.600          47.300  
  24938946.53905  24938960.64805  24938959.69507 131054996.04605 102120868.05403
  97865826.03507  24938959.62903        32.600          23.800          42.200  
 25 04 20 00 10 00.0000000  0 10G01G02G04G07G08G09G16G26G27G30       0.000000000
  22680593.98406  22680605.22707  22680607.76207 119187303.87706  92873290.94204
  89003570.70707  22680605.06604        40.800          29.800          46.500  
  20929762.16407                                 109986539.32207  85703921.21506
                  20929769.61306        47.900          41.000                  
  22565504.82006  22565516.03107  22565519.11307 118582484.92906  92401967.78704
  88551884.32807  22565516.18804        41.100          29.600          46.600  
  22189504.72707  22189512.86707                 116606562.09407  90862360.84507
                  22189512.71907        45.000          43.300                  
  20247773.07008  20247784.38308  20247781.27708 106402705.47708  82911300.41108
  79456649.55208  20247783.64808        49.300          52.100          52.900  
  22238695.11707  22238707.11707  22238706.47308 116865027.35007  91063732.60107
  87269399.88208  22238707.20307        42.900          43.100          48.000  
  23676524.53106                                 124420927.37506  96951493.88403
                  23676536.14503        39.200          23.000                  
  25273028.78905  25273052.31606  25273052.04306 132810588.17105 103488849.40504
  99176789.01206  25273052.08204        32.900          26.400          40.100  
  22353581.74207  22353593.94907  22353591.92607 117468831.35507  91534233.48706
  87720289.22707  22353593.71106        42.100          40.600          47.000  
  24935702.19505  24935715.93006  24935715.29307 131037947.05105 102107583.09504
  97853094.62207  24935715.43404        33.600          25.000          42.000  
 25 04 20 00 10 05.0000000  0 10G01G02G04G07G08G09G16G26G27G30       0.000000002
  22677636.81306  22677648.42607  22677650.96907 119171765.74206  92861183.30305
  88991967.53807  22677648.34405        40.600          30.800          45.800  
  20928350.72708                                 109979121.73008  85698141.26906
                  20928358.02306        48.600          41.000                  
  22568170.43806  22568181.87907  22568184.70307 118596492.84306  92412883.02904
  88562344.75707  22568181.78904        41.100          29.600          46.400  
  22186824.82807  22186832.68407                 116592478.88607  90851386.92107
                  22186832.84407        44.500          43.300                  
  20249078.07808  20249089.16008  20249086.19908 106409562.87408  82916643.82908
  79461770.33608  20249088.57408        49.300          52.200          52.800  
  22240220.71907  22240232.80107  22240232.28508 116873044.98007  91069980.09507
  87275387.06408  22240232.98007        42.900          42.900          48.100  
  23678243.76606                                 124429962.99406  96958534.62503
                  23678255.54703        38.200          21.100                  
  25274885.18005  25274908.32806  25274908.34406                                
  99184072.04306  25274908.12504        33.500          26.100          39.000  
  22356485.88307  22356498.21907  22356496.24607 117484093.13407  91546125.76106
  87731685.97207  22356497.91806        42.600          41.500          47.600  
  24932458.09405  24932471.62906  24932470.99207 131020897.89205 102094298.06104
  97840363.12907  24932471.13704        34.100          27.100          42.200  
 25 04 20 00 10 10.0000000  0 10G01G02G04G07G08G09G16G26G27G30       0.000000000
  22674680.78106  22674692.38307  22674694.79707 119156231.08406  92849078.38504
  88980367.01207  22674692.23804        40.800          29.100          46.700  
  20926941.69508                                 109971718.42308  85692372.47206
                  20926949.27006        48.400          41.100                  
  22570836.85206  22570848.56307  22570850.97707 118610504.47606  92423801.17804
  88572807.95507  22570848.28904        40.600          29.700          46.800  
  22184145.80507  22184154.15607                 116578401.37307  90840417.43907
                  22184153.96507        45.400          43.400                  
  20250384.82808  20250395.94908  20250392.95308 106416430.04208  82921994.86608
  79466898.40708  20250395.30108        49.700          52.300          52.800  
  22241748.66407  22241760.60207  22241759.85208 116881072.39807  91076235.21107
  87281381.55108  22241760.50007        43.400          43.000          48.100  
  23679963.37506                                 124438998.83806  96965575.51603
                  23679975.10903        38.400          21.700                  
  25276741.09405  25276764.66406  25276764.84006 132830095.61505 103504049.90004
  99191356.18206  25276764.28904        33.300          26.200          38.900  
  22359390.84407  22359403.03107  22359400.98407 117499357.77907  91558020.26006
  87743084.89407  22359402.74606        42.300          41.400          46.900  
  24929213.68805  24929227.56606  24929226.54306 131003848.68105 102081012.94304
  97827631.61606  24929226.77004        33.800          27.200          41.700  
 25 04 20 00 10 15.0000000  0 10G01G02G04G07G08G09G16G26G27G30       0.000000000
  22671725.23406  22671736.80507  22671739.46907 119140700.05706  92836976.28804
  88968769.15007  22671736.90204        40.700          29.900          46.700  
  20925535.78907                                 109964329.45607  85686614.83506
                  20925543.05506        47.500          41.100                  
  22573504.07006  22573515.56607  22573517.94107 118624519.86806  92434722.22904
  88583273.96207  22573515.38704        40.200          28.500          46.400  
  22181467.98407  22181476.49607                 116564329.65307  90829452.45807
                  22181476.19507        45.200          43.200                  
  20251693.50008  20251704.56608  20251701.57408 106423307.02108  82927353.55108
  79472033.80108  20251703.98408        49.800          52.100          53.100  
  22243277.81307  22243289.90607  22243289.42208 116889109.67607  91082498.02007
  87287383.40008  22243289.93007        43.400          42.900          48.200  
  23681682.42206                                 124448034.97306  96972616.67103
                  23681694.55903        37.400          21.500                  
  25278597.90605  25278621.16806  25278620.83606 132839851.53605 103511651.86304
  99198641.38106  25278620.78104        33.500          26.700          39.400  
  22362295.99207  22362308.19107  22362306.27007 117514625.42807  91569917.11806
  87754486.01007  22362308.00806        42.100          41.100          47.300  
  24925969.32005  24925983.10506  24925982.09006 130986799.59305 102067727.94104
  97814900.16306  24925982.46904        33.100          26.500          41.000  
 25 04 20 00 10 20.0000000  0 10G01G02G04G07G08G09G16G26G27G30       0.000000000
  22668770.30506  22668782.19507  22668784.59007 119125172.39206  92824876.84004
  88957173.84907  22668782.05104        40.500          29.600          46.300  
  20924132.39107                                 109956954.69107  85680868.26506
                  20924139.68006        47.900          41.000                  
  22576171.84406  22576183.28507  22576185.55107 118638538.82606  92445646.06105
  88593742.63407  22576183.09405        40.700          30.000          46.600  
  22178791.23407  22178799.59407                 116550263.52707  90818491.84407
                  22178799.50007        45.000          43.700                  
  20253003.96108  20253015.00408  20253012.06608 106430193.62508  82932719.72308
  79477176.39208  20253014.46108        49.800          52.300          53.500  
  22244809.06307  22244821.13707  22244820.66808 116897156.60507  91088768.33907
  87293392.44908  22244821.03107        43.600          42.900          48.400  
  23683401.98406                                 124457071.24006  96979657.80703
                  23683414.18003        37.100          22.300                  
  25280454.50805  25280477.78906  25280477.67606 132849608.79305 103519254.85104
  99205927.59106  25280477.54704        33.000          26.500          38.900  
  22365201.71907  22365214.27007  22365212.12107 117529895.77307  91581816.06206
  87765889.17607  22365213.88706        42.500          41.300          46.900  
  24922724.69505  24922739.27006  24922737.68006 130969750.44705 102054442.90104
  97802168.63606  24922738.26204        32.200          25.900          40.900  
 25 04 20 00 10 25.0000000  0 10G01G02G04G07G08G09G16G26G27G30       0.000000000
  22665816.48406  22665828.22307  22665830.45707 119109648.24506  92812780.08804
  88945581.13207  22665827.85904        40.400          28.600          46.700  
  20922731.70308                                 109949594.18308  85675132.79406
                  20922738.98006        48.400          40.800                  
  22578839.99206  22578851.75007  22578853.96107 118652561.37706  92456572.70904
  88604213.99207  22578851.53104        40.800          28.700          46.200  
  22176115.73407  22176124.28107                 116536203.05107  90807535.61707
                  22176123.90207        45.200          43.100                  
  20254316.32808  20254327.47708  20254324.38708 106437089.87408  82938093.40808
  79482326.18408  20254326.80508        49.400          52.100          53.100  
  22246342.18007  22246354.22307  22246353.78508 116905213.21007  91095046.18607
  87299408.72708  22246353.99207        42.600          42.900          48.600  
  23685121.39806                                 124466107.66906  96986699.15603
                  23685133.79303        37.600          21.700                  
  25282311.43005  25282335.14506  25282334.66406 132859367.35805 103526858.87904
  99213214.76206  25282334.57404        32.200          25.200          38.500  
  22368108.54707  22368120.43807  22368118.50007 117545168.92007  91593717.17506
  87777294.42507  22368120.35906        42.000          40.800          46.600  
  24919480.46905  24919494.48806  24919493.46106 130952701.21105 102041157.77204
  97789437.08306  24919493.87904        32.500          26.200          40.700  
 25 04 20 00 10 30.0000000  0 10G01G02G04G07G08G09G16G26G27G30       0.000000000
  22662862.83606  22662874.42607  22662876.98007 119094127.74406  92800686.19004
  88933991.16207  22662874.37504        40.400          29.300          46.600  
  20921333.82807                                 109942248.10807  85669408.59906
                  20921341.05106        47.600          40.900                  
  22581509.39106  22581521.17607  22581523.10507 118666587.67806  92467502.25704
  88614688.14807  22581520.79704        40.000          29.600          45.800  
  22173441.09407  22173449.35907                 116522148.44807  90796583.98407
                  22173449.37907        44.400          43.800                  
  20255630.48408  20255641.56308  20255638.59408 106443995.95308  82943474.76308
  79487483.30708  20255640.96108        49.000          52.100          53.000  
  22247877.50807  22247889.20707  22247888.72708 116913279.65307  91101331.72607
  87305432.35808  22247888.90207        42.500          42.900          48.500  
  23686841.98406                                 124475144.49406  96993740.84803
                  23686853.54303        38.100          22.200                  
  25284168.82005  25284192.54306  25284191.98806 132869127.52405 103534464.18904
  99220503.16906  25284191.94104        31.800          25.800          38.400  
  22371015.44507  22371027.52307  22371025.41407 117560444.99407  91605620.60006
  87788701.85607  22371027.19506        42.300          41.400          47.100  
  24916236.09405  24916250.28906  24916248.88706 130935652.12305 102027872.80704
  97776705.58706  24916249.60904        33.200          25.800          40.800  
 25 04 20 00 10 35.0000000  0 10G01G02G04G07G08G09G16G26G27G30       0.000000000
  22659909.85206  22659921.68407  22659924.16407 119078610.67706  92788594.99704
  88922403.74907  22659921.51204        40.200          28.700          46.600  
  20919938.55507                                 109934916.25107  85663695.46506
                  20919945.87506        47.800          40.900                  
  22584178.99206  22584190.86307  22584193.04707 118680617.48406  92478434.53604
  88625164.91707  22584190.69904        40.500          29.900          46.200  
  22170767.67207  22170776.26207                 116508099.45407  90785636.73407
                  22170775.99207        44.300          43.900                  
  20256946.44508  20256957.60908  20256954.54708 106450911.57808  82948863.56508
  79492647.56908  20256956.94908        49.200          51.900          53.000  
  22249413.97707  22249426.14107  22249425.48008 116921355.72207  91107624.74707
  87311463.16108  22249425.75807        42.700          42.700          48.400  
  23688561.84406                                 124484181.41506  97000782.52603
                  23688573.25003        38.800          21.500                  
  25286026.37505  25286050.09806  25286049.29706                                
  99227792.51206  25286049.54304        32.600          25.000          38.300  
  22373922.99207  22373934.83607  22373932.91807 117575723.76807  91617526.10606
  87800111.30307  22373934.64506        42.000          40.900          47.300  
  24912991.53105  24913006.28106  24913004.50806 130918602.95605 102014587.74004
  97763974.07906  24913005.31604        33.700          26.600          41.300  
 25 04 20 00 10 40.0000000  0 10G01G02G04G07G08G09G16G26G27G30       0.000000000
  22656957.79706  22656969.79707  22656971.92207 119063097.31506  92776506.67104
  88910819.10007  22656969.44904        40.200          27.700          46.100  
  20918546.16408                                 109927598.86108  85657993.60206
                  20918553.44106        48.400          41.400                  
  22586849.40606  22586861.24207  22586863.56607 118694650.99706  92489369.73304
  88635644.47507  22586861.18004        40.400          29.500          46.600  
  22168095.36707  22168103.88707                 116494056.35107  90774694.05207
                  22168103.71507        44.600          43.600                  
  20258264.25008  20258275.41808  20258272.46508 106457837.02108  82954260.00408
  79497819.14908  20258274.82408        49.500          52.300          53.400  
  22250952.75007  22250964.96907  22250964.22708 116929441.60007  91113925.41507
  87317501.29508  22250964.50007        42.800          42.700          48.600  
  23690281.64806                                 124493218.72906  97007824.56403
                  23690293.14503        38.800          20.900                  
  25287884.01605  25287907.92206  25287907.15606 132888651.96705 103549677.90404
  99235082.99306  25287907.56604        31.700          26.700          38.900  
  22376830.86706  22376842.94507  22376840.88307 117591005.48206  91629433.90506
  87811522.94007  22376842.74206        41.800          40.900          47.000  
  24909747.09405  24909761.85206  24909760.24206 130901553.92405 102001302.78204
  97751242.66306  24909761.02704        33.500          26.000          41.300  
 25 04 20 00 10 45.0000000  0 10G01G02G04G07G08G09G16G26G27G30       0.000000002
  22654006.43806  22654018.05507  22654020.52707 119047587.48506  92764421.07804
  88899237.09207  22654018.02004        40.300          29.200          46.700  
  20917156.38308                                 109920295.76708  85652302.87606
                  20917163.66406        48.300          41.600                  
  22589520.70306  22589532.42207  22589534.72307 118708688.06506  92500307.68204
  88646126.66107  22589532.32804        40.400          29.800          46.500  
  22165424.10907  22165432.62107                 116480018.98407  90763755.83207
                  22165432.50807        44.500          43.900                  
  20259584.07808  20259595.39808  20259592.19908 106464772.04308  82959663.91408
  79502997.89808  20259594.58208        49.600          52.100          52.800  
  22252493.21107  22252505.34007  22252504.79308 116937537.11907  91120233.58607
  87323546.64108  22252505.14107        42.700          42.500          48.500  
  23692001.63306                                 124502256.23406  97014866.78203
                  23692012.97303        38.800          21.100                  
  25289743.00805  25289766.03506  25289765.49606 132898416.28005 103557286.39704
  99242374.47806  25289765.88704        33.100          24.500          38.100  
  22379739.50007  22379751.81607  22379749.57407 117606289.92207  91641343.84706
  87822936.61907  22379751.23406        42.100          41.300          47.400  
  24906503.16405  24906517.53506  24906515.79706 130884504.90305 101988017.86304
  97738511.25306  24906516.67204        33.600          27.200          40.800  
 25 04 20 00 10 50.0000000  0 10G01G02G04G07G08G09G16G26G27G30       0.000000002
  22651055.82006  22651067.01607  22651069.82007 119032081.21806  92752338.30504
  88887657.74107  22651067.32804        40.500          29.400          46.200  
  20915769.38308                                 109913007.02008  85646623.33406
                  20915776.69906        48.300          41.000                  
  22592192.50806  22592204.41407  22592206.53107 118722728.68906  92511248.39604
  88656611.50907  22592204.21904        40.400          29.700          46.000  
  22162754.05507  22162762.53507                 116465987.34807  90752822.09507
                  22162762.37507        45.000          43.800                  
  20260905.68008  20260916.91008  20260913.72308 106471716.72708  82965075.35508
  79508183.84908  20260916.07008        49.300          52.100          52.900  
  22254035.69507  22254047.85207  22254047.22708 116945642.29907  91126549.30907
  87329599.18708  22254047.49607        43.000          42.800          48.500  
  23693720.68006                                 124511293.99406  97021909.12303
                  23693732.88303        38.700          21.100                  
  25291600.84405  25291624.26606  25291623.64806 132908182.03705 103564896.04304
  99249667.02006  25291624.38304        33.200          24.200          39.200  
  22382648.56306  22382660.73407  22382658.64807 117621577.10406  91653255.92706
  87834352.34907  22382660.34806        41.700          40.600          47.600  
  24903258.78105  24903273.30106  24903271.47706 130867455.92405 101974732.96704
  97725779.88506  24903272.38704        34.400          26.200          40.600  
 25 04 20 00 10 55.0000000  0 10G01G02G04G07G08G09G16G26G27G30       0.000000000
  22648106.01606  22648117.15607  22648119.75807 119016578.51206  92740258.27804
  88876081.05407  22648117.25004        40.200          29.700          46.600  
  20914385.09407                                 109905732.56907  85640954.93106
                  20914392.42606        47.900          40.800                  
  22594865.12506  22594876.78507  22594879.14507 118736772.78906  92522191.80505
  88667098.95207  22594876.78505        40.800          30.100          46.100  
  22160085.02307  22160093.34007                 116451961.44307  90741892.81507
                  22160093.29707        45.300          43.700                  
  20262228.87508  20262240.07408  20262237.07808 106478670.98208  82970494.23408
  79513376.95008  20262239.42608        48.700          52.100          52.900  
  22255580.10207  22255592.03907  22255591.27708 116953757.03607  91132872.47007
  87335658.88708  22255591.83207        42.800          42.900          48.500  
  23695441.13306                                 124520331.94906  97028951.65103
                  23695452.71903        37.600          21.100                  
  25293459.46105  25293482.90206  25293482.17206 132917949.08005 103572506.66604
  99256960.56906  25293482.98404        33.900          27.000          39.200  
  22385558.00007  22385570.35907  22385568.12507 117636866.99507  91665170.09706
  87845770.10307  22385569.98006        42.400          40.800          47.500  
  24900014.63305  24900028.77306  24900027.21906 130850406.96205 101961448.04804
  97713048.48806  24900028.11704        34.100          26.400          40.400  
 25 04 20 00 11 00.0000000  0 10G01G02G04G07G08G09G16G26G27G30       0.000000000
  22645156.46906  22645167.89807  22645170.44907 119001079.48406  92728181.12604
  88864507.10607  22645167.84004        40.400          29.100          46.600  
  20913003.63307                                 109898472.55307  85635297.77906
                  20913010.89806        47.800          41.300                  
  22597538.21106  22597550.35907  22597552.33207 118750820.47606  92533138.03905
  88677589.07907  22597549.93805        41.000          30.200          46.400  
  22157416.95307  22157425.56307                 116437941.40907  90730968.11607
                  22157425.37507        45.300          43.800                  
  20263554.24208  20263565.28908  20263562.29308 106485634.90408  82975920.67608
  79518577.28008  20263564.61308        49.600          51.900          53.100  
  22257125.81307  22257138.09007  22257137.35908 116961881.50007  91139203.20807
  87341725.83508  22257137.94907        43.100          43.000          48.000  
  23697160.31306                                 124529370.30706  97035994.53103
                  23697172.70703        36.800          22.000                  
  25295318.35205  25295342.21906  25295341.28506 132927717.67905 103580118.54204
  99264255.23106  25295341.81304        35.400          26.300          39.800  
  22388468.23407  22388480.52007  22388478.37107 117652159.70207  91677086.47406
  87857189.95107  22388480.07806        42.200          41.300          47.800  
  24896770.18805  24896784.31606  24896782.85506 130833358.11805 101948163.24004
  97700317.22906  24896783.96904        34.200          27.800          40.800  
 25 04 20 00 11 05.0000000  0 10G01G02G04G07G08G09G16G26G27G30       0.000000000
  22642207.73406  22642219.13307  22642221.87107 118985584.09706  92716106.78804
  88852935.87207  22642219.12504        40.300          28.900          47.000  
  20911624.82807                                 109891226.89707  85629651.81106
                  20911632.14806        47.600          40.800                  
  22600212.18806  22600223.88307  22600226.16407 118764871.71606  92544087.01804
  88688081.85507  22600223.82004        40.600          29.400          46.000  
  22154750.28107  22154758.52707                 116423927.21407  90720047.96407
                  22154758.54307        45.400          44.100                  
  20264881.23408  20264892.25008  20264889.29308 106492608.45408  82981354.59908
  79523784.80108  20264891.60208        49.700          52.100          52.900  
  22258674.06307  22258685.83607  22258685.27307 116970015.58207  91145541.44007
  87347799.98207  22258685.82807        43.500          42.900          47.900  
  23698880.26606                                 124538408.89706  97043037.51903
                  23698892.66403        38.100          21.100                  
  25297177.44505  25297201.21105  25297200.67206                                
  99271550.98506  25297200.89504        34.800          27.300          39.700  
  22391378.98406  22391390.90207  22391388.98407 117667455.15106  91689004.96506
  87868611.84507  22391390.73006        41.600          40.700          47.100  
  24893525.97705  24893540.21906  24893538.60506 130816309.40405 101934878.55004
  97687586.02106  24893539.68404        34.300          27.000          40.700  
 25 04 20 00 11 10.0000000  0 10G01G02G04G07G08G09G16G26G27G30       0.000000000
  22639259.91406  22639271.04307  22639273.96107 118970092.33306  92704035.30104
  88841367.35707  22639270.98804        40.400          29.200          47.200  
  20910248.82007                                 109883995.62207  85624017.05706
                  20910256.14106        47.700          41.200                  
  22602886.68806  22602898.51207  22602900.67607 118778926.43906  92555038.71705
  88698577.24107  22602898.43805        40.800          30.400          46.000  
  22152084.59407  22152092.87107                 116409918.78007  90709132.30107
                  22152092.85207        45.200          43.600                  
  20266210.09408  20266221.14508  20266218.16008 106499591.57308  82986795.98008
  79528999.45808  20266220.48408        49.900          52.200          52.800  
  22260223.62507  22260235.48407  22260235.06308 116978159.26507  91151887.14707
  87353881.27508  22260235.51607        42.500          42.600          48.000  
  23700600.20306                                 124547447.75106  97050080.77203
                  23700612.67603        38.400          21.700                  
  25299036.90605  25299060.74605  25299060.10906 132947259.09605 103595345.50604
  99278847.74906  25299060.31604        34.200          26.800          39.800  
  22394289.99206  22394302.13707  22394300.16407 117682753.30306  91700925.58906
  87880035.76507  22394301.84406        41.800          40.600          47.000  
  24890282.03905  24890296.19506  24890294.34406 130799260.68305 101921593.82704
  97674854.84206  24890295.52304        33.700          27.700          40.200  
 25 04 20 00 11 15.0000000  0 10G01G02G04G07G08G09G16G26G27G30       0.000000000
  22636312.28106  22636323.75807  22636326.68407 118954604.24806  92691966.66104
  88829801.60707  22636323.60504        40.000          28.500          47.200  
  20908875.34408                                 109876778.73408  85618393.51006
                  20908882.79306        48.100          41.000                  
  22605561.85906  22605573.90607  22605576.00407 118792984.66706  92565993.17704
  88709075.23507  22605573.65604        41.400          28.900          45.800  
  22149419.81307  22149428.43007                 116395916.17407  90698221.17907
                  22149428.29707        45.900          43.900                  
  20267540.56308  20267551.94508  20267548.86708 106506584.31008  82992244.86508
  79534221.29008  20267551.18808        50.000          52.100          53.500  
  22261775.07807  22261787.10507  22261786.63708 116986312.55907  91158240.35107
  87359969.76008  22261787.00407        42.400          42.500          48.100  
  23702321.29706                                 124556486.87606  97057124.23103
                  23702332.74203        38.600          21.500                  
  25300896.60205  25300919.78105  25300919.93806 132957031.94305 103602960.66304
  99286145.61606  25300919.96904        33.400          24.500          39.600  
  22397201.46906  22397213.93007  22397211.83607 117698054.18706  91712848.34106
  87891461.71707  22397213.51206        41.900          40.900          47.000  
  24887037.69505  24887051.58206  24887049.99206 130782212.11605 101908309.22104
  97662123.76406  24887051.25004        34.100          27.400          39.900  
 25 04 20 00 11 20.0000000  0 10G01G02G04G07G08G09G16G26G27G30       0.000000000
  22633365.66406  22633376.93007  22633380.16007 118939119.85806  92679900.90404
  88818238.59507  22633376.96504        40.400          29.100          46.600  
  20907504.87508                                 109869576.25108  85612781.19606
                  20907512.19106        48.000          40.900                  
  22608237.81306  22608249.66407  22608251.91007 118807046.35206  92576950.30304
  88719575.82007  22608249.44504        41.100          29.900          46.100  
  22146756.57007  22146764.97307                 116381919.42207  90687314.63107
                  22146764.78907        45.800          43.600                  
  20268873.12508  20268884.44508  20268881.41808 106513586.61008  82997701.19808
  79539450.28108  20268883.66008        49.500          52.000          53.000  
  22263328.46107  22263340.53107  22263340.06307 116994475.44507  91164601.02707
  87366065.39407  22263340.42607        42.200          42.500          47.900  
  23704042.09406                                 124565526.25006  97064167.86603
                  23704052.87503        38.700          21.700                  
  25302756.78905  25302780.16405  25302780.31606                                
  99293444.55406  25302780.01604        33.400          24.500          39.900  
  22400113.97706  22400126.21907  22400123.96907 117713357.78006  91724773.19206
  87902889.69807  22400125.72306        41.700          41.300          46.800  
  24883793.63305  24883807.75806  24883805.66406 130765163.62105 101895024.71904
  97649392.76606  24883807.00804        34.800          29.000          40.100  
 25 04 20 00 11 25.0000000  0 10G01G02G04G07G08G09G16G26G27G30       0.000000000
  22630419.95306  22630431.11307  22630434.28907 118923639.20606  92667838.09304
  88806678.39007  22630431.09804        40.500          29.500          47.000  
  20906136.93807                                 109862388.24307  85607180.15106
                  20906144.27006        47.600          40.700                  
  22610914.15606  22610925.93007  22610928.47307 118821111.55606  92587910.18904
  88730079.01407  22610925.95304        40.900          29.900          46.500  
  22144094.35207  22144102.41807                 116367928.57007  90676412.66707
                  22144102.47707        45.800          44.300                  
  20270207.35208  20270218.75408  20270215.75008 106520598.53408  83003165.02308
  79544686.44208  20270218.03908        49.500          52.000          52.900  
  22264883.60206  22264895.71907  22264895.26608 117002647.93306  91170969.18307
  87372168.21908  22264895.67207        41.800          42.500          48.500  
  23705761.78106                                 124574565.91606  97071211.73203
                  23705773.16803        39.200          22.200                  
  25304617.35905  25304640.53505  25304640.97706 132976583.04005 103618195.46703
  99300744.59306  25304640.24603        33.200          22.300          39.200  
  22403026.52306  22403038.99207  22403036.80107 117728664.08606  91736700.16406
  87914319.70707  22403038.45306        41.400          40.900          47.100  
  24880549.24205  24880563.54306  24880561.60906 130748115.36805 101881740.33204
  97636661.90806  24880562.92604        35.000          27.500          40.600  
 25 04 20 00 11 30.0000000  0 10G01G02G04G07G08G09G16G26G27G30       0.000000000
  22627474.78906  22627486.19507  22627488.96907 118908162.12606  92655778.01904
  88795120.83407  22627486.00004        40.700          28.900          46.700  
  20904771.94508                                 109855214.56108  85601590.26906
                  20904779.11306        48.400          41.000                  
  22613591.40606  22613603.06607  22613605.66807 118835180.07806  92598872.62604
  88740584.70007  22613603.00004        41.400          29.900          46.500  
  22141432.82007  22141441.16007                 116353943.46307  90665515.17907
                  22141441.18807        45.700          44.100                  
  20271543.77308  20271554.89508  20271551.83208 106527619.88108  83008636.19708
  79549929.65408  20271554.16808        48.900          52.300          52.900  
  22266440.51607  22266452.63307  22266452.35908 117010829.91807  91177344.73707
  87378278.11608  22266452.62507        42.300          42.600          48.200  
  23707482.23406                                 124583605.78206  97078255.74703
                  23707493.54303        39.500          22.800                  
  25306477.83605  25306500.93405  25306501.15206                                
  99308045.61506  25306500.77703        33.300          22.800          40.000  
  22405939.68006  22405952.16407  22405950.01207 117743972.98006  91748629.15006
  87925751.63607  22405951.65606        41.600          40.900          46.400  
  24877304.93805  24877318.92606  24877317.56306 130731067.06105 101868455.95304
  97623931.03106  24877318.78904        35.400          27.900          41.100  
 25 04 20 00 11 35.0000000  0 10G01G02G04G07G08G09G16G26G27G30       0.000000002
  22624530.21906  22624541.60207  22624544.36707 118892688.80206  92643720.88904
  88783566.08907  22624541.62504        40.900          28.600          46.500  
  20903409.37507                                 109848055.36007  85596011.67206
                  20903416.69906        47.700          41.300                  
  22616269.49206  22616280.82407  22616283.49607 118849252.10806  92609837.82504
  88751093.00507  22616280.79704        41.400          29.700          46.300  
  22138772.71107  22138781.08607                 116339964.29907  90654622.32307
                  22138781.03107        45.800          43.800                  
  20272881.72708  20272892.75808  20272889.80108 106534650.83708  83014114.85508
  79555180.03208  20272892.07808        48.600          52.100          53.200  
  22267999.64807  22268011.60907  22268011.12508 117019021.46507  91183727.74207
  87384395.15808  22268011.49607        42.100          42.600          48.700  
  23709202.61706                                 124592645.93206  97085299.99403
                  23709213.88303        39.100          20.900                  
  25308338.44505  25308361.38705  25308362.32806 132996138.71705 103633433.52904
  99315347.72606  25308361.60204        33.700          25.200          39.600  
  22408853.22706  22408865.77307  22408863.61707 117759284.57506  91760560.23506
  87937185.60007  22408865.47706        41.400          40.200          46.700  
  24874060.80505  24874075.28506  24874073.68006 130714018.99505 101855171.76204
  97611200.30306  24874074.68404        34.900          29.300          41.200  
 25 04 20 00 11 40.0000000  0 10G01G02G04G07G08G09G16G26G27G30       0.000000002
  22621586.60206  22621598.00007  22621600.53907 118877219.22206  92631666.67605
  88772014.13307  22621597.94905        41.300          30.500          46.600  
  20902049.82007                                 109840910.61307  85590444.34106
                  20902057.11306        47.500          40.700                  
  22618947.62506  22618959.22307  22618961.86307 118863327.52906  92620805.65304
  88761603.84007  22618959.32404        40.800          27.800          46.400  
  22136113.64107  22136122.19907                 116325991.05807  90643734.08707
                  22136122.01607        45.900          44.100                  
  20274221.51608  20274232.47308  20274229.53108 106541691.29208  83019600.91408
  79560437.50708  20274231.84408        49.400          52.100          53.000  
  22269560.28107  22269572.03107  22269571.69108 117027222.55207  91190118.18707
  87390519.32708  22269572.11707        42.600          42.600          48.800  
  23710923.39106                                 124601686.35506  97092344.45603
                  23710934.30903        39.500          22.800                  
  25310199.78105  25310222.19505  25310223.73406                                
  99322650.93406  25310222.71103        33.300          23.000          40.200  
  22411767.78106  22411779.88707  22411777.88707 117774598.80106  91772493.37706
  87948621.52307  22411779.64506        41.700          41.100          46.800  
  24870816.63305  24870831.31306  24870829.45707 130696971.00105 101841887.57104
  97598469.67907  24870830.49204        34.500          27.600          42.200  
 25 04 20 00 11 45.0000000  0 10G01G02G04G07G08G09G16G26G27G30       0.000000002
  22618643.63306  22618655.02307  22618657.32407 118861753.30506  92619615.32204
  88760464.92507  22618654.85904        41.100          29.500          46.400  
  20900693.18807                                 109833780.25707  85584888.21506
                  20900700.20306        47.600          40.700                  
  22621626.87506  22621638.27307  22621641.09007 118877406.33206  92631776.11604
  88772117.20407  22621638.35904        41.700          29.600          45.800  
  22133455.55507  22133464.18807                 116312023.66207  90632850.39907
                  22133464.16807        45.500          44.100                  
  20275563.05508  20275574.11308  20275571.11708 106548741.24308  83025094.38208
  79565702.07408  20275573.41808        49.100          52.200          52.800  
  22271122.46907  22271134.62107  22271134.12508 117035433.11907  91196516.01207
  87396650.58208  22271134.41007        43.000          42.800          48.400  
  23712643.18806                                 124610727.02206  97099389.05903
                  23712654.66803        38.900          22.200                  
  25312061.33605  25312084.12905  25312084.86706 133015700.08605 103648676.03204
  99329955.16506  25312084.04704        33.000          24.100          39.700  
  22414682.50006  22414694.62507  22414692.65607 117789915.63806  91784428.54406
  87960059.38707  22414694.43406        41.800          40.600          47.100  
  24867572.39805  24867587.03105  24867585.47306 130679923.13705 101828603.53804
  97585739.11206  24867586.35904        34.800          28.300          41.700  
 25 04 20 00 11 50.0000000  0 10G01G02G04G07G08G09G16G26G27G30       0.000000002
  22615701.20306  22615712.91007  22615714.84007 118846291.24906  92607566.96505
  88748918.57507  22615712.65205        41.100          30.500          45.900  
  20899338.75007                                 109826664.41907  85579343.40506
                  20899346.03506        47.900          40.700                  
  22624306.86706  22624318.38707  22624320.93807 118891488.56806  92642749.26604
  88782633.12507  22624318.11304        41.700          29.300          46.300  
  22130798.91407  22130807.47307                 116298062.27207  90621971.39007
                  22130807.31307        45.000          44.100                  
  20276906.25808  20276917.58208  20276914.51608 106555800.76608  83030595.29508
  79570973.77508  20276916.80508        49.000          52.200          53.000  
  22272686.90607  22272698.77707  22272698.40608 117043653.26507  91202921.31007
  87402788.97608  22272698.48007        42.500          42.500          48.600  
  23714363.49206                                 124619768.00306  97106433.98203
                  23714375.12103        38.400          22.600                  
  25313922.78905  25313945.72305  25313946.42606 133025483.03105 103656299.06403
  99337260.54206  25313945.71103        33.600          23.000          40.800  
  22417597.73406  22417609.94107  22417607.82407 117805235.17606  91796365.82506
  87971499.28207  22417609.62506        41.900          40.100          46.900  
  24864328.50005  24864342.70705  24864341.41406 130662875.48605 101815319.66704
  97573008.75006  24864342.17204        34.100          27.600          41.800  
 25 04 20 00 11 55.0000000  0 10G01G02G04G07G08G09G16G26G27G30       0.000000002
  22612759.50006  22612771.23007  22612773.35207 118830832.84006  92595521.47204
  88737374.95407  22612771.00004        40.600          29.400          45.800  
  20897987.45308                                 109819562.93308  85573809.78806
                  20897994.66006        48.400          41.400                  
  22626986.94506  22626998.72307  22627001.29307 118905574.06806  92653724.96904
  88793151.48607  22626998.53104        40.900          28.600          46.400  
  22128143.44507  22128151.75807                 116284106.68707  90611096.91507
                  22128151.68807        45.500          44.000                  
  20278251.48408  20278262.60908  20278259.67208 106562869.67608  83036103.54008
  79576252.50108  20278261.96508        49.600          52.100          52.800  
  22274252.79707  22274264.68807  22274264.38308 117051882.78107  91209333.91307
  87408934.38408  22274264.40607        42.500          42.700          48.900  
  23716083.35206                                 124628809.19906  97113479.03503
                  23716095.61703        38.400          22.300                  
  25315784.92205  25315807.87105  25315808.44106                                
  99344566.91206  25315807.64104        34.400          24.100          40.800  
  22420513.26606  22420525.62107  22420523.40607 117820557.26506  91808305.09206
  87982941.05507  22420525.42206        41.400          40.300          46.800  
  24861084.26605  24861098.84406  24861097.32806 130645827.95105 101802035.85904
  97560278.41306  24861098.14104        34.100          28.000          40.600  
 25 04 20 00 12 00.0000000  0 10G01G02G04G07G08G09G16G26G27G30       0.000000000
  22609818.46106  22609830.27007  22609832.38307 118815378.28506  92583478.95004
  88725834.22407  22609830.14104        40.900          29.600          45.500  
  20896639.02308                                 109812476.00608  85568287.50006
                  20896646.12506        48.000          40.900                  
  22629668.21106  22629679.47707  22629682.34807 118919663.02506  92664703.33104
  88803672.43207  22629679.61304        41.300          28.300          45.800  
  22125488.85207  22125497.18007                 116270157.12207  90600227.12207
                  22125497.19107        45.400          43.900                  
  20279598.42208  20279609.68008  20279606.69508 106569948.16308  83041619.23208
  79581538.38008  20279608.94508        49.600          52.200          53.000  
  22275820.82007  22275832.75807  22275832.32408 117060121.88707  91215753.97507
  87415086.94708  22275832.30907        42.800          42.300          49.100  
  23717804.28106                                 124637850.79106  97120524.39803
                  23717816.16803        38.100          22.200                  
  25317647.14105  25317670.05905  25317670.87106 133045053.07105 103671548.36903
  99351874.43006  25317669.84403        34.300          22.900          40.900  
  22423429.77306  22423441.91807  22423439.78107 117835882.01506  91820246.43206
  87994384.85307  22423441.59406        41.700          40.600          47.000  
  24857840.72705  24857854.64805  24857853.54307 130628780.65305 101788752.23504
  97547548.28807  24857854.16404        34.300          27.600          42.400  
 25 04 20 00 12 05.0000000  0 10G01G02G04G07G08G09G16G26G27G30       0.000000000
  22606878.42206  22606890.20307  22606892.34407 118799927.57206  92571439.44504
  88714296.36107  22606889.94104        40.900          29.400          45.500  
  20895293.06308                                 109805403.56408  85562776.50606
                  20895300.41406        49.100          41.300                  
  22632349.91406  22632361.21907  22632364.05907 118933755.34606  92675684.35004
  88814195.88107  22632361.24604        41.100          28.700          46.300  
  22122835.43007  22122843.83207                 116256213.54507  90589361.99207
                  22122843.75807        44.900          44.100                  
  20280947.18808  20280958.37108  20280955.52008 106577036.14308  83047142.32108
  79586831.34008  20280957.76208        49.100          51.800          52.700  
  22277390.19507  22277402.23007  22277401.96108 117068370.45407  91222181.40707
  87421246.57308  22277402.05507        42.500          42.400          48.800  
  23719524.60206                                 124646892.62606  97127569.89503
                  23719536.78103        37.900          22.500                  
  25319509.42205  25319532.49205  25319533.26206                                
  99359183.00906  25319532.29303        33.700          22.800          41.400  
  22426346.27306  22426358.60207  22426356.44107 117851209.40906  91832189.82906
  88005830.59907  22426358.32806        41.800          41.300          47.200  
  24854596.91405  24854610.57805  24854609.59407 130611733.53605 101775468.75704
  97534818.32307  24854610.17204        33.900          26.800          42.000  
 25 04 20 00 12 10.0000000  0 10G01G02G04G07G08G09G16G26G27G30       0.000000000
  22603938.96906  22603950.68007  22603952.96507 118784480.66806  92559402.91004
  88702761.35207  22603950.44504        40.600          29.800          46.300  
  20893950.09408                                 109798345.65108  85557276.83806
                  20893957.37506        48.500          41.600                  
  22635032.44506  22635043.75407  22635046.40207 118947850.99906  92686667.95904
  88824721.83007  22635043.62504        40.600          29.000          46.200  
  22120183.18007  22120191.49207                 116242275.95107  90578501.53407
                  22120191.50407        46.000          43.900                  
  20282297.98408  20282308.89808  20282306.05508 106584133.63108  83052672.81908
  79592131.40508  20282308.40608        49.000          52.000          53.200  
  22278961.78907  22278974.00807  22278973.42608 117076628.52707  91228616.26007
  87427413.30008  22278973.56307        42.500          42.600          48.600  
  23721245.57806                                 124655934.80806  97134615.78203
                  23721257.52303        38.500          21.700                  
  25321372.58605  25321395.59005  25321395.72306                                
  99366492.71506  25321395.14103        33.700          22.200          41.500  
  22429263.67206  22429275.66407  22429273.72707 117866539.40206  91844135.26106
  88017278.30207  22429275.59406        41.700          41.100          47.600  
  24851352.67205  24851366.82005  24851365.74607 130594686.67605 101762185.49804
  97522088.53307  24851366.25804        33.400          25.800          42.800  
 25 04 20 00 12 15.0000000  0 10G01G02G04G07G08G09G16G26G27G30       0.000000000
  22601000.21906  22601011.68007  22601014.27307 118769037.66106  92547369.41804
  88691229.22807  22601011.64504        41.300          29.700          46.800  
  20892609.78907                                 109791302.26207  85551788.48206
                  20892617.10506        47.600          40.800                  
  22637715.39806  22637726.79707  22637729.32807 118961950.00506  92697654.15004
  88835250.28607  22637726.60904        40.700          28.700          46.100  
  22117532.05507  22117540.62507                 116228344.33107  90567645.71907
                  22117540.47707        46.500          44.600                  
  20283650.18008  20283661.51608  20283658.59008 106591240.59008  83058210.69508
  79597438.53808  20283660.82408        49.700          52.000          52.800  
  22280535.10907  22280546.98407  22280546.64108 117084896.07207  91235058.48407
  87433587.10308  22280546.73007        42.200          42.000          48.800  
  23722966.22706                                 124664977.33206  97141661.81303
                  23722978.26203        38.400          21.100                  
  25323235.32005  25323258.55505  25323258.64106 133074419.26115 103694430.95914
  99373803.54506  25323258.25004        33.500          24.200          40.900  
  22432181.50006  22432193.44107  22432191.41007 117881872.01306  91856082.72006
  88028727.95207  22432193.25806        41.600          40.900          47.000  
  24848108.64805  24848123.32005  24848121.69907 130577640.10915 101748902.44514
  97509358.94307  24848122.37104        34.300          26.500          42.600  
 25 04 20 00 12 20.0000000  0 10G01G02G04G07G08G09G16G26G27G30       0.000000000
  22598062.38306  22598073.48407  22598076.34407 118753598.43406  92535338.84505
  88679699.95407  22598073.49205        41.600          30.100          45.800  
  20891272.28908                                 109784273.36708  85546311.42306
                  20891279.57806        48.100          41.100                  
  22640398.80506  22640410.49607  22640412.88307 118976052.31906  92708642.93504
  88845781.17407  22640410.28504        40.700          28.500          46.000  
  22114882.31307  22114890.53507                 116214418.68507  90556794.57107
                  22114890.50007        46.100          44.000                  
  20285004.63308  20285015.67608  20285012.72708 106598356.96108  83063755.91008
  79602752.69908  20285015.04708        48.800          51.900          53.300  
  22282110.15606  22282122.22707  22282121.70708 117093173.02906  91241508.05307
  87439767.93108  22282121.73807        41.600          42.000          48.800  
  23724687.06306                                 124674020.10706  97148708.13803
                  23724699.03903        38.700          21.800                  
  25325098.61705  25325121.78905  25325122.28906 133084210.91605 103702060.79204
  99381115.43606  25325121.43004        33.300          24.700          41.400  
  22435099.50806  22435111.98407  22435109.55907 117897207.15406  91868032.15606
  88040179.49507  22435111.47706        41.300          40.500          47.000  
  24844865.18805  24844879.27706  24844877.87907 130560593.67305 101735619.52704
  97496629.47607  24844878.53504        34.600          27.800          42.100  
 25 04 20 00 12 25.0000000  0 10G01G02G04G07G08G09G16G26G27G30       0.000000000
  22595125.01606  22595136.13307  22595139.15607 118738163.13806  92523311.34204
  88668173.59807  22595136.16804        41.700          29.700          46.400  
  20889937.44508                                 109777259.04508  85540845.72206
                  20889944.82006        48.200          41.100                  
  22643083.01606  22643094.70307  22643097.19907 118990157.92606  92719634.28404
  88856314.56407  22643094.58604        40.900          28.800          45.900  
  22112233.32007  22112241.84407                 116200499.09907  90545948.13607
                  22112241.69907        45.200          44.200                  
  20286360.56308  20286371.60908  20286368.76608 106605482.82508  83069308.52808
  79608073.95608  20286371.03908        49.800          51.900          52.900  
  22283687.00006  22283699.08207  22283698.58608 117101459.46206  91247964.99306
  87445955.83408  22283698.67606        41.300          41.900          48.500  
  23726407.91406                                 124683063.25106  97155754.70103
                  23726420.00803        37.900          22.600                  
  25326962.05505  25326985.52705  25326985.81306 133094004.13005 103709691.81603
  99388428.46506  25326984.95303        32.400          22.000          41.800  
  22438018.24206  22438030.47707  22438028.34407 117912544.92506  91879983.64406
  88051632.98707  22438030.19106        41.400          40.500          47.200  
  24841621.20305  24841634.90205  24841634.24207 130543547.55305 101722336.79504
  97483900.22607  24841634.75804        33.600          25.200          42.700  
 25 04 20 00 12 30.0000000  0 10G01G02G04G07G08G09G16G26G27G30       0.000000000
  22592188.61706  22592199.78107  22592202.79307 118722731.72606  92511286.85905
  88656650.15307  22592199.66005        41.700          30.400          46.800  
  20888605.44508                                 109770259.30308  85535391.38206
                  20888612.75406        48.000          40.300                  
  22645768.14106  22645779.47307  22645782.00007 119004266.83706  92730628.24504
  88866850.40807  22645779.39804        40.600          27.000          46.100  
  22109585.58607  22109594.10507                 116186585.53807  90535106.39907
                  22109594.01207        45.200          44.200                  
  20287718.29708  20287729.57808  20287726.59808 106612618.09808  83074868.46808
  79613402.23208  20287728.83208        49.200          51.800          53.200  
  22285265.95306  22285277.69107  22285277.34008 117109755.27706  91254429.24906
  87452150.74508  22285277.37106        41.400          41.700          48.500  
  23728129.15606                                 124692106.69206  97162801.46703
                  23728140.97703        37.900          22.800                  
  25328826.09405  25328849.21905  25328849.64806                                
  99395742.59206  25328848.90203        32.800          22.000          41.200  
  22440937.42206  22440949.44107  22440947.60907 117927885.22506  91891937.12506
  88063088.39007  22440949.32806        41.700          41.100          46.900  
  24838377.13305  24838390.98005  24838390.46507 130526501.67905 101709054.32904
  97471171.13107  24838391.03504        34.800          26.000          43.000  
 25 04 20 00 12 35.0000000  0 10G01G02G04G07G08G09G16G26G27G30       0.000000000
  22589252.73406  22589263.86307  22589267.00407 118707304.20206  92499265.43105
  88645129.60107  22589263.81605        41.800          30.500          46.700  
  20887276.01608                                 109763274.07108  85529948.34706
                  20887283.50806        48.200          40.400                  
  22648453.41406  22648465.02307  22648467.47307 119018378.97506  92741624.68304
  88877388.66507  22648464.92604        40.600          28.400          45.900  
  22106939.24207  22106947.52707                 116172678.00907  90524269.35907
                  22106947.50807        46.100          44.500                  
  20289078.03908  20289089.01208  20289086.23408 106619762.80608  83080435.76408
  79618737.55508  20289088.42208        48.400          52.000          53.000  
  22286845.88306  22286858.09007  22286857.85208 117118060.50006  91260900.82406
  87458352.67908  22286857.75006        41.700          41.700          48.400  
  23729849.98406                                 124701150.46206  97169848.51303
                  23729862.00403        38.600          22.600                  
  25330690.37505  25330713.09805  25330714.09406                                
  99403057.82406  25330712.93403        33.100          23.200          40.800  
  22443857.11706  22443868.98807  22443867.20707 117943228.05206  91903892.53306
  88074545.66807  22443869.07806        41.400          40.300          47.200  
  24835133.96105  24835147.63705  24835146.91407 130509455.99505 101695771.99204
  97458442.25007  24835147.30104        34.600          25.900          42.700  
 25 04 20 00 12 40.0000000  0 10G01G02G04G07G08G09G16G26G27G30       0.000000000
  22586317.91406  22586328.91007  22586331.91007 118691880.50506  92487246.97105
  88633611.92507  22586328.83605        41.700          30.200          46.300  
  20885949.75807                                 109756303.35007  85524516.61506
                  20885956.88306        47.900          40.900                  
  22651139.33606  22651151.22307  22651153.71507 119032494.31706  92752623.61504
  88887929.31907  22651151.03904        40.400          29.700          45.800  
  22104293.78907  22104302.21907                 116158776.48807  90513437.00707
                  22104302.01207        45.400          44.300                  
  20290439.39108  20290450.49608  20290447.56308 106626916.86408  83086010.35608
  79624079.85508  20290449.85508        48.900          51.900          53.400  
  22288428.31307  22288440.32807  22288440.12508 117126375.07407  91267379.69407
  87464561.57808  22288440.06607        42.200          42.100          49.000  
  23731570.94506                                 124710194.52306  97176895.81303
                  23731583.14503        38.900          22.200                  
  25332555.11705  25332577.22705  25332578.89106 133123393.42305 103732592.61803
  99410374.10806  25332577.21903        33.700          22.600          41.100  
  22446777.07807  22446789.42607  22446787.27307 117958573.39507  91915849.92506
  88086004.81607  22446789.23806        42.100          41.500          46.800  
  24831889.79705  24831904.48405  24831903.29707 130492410.57805 101682489.84104
  97445713.54107  24831903.69904        33.800          25.600          42.900  
 25 04 20 00 12 45.0000000  0 10G01G02G04G07G08G09G16G26G27G30       0.000000000
  22583383.38306  22583394.95707  22583397.62507 118676460.80406  92475231.60705
  88622097.22907  22583394.59805        41.600          30.200          46.100  
  20884625.89107                                 109749347.24607  85519096.29306
                  20884633.12906        47.900          41.100                  
  22653825.99206  22653837.69507  22653840.40607 119046613.01506  92763625.18804
  88898472.45107  22653837.71904        40.300          29.800          46.400  
  22101649.70307  22101658.09007                 116144881.09807  90502609.43307
                  22101657.85207        45.400          44.500                  
  20291802.48408  20291813.72308  20291810.81608 106634080.41208  83091592.33408
  79629429.24708  20291813.03508        49.100          51.800          52.900  
  22290012.39806  22290024.46907  22290024.15608 117134699.07606  91273865.91106
  87470777.54408  22290024.10506        41.600          41.700          49.000  
  23733292.25006                                 124719238.97706  97183943.41103
                  23733304.36703        38.700          22.600                  
  25334420.21905  25334442.43005  25334443.64507 133133192.53705 103740228.31603
  99417691.57907  25334442.08203        34.600          22.200          42.000  
  22449697.72707  22449709.96107  22449708.06607 117973921.29707  91927809.32506
  88097465.90507  22449709.84406        42.000          41.400          47.000  
  24828646.85205  24828660.81606  24828659.59007 130475365.53205 101669207.95504
  97432985.10507  24828660.11704        33.700          26.200          42.800  
 25 04 20 00 12 50.0000000  0 10G01G02G04G07G08G09G16G26G27G30       0.000000000
  22580449.89806  22580461.48007  22580463.97307 118661045.00506  92463219.31205
  88610585.43807  22580461.19105        41.700          30.800          46.300  
  20883304.96908                                 109742405.66308  85513687.25406
                  20883312.12906        48.400          41.300                  
  22656513.54706  22656525.13307  22656527.72307 119060734.86206  92774629.17204
  88909017.96307  22656525.04304        40.600          29.300          46.200  
  22099006.68007  22099014.71907                 116130991.71607  90491786.54307
                  22099014.85207        45.400          44.000                  
  20293167.62508  20293178.59408  20293175.76608 106641253.28608  83097181.57108
  79634785.60408  20293177.99208        48.800          51.900          53.000  
  22291597.96907  22291610.14107  22291609.91008 117143032.40107  91280359.40607
  87477000.45408  22291609.97307        42.600          42.300          49.100  
  23735013.39806                                 124728283.64606  97190991.15303
                  23735025.71503        39.100          22.600                  
  25336284.51605  25336307.87505  25336308.49207                                
  99425010.09507  25336307.20304        33.700          24.500          42.100  
  22452619.06306  22452631.27307  22452629.08607 117989271.66006  91939770.61006
  88108928.81607  22452630.98006        41.700          41.100          46.800  
  24825403.08605  24825417.06305  24825416.16407 130458320.68505 101655926.26804
  97420256.82707  24825416.54304        33.700          25.000          42.600  
 25 04 20 00 12 55.0000000  0 10G01G02G04G07G08G09G16G26G27G30       0.000000000
  22577516.96106  22577528.56607  22577531.11707 118645633.16306  92451210.10105
  88599076.59707  22577528.38705        41.700          30.500          46.500  
  20881986.77308                                 109735478.68808  85508289.61706
                  20881993.95306        48.000          40.900                  
  22659201.25006  22659213.23007  22659215.60507 119074859.89906  92785635.68604
  88919565.85407  22659212.96504        41.300          28.900          45.900  
  22096364.43807  22096373.05107                 116117108.43907  90480968.40107
                  22096372.89107        45.800          44.500                  
  20294534.08608  20294545.40208  20294542.49608 106648435.52508  83102778.11308
  79640148.95508  20294544.71908        49.100          51.900          53.000  
  22293185.70306  22293197.70307  22293197.49608 117151375.07906  91286860.17207
  87483230.35808  22293197.60907        41.900          42.200          49.100  
  23736735.36706                                 124737328.66106  97198039.22903
                  23736747.05103        39.000          21.800                  
  25338150.00805  25338173.23005  25338174.11307 133152795.19405 103755502.97704
  99432329.78107  25338172.67604        34.800          26.300          42.300  
  22455540.51607  22455552.96907  22455550.70707 118004624.55907  91951733.89006
  88120393.61107  22455552.50806        42.000          41.200          46.200  
  24822159.27305  24822173.29306  24822172.61706 130441276.20415 101642644.86114
  97407528.75206  24822172.89804        33.900          26.900          41.800  
 25 04 20 00 13 00.0000000  0 10G01G02G04G07G08G09G16G26G27G30       0.000000000
  22574584.94506  22574596.80507  22574599.05107 118630225.40506  92439204.06805
  88587570.80507  22574596.56305        41.900          31.100          46.300  
  20880671.59407                                 109728566.40507  85502903.42006
                  20880678.63706        47.900          40.700                  
  22661889.74206  22661901.77307  22661904.15207 119088988.26206  92796644.76504
  88930116.22807  22661901.59404        40.900          29.100          45.500  
  22093723.95307  22093732.21107                 116103231.32407  90470155.06707
                  22093732.11307        45.800          43.900                  
  20295902.92208  20295914.02308  20295911.05108 106655627.27008  83108382.05608
  79645519.40408  20295913.25808        48.900          51.700          53.000  
  22294775.20306  22294787.43407  22294786.78108 117159727.18906  91293368.29706
  87489467.29808  22294787.07006        41.100          41.800          49.200  
  23738456.60906                                 124746374.11006  97205087.58103
                  23738468.27003        38.900          21.800                  
  25340015.47705  25340038.62105  25340039.94907 133162598.82805 103763142.14404
  99439650.62707  25340038.45704        35.100          25.700          42.900  
  22458462.53106  22458475.02307  22458472.71907 118019980.02706  91963699.15506
  88131860.34007  22458474.55106        41.300          39.900          46.600  
  24818916.31305  24818930.13705  24818929.12507 130424232.05505 101629363.73504
  97394801.04207  24818929.52004        33.400          25.400          42.800  
 25 04 20 00 13 05.0000000  0 10G01G02G04G07G08G09G16G26G27G30       0.000000000
  22571653.60906  22571665.25407  22571667.72707 118614821.44506  92427200.96705
  88576067.86307  22571665.32805        41.800          30.900          46.300  
  20879359.00008                                 109721668.57308  85497528.48706
                  20879366.03906        48.400          41.300                  
  22664578.89106  22664590.98407  22664593.30107 119103119.65306  92807656.21804
  88940668.85907  22664590.78104        41.000          29.400          46.100  
  22091084.28907  22091092.66007                 116089360.18307  90459346.38007
                  22091092.54307        45.600          44.500                  
  20297273.11708  20297284.22308  20297281.34008 106662828.21308  83113993.17208
  79650896.71708  20297283.56308        49.700          51.900          53.100  
  22296366.28907  22296378.62507  22296377.91808 117168088.52907  91299883.60007
  87495711.14508  22296378.22707        42.300          42.100          48.600  
  23740177.26606                                 124755419.71406  97212136.07503
                  23740189.60503        38.100          21.500                  
  25341881.15605  25341904.85905  25341905.49207                                
  99446972.49507  25341904.55503        33.700          23.600          42.600  
  22461385.06306  22461397.41407  22461395.18407 118035337.84506  91975666.27006
  88143328.80507  22461397.07006        41.600          40.700          47.000  
  24815672.99205  24815686.72706  24815685.87507 130407188.14705 101616082.76104
  97382073.42107  24815686.15604        35.100          26.400          42.400  
 25 04 20 00 13 10.0000000  0 10G01G02G04G07G08G09G16G26G27G30       0.000000000
  22568723.25807  22568734.77007  22568737.24607 118599421.59207  92415201.12205
  88564567.96307  22568734.88705        42.100          31.000          45.800  
  20878049.10208                                 109714785.44008  85492165.00906
                  20878056.23006        48.400          40.900                  
  22667268.62506  22667280.84407  22667283.04707 119117254.28206  92818670.20504
  88951223.91407  22667280.57004        41.100          28.500          45.800  
  22088445.93807  22088454.21507                 116075495.28707  90448542.57207
                  22088454.16007        46.200          44.200                  
  20298645.03108  20298656.52308  20298653.45308 106670038.58608  83119611.63908
  79656281.07908  20298655.69508        49.300          51.900          53.400  
  22297959.07806  22297971.39507  22297970.89808 117176459.24206  91306406.23007
  87501961.98308  22297971.14507        41.500          42.200          48.700  
  23741898.46106                                 124764465.71406  97219184.87503
                  23741910.98403        38.600          21.500                  
  25343747.67205  25343770.85505  25343771.43807 133182210.37605 103778423.76704
  99454295.50307  25343770.74204        34.300          24.600          42.700  
  22464308.17206  22464320.33607  22464318.35907 118050698.21206  91987635.36806
  88154799.18707  22464320.07406        41.700          41.000          46.400  
  24812429.64105  24812443.14506  24812442.39506 130390144.59805 101602802.06604
  97369346.13906  24812442.87904        33.800          27.200          41.600  
 25 04 20 00 13 15.0000000  0 10G01G02G04G07G08G09G16G26G27G30       0.000000000
  22565793.46107  22565805.29307  22565807.52007 118584025.65407  92403204.27305
  88553071.00207  22565805.12505        42.300          30.700          46.000  
  20876742.14107                                 109707916.90207  85486812.89806
                  20876749.18006        47.800          40.800                  
  22669959.02306  22669970.91007  22669973.52307 119131392.01306  92829686.57204
  88961781.26907  22669970.83204        41.100          29.000          46.400  
  22085808.67207  22085817.02307                 116061636.46507  90437743.47407
                  22085816.90207        46.000          44.100                  
  20300019.00808  20300030.30108  20300027.33208 106677258.22308  83125237.31508
  79661672.34908  20300029.50808        48.600          51.900          53.200  
  22299553.82006  22299565.91407  22299565.55908 117184839.19706  91312936.04706
  87508219.72308  22299565.75806        41.600          41.900          48.100  
  23743620.10206                                 124773511.97806  97226233.83703
                  23743632.33603        38.500          21.500                  
  25345613.52305  25345636.99605  25345638.19907 133192018.43605 103786066.37904
  99461619.60507  25345636.95304        33.100          25.300          42.500  
  22467231.52306  22467243.61707  22467241.74207 118066060.95706  91999606.30806
  88166271.33807  22467243.54706        41.500          41.100          47.200  
  24809186.70305  24809200.42206  24809199.02706 130373101.36405 101589521.63304
  97356619.03506  24809199.64804        35.100          27.000          41.600  
 25 04 20 00 13 20.0000000  0 10G01G02G04G07G08G09G16G26G27G30       0.000000000
  22562864.50807  22562875.98007  22562878.58207 118568633.67007  92391210.52205
  88541577.00007  22562876.11705        42.200          31.200          46.200  
  20875437.80507                                 109701062.89207  85481472.11806
                  20875444.91006        47.600          40.500                  
  22672649.93006  22672661.99207  22672664.55507 119145532.79406  92840705.34704
  88972340.91507  22672661.67604        41.100          29.000          46.200  
  22083172.52307  22083180.95707                 116047783.70807  90426949.12207
                  22083180.79707        45.100          43.700                  
  20301394.69508  20301405.95708  20301402.91008 106684487.09608  83130870.20208
  79667070.53108  20301405.14808        48.400          51.800          53.100  
  22301150.03906  22301162.40607  22301161.94108 117193228.35106  91319473.02307
  87514484.33808  22301162.21507        41.100          42.000          48.700  
  23745341.49206                                 124782558.49206  97233283.04303
                  23745353.79303        37.900          22.600                  
  25347480.72705  25347503.87505  25347504.81607 133201827.82305 103793710.00504
  99468944.77507  25347503.60204        33.700          26.000          42.900  
  22470155.59406  22470167.59007  22470165.78907 118081426.08606  92011579.11806
  88177745.26807  22470167.40606        41.300          41.000          46.800  
  24805943.29705  24805957.21506  24805956.03107 130356058.39205 101576241.35904
  97343892.15207  24805956.46504        34.300          25.800          42.100  
 25 04 20 00 13 25.0000000  0 10G01G02G04G07G08G09G16G26G27G30       0.000000000
  22559936.13307  22559947.67607  22559950.45307 118553245.74607  92379219.93905
  88530086.02607  22559947.74605        42.100          30.200          46.800  
  20874136.16408                                 109694223.56008  85476142.77206
                  20874143.44506        48.400          41.400                  
  22675341.78906  22675353.42207  22675356.04307 119159676.74606  92851726.58004
  88982902.91507  22675353.20704        41.300          29.400          46.100  
  22080537.61707  22080545.95307                 116033937.16607  90416159.61307
                  22080545.89107        45.800          44.300                  
  20302771.88308  20302783.14808  20302780.30908 106691725.32808  83136510.37408
  79672475.69308  20302782.50008        48.400          51.800          53.000  
  22302748.08606  22302760.51207  22302760.10908 117201626.81306  91326017.27507
  87520755.88908  22302760.25007        41.400          42.000          48.800  
  23747062.74206                                 124791605.38206  97240332.52303
                  23747075.42603        36.900          22.900                  
  25349347.82005  25349371.33205  25349371.42207 133211638.80005 103801354.89204
  99476271.08207  25349370.55104        33.900          25.300          42.300  
  22473079.64106  22473092.05907  22473090.12107 118096793.66006  92023553.83106
  88189221.04407  22473091.80506        41.000          40.900          46.700  
  24802700.07005  24802713.84406  24802712.89106 130339015.80305 101562961.43804
  97331165.53706  24802713.42604        33.900          25.800          41.600  
 25 04 20 00 13 30.0000000  0 10G01G02G04G07G08G09G16G26G27G30       0.000000000
  22557008.70307  22557020.14107  22557022.89807 118537861.86307  92367232.49605
  88518598.06107  22557020.21105        42.500          31.600          46.800  
  20872837.49207                                 109687398.87407  85470824.82706
                  20872844.87106        47.500          41.100                  
  22678033.73406  22678045.58607  22678048.18007 119173823.75906  92862750.17804
  88993467.22007  22678045.32404        40.900          29.300          46.200  
  22077903.75807  22077912.16007                 116020096.77507  90405374.88507
                  22077912.02707        45.000          44.200                  
  20304151.13308  20304162.33608  20304159.52708 106698972.81808  83142157.75608
  79677887.77408  20304161.73408        49.200          51.700          52.900  
  22304347.92206  22304360.52007  22304360.01608 117210034.51006  91332568.69406
  87527034.35708  22304360.11706        41.600          41.700          48.800  
  23748784.28906                                 124800652.58906  97247382.26303
                  23748797.10203        36.800          22.500                  
  25351214.72705  25351238.48805  25351238.91007                                
  99483598.47407  25351237.85904        33.100          26.000          42.600  
  22476004.36706  22476017.10907  22476014.90207 118112163.65506  92035530.42506
  88200698.59707  22476016.68406        41.200          40.500          47.000  
  24799457.44505  24799470.89506  24799469.69906 130321973.59205 101549681.80504
  97318439.20006  24799470.32404        34.800          26.900          41.100  
 25 04 20 00 13 35.0000000  0 10G01G02G04G07G08G09G16G26G27G30       0.000000000
  22554081.82807  22554093.24207  22554096.41807 118522482.06607  92355248.25705
  88507113.15907  22554093.43005        42.200          30.800          46.700  
  20871541.60907                                 109680588.87707  85465518.34806
                  20871548.96906        47.900          41.400                  
  22680726.39806  22680738.25407  22680740.89107 119187973.90006  92873776.26204
  89004033.86307  22680738.03104        41.100          28.300          46.700  
  22075271.38307  22075279.76207                 116006262.58507  90394595.00007
                  22075279.47707        46.000          43.900                  
  20305532.19508  20305543.21908  20305540.42208 106706229.65408  83147812.42908
  79683306.82708  20305542.64108        48.500          51.800          53.100  
  22305949.95306  22305962.05507  22305961.73008 117218451.49206  91339127.37906
  87533319.74008  22305961.75006        41.700          41.800          49.100  
  23750506.33606                                 124809700.20806  97254432.30403
                  23750518.93403        37.100          22.300                  
  25353082.64805  25353105.91005  25353106.50407                                
  99490927.06207  25353105.56304        33.000          25.700          42.900  
  22478930.01606  22478942.24207  22478940.25807 118127536.07506  92047508.91206
  88212177.96907  22478942.00406        41.300          40.600          47.200  
  24796214.43005  24796227.94905  24796226.82406 130304931.73405 101536402.43904
  97305713.16906  24796227.42204        33.900          26.600          41.600  
 25 04 20 00 13 40.0000000  0 10G01G02G04G07G08G09G16G26G27G30       0.000000000
  22551156.30507  22551167.60207  22551170.48007 118507106.39907  92343267.21105
  88495631.35007  22551167.43005        42.000          31.400          46.600  
  20870248.63308                                 109673793.61408  85460223.34806
                  20870255.86306        48.300          41.000                  
  22683419.57806  22683431.59407  22683434.14507 119202127.21106  92884804.80404
  89014602.85507  22683431.35504        40.800          29.600          46.300  
  22072640.03907  22072648.21907                 115992434.67207  90383820.00107
                  22072648.10207        46.100          44.500                  
  20306914.74208  20306926.04708  20306923.17208 106713495.82508  83153474.37008
  79688732.85008  20306925.33208        48.300          51.900          53.100  
  22307553.63306  22307565.82807  22307565.31608 117226877.77606  91345693.29506
  87539612.06808  22307565.34806        41.700          41.400          48.800  
  23752228.75806                                 124818748.26706  97261482.70203
                  23752240.79703        37.700          21.800                  
  25354950.65605  25354973.80106  25354974.29707 133241080.81005 103824296.56204
  99498256.80607  25354973.52704        34.400          25.600          42.600  
  22481855.50006  22481868.02707  22481866.02307 118142910.97706  92059489.33306
  88223659.20307  22481867.75806        41.300          40.800          47.000  
  24792971.28905  24792985.25406  24792983.72306 130287890.36905 101523123.46204
  97292987.45906  24792984.55104        33.900          25.800          39.500  
 25 04 20 00 13 45.0000000  0 10G01G02G04G07G08G09G16G26G27G30       0.000000000
  22548231.08607  22548242.41007  22548245.28107 118491734.72107  92331289.29205
  88484152.50107  22548242.21905        42.300          31.400          46.800  
  20868958.21108                                 109667012.90508  85454939.68706
                  20868965.53106        48.400          41.100                  
  22686113.78106  22686125.60207  22686128.02707 119216283.43106  92895835.57904
  89025174.02807  22686125.32004        41.000          29.600          46.700  
  22070009.89807  22070018.02007                 115978612.79307  90373049.70807
                  22070017.85907        45.600          44.200                  
  20308299.19508  20308310.43008  20308307.62108 106720771.14708  83159143.44708
  79694165.71308  20308309.80908        49.000          51.800          53.000  
  22309158.60207  22309170.87507  22309170.55908 117235313.15107  91352266.31206
  87545911.20108  22309170.58606        42.200          41.600          48.600  
  23753950.39106                                 124827796.53406  97268533.25603
                  23753962.70703        37.900          21.500                  
  25356818.69505  25356842.21505  25356842.31307 133250897.74705 103831946.05504
  99505587.58507  25356841.68804        33.700          24.800          42.100  
  22484781.60906  22484794.18007  22484792.14507 118158288.13406  92071471.50306
  88235142.11907  22484793.96106        41.300          40.400          46.600  
  24789728.41405  24789742.71906  24789740.83606 130270849.29805 101509844.69204
  97280261.98506  24789741.67604        35.400          27.300          41.000  
 25 04 20 00 13 50.0000000  0 10G01G02G04G07G08G09G16G26G27G30       0.000000000
  22545306.73406  22545318.25807  22545321.01207 118476367.15306  92319314.58205
  88472676.73107  22545317.88305        41.800          31.000          46.700  
  20867670.59407                                 109660246.91707  85449667.49406
                  20867677.97706        47.400          41.600                  
  22688808.03106  22688820.06307  22688822.45307 119230442.74506  92906868.78404
  89035747.51507  22688819.82404        40.500          28.700          46.300  
  22067380.82807  22067388.91407                 115964797.20707  90362284.31607
                  22067388.87107        45.000          43.800                  
  20309685.41408  20309696.79708  20309693.85208 106728055.76708  83164819.76908
  79699605.51508  20309696.03508        48.600          51.600          53.200  
  22310765.63306  22310777.79307  22310777.57008 117243757.77406  91358846.51206
  87552217.22808  22310777.58606        40.900          41.300          48.600  
  23755673.11706                                 124836845.19806  97275584.15403
                  23755684.66803        38.400          20.900                  
  25358687.12505  25358710.77706  25358710.94906 133260716.27305 103839596.79004
  99512919.51906  25358710.05904        34.500          25.600          41.600  
  22487708.66406  22487720.88307  22487718.84007 118173667.70806  92083455.58406
  88246626.84507  22487720.58606        41.400          40.400          46.900  
  24786485.70305  24786499.53506  24786498.00406 130253808.65205 101496566.25804
  97267536.81706  24786498.96904        34.600          27.700          40.000  
 25 04 20 00 13 55.0000000  0 10G01G02G04G07G08G09G16G26G27G30       0.000000000
  22542383.12507  22542394.54707  22542397.34007 118461003.68607  92307343.02605
  88461204.01307  22542394.40205        42.400          31.000          47.000  
  20866386.02308                                 109653495.57108  85444406.70606
                  20866393.24206        48.300          40.900                  
  22691503.12506  22691514.77707  22691517.48007 119244605.06106  92917904.32704
  89046323.21907  22691514.77704        41.500          29.300          46.200  
  22064752.78107  22064761.24607                 115950987.82107  90351523.75907
                  22064760.98807        45.900          44.300                  
  20311073.43808  20311084.73008  20311081.84808 106735349.58908  83170503.26208
  79705052.19208  20311083.99608        49.600          51.800          52.800  
  22312374.28906  22312386.70707  22312386.22708 117252211.57306  91365433.87006
  87558530.10508  22312386.35506        41.100          41.500          48.500  
  23757394.93806                                 124845894.16106  97282635.22903
                  23757406.58603        39.200          21.700                  
  25360556.13305  25360579.39806  25360580.05106 133270536.21005 103847248.65504
  99520252.57606  25360578.92204        34.700          25.000          40.900  
  22490635.40606  22490648.00407  22490645.96107 118189049.61606  92095441.45606
  88258113.29607  22490647.76606        41.300          40.500          46.800  
  24783243.06305  24783257.33206  24783255.35906 130236768.37405 101483288.14904
  97254811.91706  24783256.44104        34.500          28.100          39.700  
 25 04 20 00 14 00.0000000  0 10G01G02G04G07G08G09G16G26G27G30       0.000000000
  22539460.10207  22539471.84407  22539474.55507 118445644.29907  92295374.68805
  88449734.33707  22539471.82405        42.400          32.100          46.600  
  20865104.04708                                 109646758.90408  85439157.35306
                  20865111.32006        48.000          40.900                  
  22694198.85206  22694210.43007  22694213.02707 119258770.33006  92928942.16504
  89056901.15407  22694210.34804        40.700          28.700          46.300  
  22062126.32807  22062134.57407                 115937184.64607  90340768.02707
                  22062134.35207        45.800          44.100                  
  20312463.11708  20312474.39808  20312471.53108 106742652.60608  83176193.90708
  79710505.73108  20312473.73408        48.600          51.700          53.200  
  22313984.78906  22313996.96107  22313996.82008 117260674.51806  91372028.35407
  87564849.82408  22313996.74207        41.800          42.200          49.100  
  23759116.71906                                 124854943.44506  97289686.60403
                  23759128.58203        39.100          22.000                  
  25362424.88305  25362448.29706  25362448.88706                                
  99527586.73806  25362448.06304        34.900          26.800          41.900  
  22493562.88306  22493575.64107  22493573.53507 118204433.82606  92107429.12806
  88269601.50107  22493575.39806        41.400          40.700          47.000  
  24780000.69505  24780014.29706  24780012.75006 130219728.51305 101470010.32104
  97242087.33406  24780013.88304        34.500          27.400          40.000  
 25 04 20 00 14 05.0000000  0 10G01G02G04G07G08G09G16G26G27G30       0.000000000
  22536538.29707  22536549.85507  22536552.28907 118430289.06707  92283409.58405
  88438267.78207  22536549.85505        42.600          32.100          46.700  
  20863824.91407                                 109640036.95507  85433919.46906
                  20863832.08606        47.200          41.300                  
  22696894.82006  22696906.73407  22696909.32007 119272938.61006  92939982.35904
  89067481.33907  22696906.54704        40.800          28.900          46.700  
  22059500.78107  22059509.00407                 115923387.72907  90330017.19007
                  22059508.84007        45.100          44.000                  
  20313854.64808  20313865.93808  20313863.05508 106749964.85708  83181891.75908
  79715966.16508  20313865.18008        48.400          51.800          53.300  
  22315597.09406  22315609.03507  22315608.99208 117269146.60806  91378629.97606
  87571176.35908  22315608.97306        41.600          41.800          48.800  
  23760838.57806                                 124863993.10206  97296738.21603
                  23760850.81303        38.800          21.500                  
  25364294.28105  25364318.26206  25364317.98407 133290180.72105 103862555.98404
  99534922.02907  25364317.31604        35.000          26.800          42.000  
  22496491.04707  22496503.60207  22496501.50407 118219820.41307  92119418.65806
  88281091.43907  22496503.31606        42.200          41.400          46.700  
  24776757.68005  24776772.04705  24776770.48806 130202689.09205 101456732.84604
  97229363.11106  24776771.44104        35.500          28.300          41.100  
